@Sonygps/ver3.0/wgs-84/
$GPGGA,103230.000,5320.6483,N,00148.5640,W,1,0,,424.0,M,,M,,*48
$GPRMC,103230.000,A,5320.6483,N,00148.5640,W,0.000,0.00,060113,,A*61
$GPGGA,103245.000,5320.6358,N,00148.5656,W,1,0,,401.0,M,,M,,*4B
$GPRMC,103245.000,A,5320.6358,N,00148.5656,W,0.000,0.00,060113,,A*65
$GPGGA,103300.000,5320.6250,N,00148.5634,W,1,0,,392.0,M,,M,,*4B
$GPRMC,103300.000,A,5320.6250,N,00148.5634,W,0.000,0.00,060113,,A*68
$GPGGA,103315.000,5320.6245,N,00148.5631,W,1,0,,391.0,M,,M,,*4D
$GPRMC,103315.000,A,5320.6245,N,00148.5631,W,0.000,0.00,060113,,A*6D
$GPGGA,103330.000,5320.6314,N,00148.5586,W,1,0,,391.0,M,,M,,*40
$GPRMC,103330.000,A,5320.6314,N,00148.5586,W,0.000,0.00,060113,,A*60
$GPGGA,103345.000,5320.6355,N,00148.5625,W,1,0,,392.0,M,,M,,*4E
$GPRMC,103345.000,A,5320.6355,N,00148.5625,W,0.000,0.00,060113,,A*6D
$GPGGA,103400.000,5320.6387,N,00148.5751,W,1,0,,391.0,M,,M,,*46
$GPRMC,103400.000,A,5320.6387,N,00148.5751,W,0.000,0.00,060113,,A*66
$GPGGA,103415.000,5320.6438,N,00148.5912,W,1,0,,391.0,M,,M,,*48
$GPRMC,103415.000,A,5320.6438,N,00148.5912,W,0.000,0.00,060113,,A*68
$GPGGA,103430.000,5320.6513,N,00148.6077,W,1,0,,392.0,M,,M,,*4D
$GPRMC,103430.000,A,5320.6513,N,00148.6077,W,0.000,0.00,060113,,A*6E
$GPGGA,103445.000,5320.6570,N,00148.6231,W,1,0,,395.0,M,,M,,*4D
$GPRMC,103445.000,A,5320.6570,N,00148.6231,W,0.000,0.00,060113,,A*69
$GPGGA,103505.000,5320.6612,N,00148.6384,W,1,0,,396.0,M,,M,,*43
$GPRMC,103505.000,A,5320.6612,N,00148.6384,W,0.000,0.00,060113,,A*64
$GPGGA,103520.000,5320.6683,N,00148.6581,W,1,0,,396.0,M,,M,,*4F
$GPRMC,103520.000,A,5320.6683,N,00148.6581,W,0.000,0.00,060113,,A*68
$GPGGA,103535.000,5320.6751,N,00148.6731,W,1,0,,396.0,M,,M,,*4C
$GPRMC,103535.000,A,5320.6751,N,00148.6731,W,0.000,0.00,060113,,A*6B
$GPGGA,103550.000,5320.6790,N,00148.6892,W,1,0,,396.0,M,,M,,*44
$GPRMC,103550.000,A,5320.6790,N,00148.6892,W,0.000,0.00,060113,,A*63
$GPGGA,103605.000,5320.6857,N,00148.7066,W,1,0,,396.0,M,,M,,*41
$GPRMC,103605.000,A,5320.6857,N,00148.7066,W,0.000,0.00,060113,,A*66
$GPGGA,103620.000,5320.6902,N,00148.7243,W,1,0,,396.0,M,,M,,*42
$GPRMC,103620.000,A,5320.6902,N,00148.7243,W,0.000,0.00,060113,,A*65
$GPGGA,103646.000,5320.6978,N,00148.7419,W,1,0,,396.0,M,,M,,*46
$GPRMC,103646.000,A,5320.6978,N,00148.7419,W,0.000,0.00,060113,,A*61
$GPGGA,103702.000,5320.7008,N,00148.7517,W,1,0,,396.0,M,,M,,*47
$GPRMC,103702.000,A,5320.7008,N,00148.7517,W,0.000,0.00,060113,,A*60
$GPGGA,103717.000,5320.7136,N,00148.7593,W,1,0,,397.0,M,,M,,*42
$GPRMC,103717.000,A,5320.7136,N,00148.7593,W,0.000,0.00,060113,,A*64
$GPGGA,103733.000,5320.7140,N,00148.7686,W,1,0,,397.0,M,,M,,*42
$GPRMC,103733.000,A,5320.7140,N,00148.7686,W,0.000,0.00,060113,,A*64
$GPGGA,103748.000,5320.7191,N,00148.7749,W,1,0,,397.0,M,,M,,*40
$GPRMC,103748.000,A,5320.7191,N,00148.7749,W,0.000,0.00,060113,,A*66
$GPGGA,103803.000,5320.7225,N,00148.7786,W,1,0,,397.0,M,,M,,*4F
$GPRMC,103803.000,A,5320.7225,N,00148.7786,W,0.000,0.00,060113,,A*69
$GPGGA,103825.000,5320.7317,N,00148.7822,W,1,0,,397.0,M,,M,,*4A
$GPRMC,103825.000,A,5320.7317,N,00148.7822,W,0.000,0.00,060113,,A*6C
$GPGGA,103840.000,5320.7442,N,00148.7817,W,1,0,,397.0,M,,M,,*48
$GPRMC,103840.000,A,5320.7442,N,00148.7817,W,0.000,0.00,060113,,A*6E
$GPGGA,103855.000,5320.7493,N,00148.7820,W,1,0,,397.0,M,,M,,*44
$GPRMC,103855.000,A,5320.7493,N,00148.7820,W,0.000,0.00,060113,,A*62
$GPGGA,103910.000,5320.7594,N,00148.7806,W,1,0,,397.0,M,,M,,*46
$GPRMC,103910.000,A,5320.7594,N,00148.7806,W,0.000,0.00,060113,,A*60
$GPGGA,103926.000,5320.7722,N,00148.7890,W,1,0,,397.0,M,,M,,*43
$GPRMC,103926.000,A,5320.7722,N,00148.7890,W,0.000,0.00,060113,,A*65
$GPGGA,103941.000,5320.7781,N,00148.7874,W,1,0,,397.0,M,,M,,*41
$GPRMC,103941.000,A,5320.7781,N,00148.7874,W,0.000,0.00,060113,,A*67
$GPGGA,103957.000,5320.7880,N,00148.7966,W,1,0,,398.0,M,,M,,*45
$GPRMC,103957.000,A,5320.7880,N,00148.7966,W,0.000,0.00,060113,,A*6C
$GPGGA,104013.000,5320.7955,N,00148.7993,W,1,0,,398.0,M,,M,,*48
$GPRMC,104013.000,A,5320.7955,N,00148.7993,W,0.000,0.00,060113,,A*61
$GPGGA,104031.000,5320.8010,N,00148.8008,W,1,0,,398.0,M,,M,,*4B
$GPRMC,104031.000,A,5320.8010,N,00148.8008,W,0.000,0.00,060113,,A*62
$GPGGA,104047.000,5320.8072,N,00148.8031,W,1,0,,398.0,M,,M,,*44
$GPRMC,104047.000,A,5320.8072,N,00148.8031,W,0.000,0.00,060113,,A*6D
$GPGGA,104102.000,5320.8159,N,00148.8075,W,1,0,,398.0,M,,M,,*4C
$GPRMC,104102.000,A,5320.8159,N,00148.8075,W,0.000,0.00,060113,,A*65
$GPGGA,104117.000,5320.8157,N,00148.8121,W,1,0,,399.0,M,,M,,*47
$GPRMC,104117.000,A,5320.8157,N,00148.8121,W,0.000,0.00,060113,,A*6F
$GPGGA,104132.000,5320.8179,N,00148.8130,W,1,0,,399.0,M,,M,,*4C
$GPRMC,104132.000,A,5320.8179,N,00148.8130,W,0.000,0.00,060113,,A*64
$GPGGA,104147.000,5320.8232,N,00148.8137,W,1,0,,399.0,M,,M,,*45
$GPRMC,104147.000,A,5320.8232,N,00148.8137,W,0.000,0.00,060113,,A*6D
$GPGGA,104202.000,5320.8276,N,00148.8140,W,1,0,,399.0,M,,M,,*47
$GPRMC,104202.000,A,5320.8276,N,00148.8140,W,0.000,0.00,060113,,A*6F
$GPGGA,104223.000,5320.8369,N,00148.8200,W,1,0,,399.0,M,,M,,*4C
$GPRMC,104223.000,A,5320.8369,N,00148.8200,W,0.000,0.00,060113,,A*64
$GPGGA,104238.000,5320.8367,N,00148.8111,W,1,0,,400.0,M,,M,,*4C
$GPRMC,104238.000,A,5320.8367,N,00148.8111,W,0.000,0.00,060113,,A*63
$GPGGA,104253.000,5320.8418,N,00148.8121,W,1,0,,400.0,M,,M,,*4D
$GPRMC,104253.000,A,5320.8418,N,00148.8121,W,0.000,0.00,060113,,A*62
$GPGGA,104309.000,5320.8470,N,00148.8083,W,1,0,,401.0,M,,M,,*45
$GPRMC,104309.000,A,5320.8470,N,00148.8083,W,0.000,0.00,060113,,A*6B
$GPGGA,104324.000,5320.8557,N,00148.8163,W,1,0,,401.0,M,,M,,*41
$GPRMC,104324.000,A,5320.8557,N,00148.8163,W,0.000,0.00,060113,,A*6F
$GPGGA,104339.000,5320.8578,N,00148.8139,W,1,0,,402.0,M,,M,,*4C
$GPRMC,104339.000,A,5320.8578,N,00148.8139,W,0.000,0.00,060113,,A*61
$GPGGA,104354.000,5320.8607,N,00148.8101,W,1,0,,401.0,M,,M,,*44
$GPRMC,104354.000,A,5320.8607,N,00148.8101,W,0.000,0.00,060113,,A*6A
$GPGGA,104410.000,5320.8587,N,00148.7980,W,1,0,,402.0,M,,M,,*45
$GPRMC,104410.000,A,5320.8587,N,00148.7980,W,0.000,0.00,060113,,A*68
$GPGGA,104425.000,5320.8530,N,00148.8061,W,1,0,,402.0,M,,M,,*46
$GPRMC,104425.000,A,5320.8530,N,00148.8061,W,0.000,0.00,060113,,A*6B
$GPGGA,104440.000,5320.8569,N,00148.8005,W,1,0,,402.0,M,,M,,*4B
$GPRMC,104440.000,A,5320.8569,N,00148.8005,W,0.000,0.00,060113,,A*66
$GPGGA,104456.000,5320.8569,N,00148.7934,W,1,0,,403.0,M,,M,,*49
$GPRMC,104456.000,A,5320.8569,N,00148.7934,W,0.000,0.00,060113,,A*65
$GPGGA,104511.000,5320.8617,N,00148.7720,W,1,0,,403.0,M,,M,,*4A
$GPRMC,104511.000,A,5320.8617,N,00148.7720,W,0.000,0.00,060113,,A*66
$GPGGA,104526.000,5320.8665,N,00148.7609,W,1,0,,403.0,M,,M,,*41
$GPRMC,104526.000,A,5320.8665,N,00148.7609,W,0.000,0.00,060113,,A*6D
$GPGGA,104541.000,5320.8731,N,00148.7567,W,1,0,,404.0,M,,M,,*4C
$GPRMC,104541.000,A,5320.8731,N,00148.7567,W,0.000,0.00,060113,,A*67
$GPGGA,104557.000,5320.8701,N,00148.7555,W,1,0,,404.0,M,,M,,*49
$GPRMC,104557.000,A,5320.8701,N,00148.7555,W,0.000,0.00,060113,,A*62
$GPGGA,104612.000,5320.8710,N,00148.7434,W,1,0,,404.0,M,,M,,*4D
$GPRMC,104612.000,A,5320.8710,N,00148.7434,W,0.000,0.00,060113,,A*66
$GPGGA,104628.000,5320.8795,N,00148.7362,W,1,0,,405.0,M,,M,,*4C
$GPRMC,104628.000,A,5320.8795,N,00148.7362,W,0.000,0.00,060113,,A*66
$GPGGA,104643.000,5320.8832,N,00148.7329,W,1,0,,405.0,M,,M,,*4C
$GPRMC,104643.000,A,5320.8832,N,00148.7329,W,0.000,0.00,060113,,A*66
$GPGGA,104658.000,5320.8839,N,00148.7241,W,1,0,,405.0,M,,M,,*42
$GPRMC,104658.000,A,5320.8839,N,00148.7241,W,0.000,0.00,060113,,A*68
$GPGGA,104713.000,5320.8836,N,00148.7126,W,1,0,,405.0,M,,M,,*41
$GPRMC,104713.000,A,5320.8836,N,00148.7126,W,0.000,0.00,060113,,A*6B
$GPGGA,104729.000,5320.8827,N,00148.7096,W,1,0,,406.0,M,,M,,*41
$GPRMC,104729.000,A,5320.8827,N,00148.7096,W,0.000,0.00,060113,,A*68
$GPGGA,104744.000,5320.8946,N,00148.7061,W,1,0,,406.0,M,,M,,*44
$GPRMC,104744.000,A,5320.8946,N,00148.7061,W,0.000,0.00,060113,,A*6D
$GPGGA,104759.000,5320.9081,N,00148.6930,W,1,0,,406.0,M,,M,,*47
$GPRMC,104759.000,A,5320.9081,N,00148.6930,W,0.000,0.00,060113,,A*6E
$GPGGA,104814.000,5320.9113,N,00148.6931,W,1,0,,407.0,M,,M,,*4B
$GPRMC,104814.000,A,5320.9113,N,00148.6931,W,0.000,0.00,060113,,A*63
$GPGGA,104829.000,5320.9077,N,00148.6879,W,1,0,,407.0,M,,M,,*4B
$GPRMC,104829.000,A,5320.9077,N,00148.6879,W,0.000,0.00,060113,,A*63
$GPGGA,104853.000,5320.9164,N,00148.6985,W,1,0,,407.0,M,,M,,*47
$GPRMC,104853.000,A,5320.9164,N,00148.6985,W,0.000,0.00,060113,,A*6F
$GPGGA,104920.000,5320.9264,N,00148.6809,W,1,0,,407.0,M,,M,,*44
$GPRMC,104920.000,A,5320.9264,N,00148.6809,W,0.000,0.00,060113,,A*6C
$GPGGA,104948.000,5320.9358,N,00148.6733,W,1,0,,407.0,M,,M,,*42
$GPRMC,104948.000,A,5320.9358,N,00148.6733,W,0.000,0.00,060113,,A*6A
$GPGGA,105010.000,5320.9457,N,00148.6741,W,1,0,,407.0,M,,M,,*4A
$GPRMC,105010.000,A,5320.9457,N,00148.6741,W,0.000,0.00,060113,,A*62
$GPGGA,105039.000,5320.9541,N,00148.6698,W,1,0,,407.0,M,,M,,*42
$GPRMC,105039.000,A,5320.9541,N,00148.6698,W,0.000,0.00,060113,,A*6A
$GPGGA,105055.000,5320.9454,N,00148.5879,W,1,0,,409.0,M,,M,,*41
$GPRMC,105055.000,A,5320.9454,N,00148.5879,W,0.000,0.00,060113,,A*67
$GPGGA,105110.000,5320.9507,N,00148.5705,W,1,0,,408.0,M,,M,,*43
$GPRMC,105110.000,A,5320.9507,N,00148.5705,W,0.000,0.00,060113,,A*64
$GPGGA,105134.000,5320.9484,N,00148.5606,W,1,0,,409.0,M,,M,,*4C
$GPRMC,105134.000,A,5320.9484,N,00148.5606,W,0.000,0.00,060113,,A*6A
$GPGGA,105150.000,5320.9578,N,00148.5512,W,1,0,,408.0,M,,M,,*4B
$GPRMC,105150.000,A,5320.9578,N,00148.5512,W,0.000,0.00,060113,,A*6C
$GPGGA,105206.000,5320.9562,N,00148.5487,W,1,0,,409.0,M,,M,,*4C
$GPRMC,105206.000,A,5320.9562,N,00148.5487,W,0.000,0.00,060113,,A*6A
$GPGGA,105221.000,5320.9640,N,00148.5515,W,1,0,,409.0,M,,M,,*40
$GPRMC,105221.000,A,5320.9640,N,00148.5515,W,0.000,0.00,060113,,A*66
$GPGGA,105245.000,5320.9688,N,00148.5431,W,1,0,,409.0,M,,M,,*41
$GPRMC,105245.000,A,5320.9688,N,00148.5431,W,0.000,0.00,060113,,A*67
$GPGGA,105301.000,5320.9793,N,00148.5387,W,1,0,,409.0,M,,M,,*41
$GPRMC,105301.000,A,5320.9793,N,00148.5387,W,0.000,0.00,060113,,A*67
$GPGGA,105317.000,5320.9850,N,00148.5338,W,1,0,,410.0,M,,M,,*4A
$GPRMC,105317.000,A,5320.9850,N,00148.5338,W,0.000,0.00,060113,,A*64
$GPGGA,105333.000,5320.9990,N,00148.5299,W,1,0,,410.0,M,,M,,*4B
$GPRMC,105333.000,A,5320.9990,N,00148.5299,W,0.000,0.00,060113,,A*65
$GPGGA,105348.000,5321.0093,N,00148.5243,W,1,0,,410.0,M,,M,,*42
$GPRMC,105348.000,A,5321.0093,N,00148.5243,W,0.000,0.00,060113,,A*6C
$GPGGA,105404.000,5321.0173,N,00148.5197,W,1,0,,411.0,M,,M,,*49
$GPRMC,105404.000,A,5321.0173,N,00148.5197,W,0.000,0.00,060113,,A*66
$GPGGA,105419.000,5321.0223,N,00148.5147,W,1,0,,411.0,M,,M,,*4E
$GPRMC,105419.000,A,5321.0223,N,00148.5147,W,0.000,0.00,060113,,A*61
$GPGGA,105434.000,5321.0326,N,00148.5118,W,1,0,,411.0,M,,M,,*4F
$GPRMC,105434.000,A,5321.0326,N,00148.5118,W,0.000,0.00,060113,,A*60
$GPGGA,105449.000,5321.0445,N,00148.5042,W,1,0,,411.0,M,,M,,*49
$GPRMC,105449.000,A,5321.0445,N,00148.5042,W,0.000,0.00,060113,,A*66
$GPGGA,105504.000,5321.0560,N,00148.5037,W,1,0,,412.0,M,,M,,*46
$GPRMC,105504.000,A,5321.0560,N,00148.5037,W,0.000,0.00,060113,,A*6A
$GPGGA,105519.000,5321.0686,N,00148.5003,W,1,0,,412.0,M,,M,,*46
$GPRMC,105519.000,A,5321.0686,N,00148.5003,W,0.000,0.00,060113,,A*6A
$GPGGA,105535.000,5321.0782,N,00148.4983,W,1,0,,412.0,M,,M,,*4D
$GPRMC,105535.000,A,5321.0782,N,00148.4983,W,0.000,0.00,060113,,A*61
$GPGGA,105550.000,5321.0889,N,00148.4908,W,1,0,,412.0,M,,M,,*49
$GPRMC,105550.000,A,5321.0889,N,00148.4908,W,0.000,0.00,060113,,A*65
$GPGGA,105605.000,5321.0995,N,00148.4908,W,1,0,,412.0,M,,M,,*46
$GPRMC,105605.000,A,5321.0995,N,00148.4908,W,0.000,0.00,060113,,A*6A
$GPGGA,105620.000,5321.1024,N,00148.4885,W,1,0,,413.0,M,,M,,*46
$GPRMC,105620.000,A,5321.1024,N,00148.4885,W,0.000,0.00,060113,,A*6B
$GPGGA,105636.000,5321.1084,N,00148.4808,W,1,0,,413.0,M,,M,,*4E
$GPRMC,105636.000,A,5321.1084,N,00148.4808,W,0.000,0.00,060113,,A*63
$GPGGA,105652.000,5321.1150,N,00148.4736,W,1,0,,413.0,M,,M,,*46
$GPRMC,105652.000,A,5321.1150,N,00148.4736,W,0.000,0.00,060113,,A*6B
$GPGGA,105707.000,5321.1208,N,00148.4695,W,1,0,,413.0,M,,M,,*41
$GPRMC,105707.000,A,5321.1208,N,00148.4695,W,0.000,0.00,060113,,A*6C
$GPGGA,105723.000,5321.1297,N,00148.4664,W,1,0,,413.0,M,,M,,*4F
$GPRMC,105723.000,A,5321.1297,N,00148.4664,W,0.000,0.00,060113,,A*62
$GPGGA,105738.000,5321.1338,N,00148.4612,W,1,0,,414.0,M,,M,,*47
$GPRMC,105738.000,A,5321.1338,N,00148.4612,W,0.000,0.00,060113,,A*6D
$GPGGA,105753.000,5321.1393,N,00148.4573,W,1,0,,414.0,M,,M,,*4F
$GPRMC,105753.000,A,5321.1393,N,00148.4573,W,0.000,0.00,060113,,A*65
$GPGGA,105809.000,5321.1450,N,00148.4514,W,1,0,,414.0,M,,M,,*46
$GPRMC,105809.000,A,5321.1450,N,00148.4514,W,0.000,0.00,060113,,A*6C
$GPGGA,105824.000,5321.1530,N,00148.4464,W,1,0,,414.0,M,,M,,*48
$GPRMC,105824.000,A,5321.1530,N,00148.4464,W,0.000,0.00,060113,,A*62
$GPGGA,105839.000,5321.1679,N,00148.4312,W,1,0,,414.0,M,,M,,*4C
$GPRMC,105839.000,A,5321.1679,N,00148.4312,W,0.000,0.00,060113,,A*66
$GPGGA,105854.000,5321.1716,N,00148.4275,W,1,0,,414.0,M,,M,,*4F
$GPRMC,105854.000,A,5321.1716,N,00148.4275,W,0.000,0.00,060113,,A*65
$GPGGA,105909.000,5321.1805,N,00148.4274,W,1,0,,414.0,M,,M,,*4A
$GPRMC,105909.000,A,5321.1805,N,00148.4274,W,0.000,0.00,060113,,A*60
$GPGGA,105925.000,5321.1869,N,00148.4212,W,1,0,,414.0,M,,M,,*4E
$GPRMC,105925.000,A,5321.1869,N,00148.4212,W,0.000,0.00,060113,,A*64
$GPGGA,105940.000,5321.1922,N,00148.4170,W,1,0,,414.0,M,,M,,*44
$GPRMC,105940.000,A,5321.1922,N,00148.4170,W,0.000,0.00,060113,,A*6E
$GPGGA,105956.000,5321.2025,N,00148.4082,W,1,0,,414.0,M,,M,,*42
$GPRMC,105956.000,A,5321.2025,N,00148.4082,W,0.000,0.00,060113,,A*68
$GPGGA,110011.000,5321.2098,N,00148.4029,W,1,0,,414.0,M,,M,,*4B
$GPRMC,110011.000,A,5321.2098,N,00148.4029,W,0.000,0.00,060113,,A*61
$GPGGA,110026.000,5321.2160,N,00148.3977,W,1,0,,414.0,M,,M,,*4C
$GPRMC,110026.000,A,5321.2160,N,00148.3977,W,0.000,0.00,060113,,A*66
$GPGGA,110041.000,5321.2279,N,00148.3920,W,1,0,,414.0,M,,M,,*44
$GPRMC,110041.000,A,5321.2279,N,00148.3920,W,0.000,0.00,060113,,A*6E
$GPGGA,110057.000,5321.2334,N,00148.3889,W,1,0,,414.0,M,,M,,*49
$GPRMC,110057.000,A,5321.2334,N,00148.3889,W,0.000,0.00,060113,,A*63
$GPGGA,110112.000,5321.2398,N,00148.3832,W,1,0,,414.0,M,,M,,*4F
$GPRMC,110112.000,A,5321.2398,N,00148.3832,W,0.000,0.00,060113,,A*65
$GPGGA,110127.000,5321.2476,N,00148.3763,W,1,0,,414.0,M,,M,,*45
$GPRMC,110127.000,A,5321.2476,N,00148.3763,W,0.000,0.00,060113,,A*6F
$GPGGA,110143.000,5321.2574,N,00148.3674,W,1,0,,414.0,M,,M,,*43
$GPRMC,110143.000,A,5321.2574,N,00148.3674,W,0.000,0.00,060113,,A*69
$GPGGA,110158.000,5321.2647,N,00148.3614,W,1,0,,414.0,M,,M,,*4C
$GPRMC,110158.000,A,5321.2647,N,00148.3614,W,0.000,0.00,060113,,A*66
$GPGGA,110213.000,5321.2750,N,00148.3516,W,1,0,,414.0,M,,M,,*46
$GPRMC,110213.000,A,5321.2750,N,00148.3516,W,0.000,0.00,060113,,A*6C
$GPGGA,110228.000,5321.2803,N,00148.3465,W,1,0,,414.0,M,,M,,*42
$GPRMC,110228.000,A,5321.2803,N,00148.3465,W,0.000,0.00,060113,,A*68
$GPGGA,110243.000,5321.2894,N,00148.3388,W,1,0,,413.0,M,,M,,*42
$GPRMC,110243.000,A,5321.2894,N,00148.3388,W,0.000,0.00,060113,,A*6F
$GPGGA,110258.000,5321.2963,N,00148.3350,W,1,0,,413.0,M,,M,,*44
$GPRMC,110258.000,A,5321.2963,N,00148.3350,W,0.000,0.00,060113,,A*69
$GPGGA,110314.000,5321.3048,N,00148.3283,W,1,0,,414.0,M,,M,,*44
$GPRMC,110314.000,A,5321.3048,N,00148.3283,W,0.000,0.00,060113,,A*6E
$GPGGA,110330.000,5321.3110,N,00148.3172,W,1,0,,413.0,M,,M,,*44
$GPRMC,110330.000,A,5321.3110,N,00148.3172,W,0.000,0.00,060113,,A*69
$GPGGA,110345.000,5321.3215,N,00148.3054,W,1,0,,413.0,M,,M,,*45
$GPRMC,110345.000,A,5321.3215,N,00148.3054,W,0.000,0.00,060113,,A*68
$GPGGA,110400.000,5321.3254,N,00148.2978,W,1,0,,413.0,M,,M,,*40
$GPRMC,110400.000,A,5321.3254,N,00148.2978,W,0.000,0.00,060113,,A*6D
$GPGGA,110416.000,5321.3327,N,00148.2854,W,1,0,,413.0,M,,M,,*4D
$GPRMC,110416.000,A,5321.3327,N,00148.2854,W,0.000,0.00,060113,,A*60
$GPGGA,110431.000,5321.3377,N,00148.2840,W,1,0,,413.0,M,,M,,*48
$GPRMC,110431.000,A,5321.3377,N,00148.2840,W,0.000,0.00,060113,,A*65
$GPGGA,110446.000,5321.3407,N,00148.2750,W,1,0,,413.0,M,,M,,*46
$GPRMC,110446.000,A,5321.3407,N,00148.2750,W,0.000,0.00,060113,,A*6B
$GPGGA,110501.000,5321.3480,N,00148.2630,W,1,0,,413.0,M,,M,,*4C
$GPRMC,110501.000,A,5321.3480,N,00148.2630,W,0.000,0.00,060113,,A*61
$GPGGA,110517.000,5321.3522,N,00148.2495,W,1,0,,413.0,M,,M,,*4F
$GPRMC,110517.000,A,5321.3522,N,00148.2495,W,0.000,0.00,060113,,A*62
$GPGGA,110532.000,5321.3579,N,00148.2402,W,1,0,,413.0,M,,M,,*48
$GPRMC,110532.000,A,5321.3579,N,00148.2402,W,0.000,0.00,060113,,A*65
$GPGGA,110547.000,5321.3622,N,00148.2275,W,1,0,,413.0,M,,M,,*41
$GPRMC,110547.000,A,5321.3622,N,00148.2275,W,0.000,0.00,060113,,A*6C
$GPGGA,110602.000,5321.3693,N,00148.2171,W,1,0,,413.0,M,,M,,*4E
$GPRMC,110602.000,A,5321.3693,N,00148.2171,W,0.000,0.00,060113,,A*63
$GPGGA,110617.000,5321.3792,N,00148.1936,W,1,0,,413.0,M,,M,,*42
$GPRMC,110617.000,A,5321.3792,N,00148.1936,W,0.000,0.00,060113,,A*6F
$GPGGA,110632.000,5321.3833,N,00148.1862,W,1,0,,413.0,M,,M,,*41
$GPRMC,110632.000,A,5321.3833,N,00148.1862,W,0.000,0.00,060113,,A*6C
$GPGGA,110648.000,5321.3872,N,00148.1719,W,1,0,,413.0,M,,M,,*4A
$GPRMC,110648.000,A,5321.3872,N,00148.1719,W,0.000,0.00,060113,,A*67
$GPGGA,110704.000,5321.3963,N,00148.1468,W,1,0,,413.0,M,,M,,*47
$GPRMC,110704.000,A,5321.3963,N,00148.1468,W,0.000,0.00,060113,,A*6A
$GPGGA,110719.000,5321.3998,N,00148.1386,W,1,0,,413.0,M,,M,,*48
$GPRMC,110719.000,A,5321.3998,N,00148.1386,W,0.000,0.00,060113,,A*65
$GPGGA,110747.000,5321.4007,N,00148.1123,W,1,0,,413.0,M,,M,,*46
$GPRMC,110747.000,A,5321.4007,N,00148.1123,W,0.000,0.00,060113,,A*6B
$GPGGA,110803.000,5321.4048,N,00148.1000,W,1,0,,413.0,M,,M,,*42
$GPRMC,110803.000,A,5321.4048,N,00148.1000,W,0.000,0.00,060113,,A*6F
$GPGGA,110818.000,5321.4124,N,00148.0748,W,1,0,,413.0,M,,M,,*49
$GPRMC,110818.000,A,5321.4124,N,00148.0748,W,0.000,0.00,060113,,A*64
$GPGGA,110833.000,5321.4137,N,00148.0675,W,1,0,,413.0,M,,M,,*4D
$GPRMC,110833.000,A,5321.4137,N,00148.0675,W,0.000,0.00,060113,,A*60
$GPGGA,110848.000,5321.4146,N,00148.0609,W,1,0,,413.0,M,,M,,*4C
$GPRMC,110848.000,A,5321.4146,N,00148.0609,W,0.000,0.00,060113,,A*61
$GPGGA,110903.000,5321.4220,N,00148.0355,W,1,0,,412.0,M,,M,,*4C
$GPRMC,110903.000,A,5321.4220,N,00148.0355,W,0.000,0.00,060113,,A*60
$GPGGA,110920.000,5321.4263,N,00148.0184,W,1,0,,412.0,M,,M,,*44
$GPRMC,110920.000,A,5321.4263,N,00148.0184,W,0.000,0.00,060113,,A*68
$GPGGA,110935.000,5321.4297,N,00148.0033,W,1,0,,412.0,M,,M,,*46
$GPRMC,110935.000,A,5321.4297,N,00148.0033,W,0.000,0.00,060113,,A*6A
$GPGGA,110950.000,5321.4314,N,00147.9869,W,1,0,,412.0,M,,M,,*4E
$GPRMC,110950.000,A,5321.4314,N,00147.9869,W,0.000,0.00,060113,,A*62
$GPGGA,111005.000,5321.4350,N,00147.9679,W,1,0,,412.0,M,,M,,*49
$GPRMC,111005.000,A,5321.4350,N,00147.9679,W,0.000,0.00,060113,,A*65
$GPGGA,111021.000,5321.4309,N,00147.9502,W,1,0,,412.0,M,,M,,*4C
$GPRMC,111021.000,A,5321.4309,N,00147.9502,W,0.000,0.00,060113,,A*60
$GPGGA,111036.000,5321.4320,N,00147.9299,W,1,0,,412.0,M,,M,,*44
$GPRMC,111036.000,A,5321.4320,N,00147.9299,W,0.000,0.00,060113,,A*68
$GPGGA,111051.000,5321.4394,N,00147.9149,W,1,0,,412.0,M,,M,,*44
$GPRMC,111051.000,A,5321.4394,N,00147.9149,W,0.000,0.00,060113,,A*68
$GPGGA,111107.000,5321.4423,N,00147.8947,W,1,0,,412.0,M,,M,,*4A
$GPRMC,111107.000,A,5321.4423,N,00147.8947,W,0.000,0.00,060113,,A*66
$GPGGA,111122.000,5321.4439,N,00147.8788,W,1,0,,412.0,M,,M,,*4B
$GPRMC,111122.000,A,5321.4439,N,00147.8788,W,0.000,0.00,060113,,A*67
$GPGGA,111137.000,5321.4467,N,00147.8628,W,1,0,,412.0,M,,M,,*4F
$GPRMC,111137.000,A,5321.4467,N,00147.8628,W,0.000,0.00,060113,,A*63
$GPGGA,111152.000,5321.4442,N,00147.8436,W,1,0,,411.0,M,,M,,*45
$GPRMC,111152.000,A,5321.4442,N,00147.8436,W,0.000,0.00,060113,,A*6A
$GPGGA,111210.000,5321.4391,N,00147.8309,W,1,0,,411.0,M,,M,,*42
$GPRMC,111210.000,A,5321.4391,N,00147.8309,W,0.000,0.00,060113,,A*6D
$GPGGA,111225.000,5321.4375,N,00147.8266,W,1,0,,411.0,M,,M,,*46
$GPRMC,111225.000,A,5321.4375,N,00147.8266,W,0.000,0.00,060113,,A*69
$GPGGA,111240.000,5321.4330,N,00147.8077,W,1,0,,411.0,M,,M,,*46
$GPRMC,111240.000,A,5321.4330,N,00147.8077,W,0.000,0.00,060113,,A*69
$GPGGA,111256.000,5321.4318,N,00147.8069,W,1,0,,411.0,M,,M,,*44
$GPRMC,111256.000,A,5321.4318,N,00147.8069,W,0.000,0.00,060113,,A*6B
$GPGGA,111311.000,5321.4279,N,00147.8007,W,1,0,,410.0,M,,M,,*49
$GPRMC,111311.000,A,5321.4279,N,00147.8007,W,0.000,0.00,060113,,A*67
$GPGGA,111326.000,5321.4304,N,00147.7987,W,1,0,,410.0,M,,M,,*48
$GPRMC,111326.000,A,5321.4304,N,00147.7987,W,0.000,0.00,060113,,A*66
$GPGGA,111341.000,5321.4293,N,00147.7920,W,1,0,,410.0,M,,M,,*4B
$GPRMC,111341.000,A,5321.4293,N,00147.7920,W,0.000,0.00,060113,,A*65
$GPGGA,111356.000,5321.4183,N,00147.7712,W,1,0,,409.0,M,,M,,*48
$GPRMC,111356.000,A,5321.4183,N,00147.7712,W,0.000,0.00,060113,,A*6E
$GPGGA,111411.000,5321.4144,N,00147.7611,W,1,0,,409.0,M,,M,,*45
$GPRMC,111411.000,A,5321.4144,N,00147.7611,W,0.000,0.00,060113,,A*63
$GPGGA,111426.000,5321.4192,N,00147.7612,W,1,0,,409.0,M,,M,,*49
$GPRMC,111426.000,A,5321.4192,N,00147.7612,W,0.000,0.00,060113,,A*6F
$GPGGA,111441.000,5321.4162,N,00147.7536,W,1,0,,409.0,M,,M,,*42
$GPRMC,111441.000,A,5321.4162,N,00147.7536,W,0.000,0.00,060113,,A*64
$GPGGA,111456.000,5321.4151,N,00147.7476,W,1,0,,408.0,M,,M,,*40
$GPRMC,111456.000,A,5321.4151,N,00147.7476,W,0.000,0.00,060113,,A*67
$GPGGA,111511.000,5321.4101,N,00147.7393,W,1,0,,408.0,M,,M,,*4B
$GPRMC,111511.000,A,5321.4101,N,00147.7393,W,0.000,0.00,060113,,A*6C
$GPGGA,111527.000,5321.4057,N,00147.7253,W,1,0,,407.0,M,,M,,*4E
$GPRMC,111527.000,A,5321.4057,N,00147.7253,W,0.000,0.00,060113,,A*66
$GPGGA,111542.000,5321.4091,N,00147.7256,W,1,0,,407.0,M,,M,,*42
$GPRMC,111542.000,A,5321.4091,N,00147.7256,W,0.000,0.00,060113,,A*6A
$GPGGA,111557.000,5321.4059,N,00147.7096,W,1,0,,407.0,M,,M,,*4C
$GPRMC,111557.000,A,5321.4059,N,00147.7096,W,0.000,0.00,060113,,A*64
$GPGGA,111612.000,5321.4027,N,00147.7025,W,1,0,,406.0,M,,M,,*4E
$GPRMC,111612.000,A,5321.4027,N,00147.7025,W,0.000,0.00,060113,,A*67
$GPGGA,111628.000,5321.3876,N,00147.6737,W,1,0,,405.0,M,,M,,*4A
$GPRMC,111628.000,A,5321.3876,N,00147.6737,W,0.000,0.00,060113,,A*60
$GPGGA,111643.000,5321.3908,N,00147.6658,W,1,0,,405.0,M,,M,,*47
$GPRMC,111643.000,A,5321.3908,N,00147.6658,W,0.000,0.00,060113,,A*6D
$GPGGA,111658.000,5321.3879,N,00147.6596,W,1,0,,404.0,M,,M,,*4A
$GPRMC,111658.000,A,5321.3879,N,00147.6596,W,0.000,0.00,060113,,A*61
$GPGGA,111714.000,5321.3764,N,00147.6452,W,1,0,,404.0,M,,M,,*49
$GPRMC,111714.000,A,5321.3764,N,00147.6452,W,0.000,0.00,060113,,A*62
$GPGGA,111730.000,5321.3716,N,00147.6201,W,1,0,,403.0,M,,M,,*4D
$GPRMC,111730.000,A,5321.3716,N,00147.6201,W,0.000,0.00,060113,,A*61
$GPGGA,111745.000,5321.3661,N,00147.6072,W,1,0,,403.0,M,,M,,*48
$GPRMC,111745.000,A,5321.3661,N,00147.6072,W,0.000,0.00,060113,,A*64
$GPGGA,111803.000,5321.3613,N,00147.6151,W,1,0,,403.0,M,,M,,*40
$GPRMC,111803.000,A,5321.3613,N,00147.6151,W,0.000,0.00,060113,,A*6C
$GPGGA,111818.000,5321.3409,N,00147.6379,W,1,0,,402.0,M,,M,,*4A
$GPRMC,111818.000,A,5321.3409,N,00147.6379,W,0.000,0.00,060113,,A*67
$GPGGA,111833.000,5321.3336,N,00147.6829,W,1,0,,402.0,M,,M,,*46
$GPRMC,111833.000,A,5321.3336,N,00147.6829,W,0.000,0.00,060113,,A*6B
$GPGGA,111849.000,5321.3206,N,00147.6782,W,1,0,,402.0,M,,M,,*47
$GPRMC,111849.000,A,5321.3206,N,00147.6782,W,0.000,0.00,060113,,A*6A
$GPGGA,111904.000,5321.3208,N,00147.6681,W,1,0,,402.0,M,,M,,*43
$GPRMC,111904.000,A,5321.3208,N,00147.6681,W,0.000,0.00,060113,,A*6E
$GPGGA,111919.000,5321.3238,N,00147.6655,W,1,0,,401.0,M,,M,,*46
$GPRMC,111919.000,A,5321.3238,N,00147.6655,W,0.000,0.00,060113,,A*68
$GPGGA,111934.000,5321.3240,N,00147.6638,W,1,0,,401.0,M,,M,,*4D
$GPRMC,111934.000,A,5321.3240,N,00147.6638,W,0.000,0.00,060113,,A*63
$GPGGA,111949.000,5321.3148,N,00147.6354,W,1,0,,401.0,M,,M,,*43
$GPRMC,111949.000,A,5321.3148,N,00147.6354,W,0.000,0.00,060113,,A*6D
$GPGGA,112004.000,5321.3091,N,00147.6369,W,1,0,,401.0,M,,M,,*4B
$GPRMC,112004.000,A,5321.3091,N,00147.6369,W,0.000,0.00,060113,,A*65
$GPGGA,112019.000,5321.3059,N,00147.6185,W,1,0,,401.0,M,,M,,*43
$GPRMC,112019.000,A,5321.3059,N,00147.6185,W,0.000,0.00,060113,,A*6D
$GPGGA,112035.000,5321.2993,N,00147.6072,W,1,0,,400.0,M,,M,,*4B
$GPRMC,112035.000,A,5321.2993,N,00147.6072,W,0.000,0.00,060113,,A*64
$GPGGA,112050.000,5321.2940,N,00147.6129,W,1,0,,400.0,M,,M,,*49
$GPRMC,112050.000,A,5321.2940,N,00147.6129,W,0.000,0.00,060113,,A*66
$GPGGA,112105.000,5321.2910,N,00147.5962,W,1,0,,399.0,M,,M,,*4E
$GPRMC,112105.000,A,5321.2910,N,00147.5962,W,0.000,0.00,060113,,A*66
$GPGGA,112120.000,5321.2846,N,00147.5907,W,1,0,,399.0,M,,M,,*48
$GPRMC,112120.000,A,5321.2846,N,00147.5907,W,0.000,0.00,060113,,A*60
$GPGGA,112136.000,5321.2844,N,00147.5721,W,1,0,,400.0,M,,M,,*40
$GPRMC,112136.000,A,5321.2844,N,00147.5721,W,0.000,0.00,060113,,A*6F
$GPGGA,112151.000,5321.2704,N,00147.6004,W,1,0,,399.0,M,,M,,*4E
$GPRMC,112151.000,A,5321.2704,N,00147.6004,W,0.000,0.00,060113,,A*66
$GPGGA,112206.000,5321.2720,N,00147.5916,W,1,0,,399.0,M,,M,,*40
$GPRMC,112206.000,A,5321.2720,N,00147.5916,W,0.000,0.00,060113,,A*68
$GPGGA,112222.000,5321.2723,N,00147.5420,W,1,0,,399.0,M,,M,,*4D
$GPRMC,112222.000,A,5321.2723,N,00147.5420,W,0.000,0.00,060113,,A*65
$GPGGA,112247.000,5321.2631,N,00147.5682,W,1,0,,399.0,M,,M,,*46
$GPRMC,112247.000,A,5321.2631,N,00147.5682,W,0.000,0.00,060113,,A*6E
$GPGGA,112303.000,5321.2540,N,00147.5860,W,1,0,,399.0,M,,M,,*40
$GPRMC,112303.000,A,5321.2540,N,00147.5860,W,0.000,0.00,060113,,A*68
$GPGGA,112319.000,5321.2544,N,00147.5853,W,1,0,,399.0,M,,M,,*4F
$GPRMC,112319.000,A,5321.2544,N,00147.5853,W,0.000,0.00,060113,,A*67
$GPGGA,112334.000,5321.2535,N,00147.5781,W,1,0,,398.0,M,,M,,*47
$GPRMC,112334.000,A,5321.2535,N,00147.5781,W,0.000,0.00,060113,,A*6E
$GPGGA,112351.000,5321.2299,N,00147.5598,W,1,0,,397.0,M,,M,,*40
$GPRMC,112351.000,A,5321.2299,N,00147.5598,W,0.000,0.00,060113,,A*66
$GPGGA,112406.000,5321.2302,N,00147.5384,W,1,0,,397.0,M,,M,,*4D
$GPRMC,112406.000,A,5321.2302,N,00147.5384,W,0.000,0.00,060113,,A*6B
$GPGGA,112421.000,5321.2888,N,00147.5122,W,1,0,,396.0,M,,M,,*4E
$GPRMC,112421.000,A,5321.2888,N,00147.5122,W,0.000,0.00,060113,,A*69
$GPGGA,112436.000,5321.2892,N,00147.5074,W,1,0,,396.0,M,,M,,*41
$GPRMC,112436.000,A,5321.2892,N,00147.5074,W,0.000,0.00,060113,,A*66
$GPGGA,112451.000,5321.2975,N,00147.4841,W,1,0,,396.0,M,,M,,*47
$GPRMC,112451.000,A,5321.2975,N,00147.4841,W,0.000,0.00,060113,,A*60
$GPGGA,112507.000,5321.2899,N,00147.4860,W,1,0,,396.0,M,,M,,*45
$GPRMC,112507.000,A,5321.2899,N,00147.4860,W,0.000,0.00,060113,,A*62
$GPGGA,112522.000,5321.2892,N,00147.4738,W,1,0,,396.0,M,,M,,*4B
$GPRMC,112522.000,A,5321.2892,N,00147.4738,W,0.000,0.00,060113,,A*6C
$GPGGA,112537.000,5321.2840,N,00147.4659,W,1,0,,396.0,M,,M,,*46
$GPRMC,112537.000,A,5321.2840,N,00147.4659,W,0.000,0.00,060113,,A*61
$GPGGA,112552.000,5321.2828,N,00147.4564,W,1,0,,396.0,M,,M,,*46
$GPRMC,112552.000,A,5321.2828,N,00147.4564,W,0.000,0.00,060113,,A*61
$GPGGA,112607.000,5321.2727,N,00147.4498,W,1,0,,396.0,M,,M,,*47
$GPRMC,112607.000,A,5321.2727,N,00147.4498,W,0.000,0.00,060113,,A*60
$GPGGA,112622.000,5321.2725,N,00147.4409,W,1,0,,396.0,M,,M,,*4A
$GPRMC,112622.000,A,5321.2725,N,00147.4409,W,0.000,0.00,060113,,A*6D
$GPGGA,112637.000,5321.2627,N,00147.4223,W,1,0,,395.0,M,,M,,*40
$GPRMC,112637.000,A,5321.2627,N,00147.4223,W,0.000,0.00,060113,,A*64
$GPGGA,112652.000,5321.2654,N,00147.4233,W,1,0,,395.0,M,,M,,*46
$GPRMC,112652.000,A,5321.2654,N,00147.4233,W,0.000,0.00,060113,,A*62
$GPGGA,112708.000,5321.2601,N,00147.4241,W,1,0,,395.0,M,,M,,*4D
$GPRMC,112708.000,A,5321.2601,N,00147.4241,W,0.000,0.00,060113,,A*69
$GPGGA,112723.000,5321.2558,N,00147.4227,W,1,0,,395.0,M,,M,,*4B
$GPRMC,112723.000,A,5321.2558,N,00147.4227,W,0.000,0.00,060113,,A*6F
$GPGGA,112738.000,5321.2579,N,00147.4215,W,1,0,,395.0,M,,M,,*43
$GPRMC,112738.000,A,5321.2579,N,00147.4215,W,0.000,0.00,060113,,A*67
$GPGGA,112754.000,5321.2482,N,00147.4152,W,1,0,,395.0,M,,M,,*4C
$GPRMC,112754.000,A,5321.2482,N,00147.4152,W,0.000,0.00,060113,,A*68
$GPGGA,112809.000,5321.2428,N,00147.4114,W,1,0,,394.0,M,,M,,*48
$GPRMC,112809.000,A,5321.2428,N,00147.4114,W,0.000,0.00,060113,,A*6D
$GPGGA,112828.000,5321.2009,N,00147.3847,W,1,0,,394.0,M,,M,,*44
$GPRMC,112828.000,A,5321.2009,N,00147.3847,W,0.000,0.00,060113,,A*61
$GPGGA,112843.000,5321.2002,N,00147.3764,W,1,0,,394.0,M,,M,,*4C
$GPRMC,112843.000,A,5321.2002,N,00147.3764,W,0.000,0.00,060113,,A*69
$GPGGA,112858.000,5321.1862,N,00147.3947,W,1,0,,394.0,M,,M,,*44
$GPRMC,112858.000,A,5321.1862,N,00147.3947,W,0.000,0.00,060113,,A*61
$GPGGA,112913.000,5321.1734,N,00147.3916,W,1,0,,394.0,M,,M,,*42
$GPRMC,112913.000,A,5321.1734,N,00147.3916,W,0.000,0.00,060113,,A*67
$GPGGA,112930.000,5321.1583,N,00147.3622,W,1,0,,394.0,M,,M,,*45
$GPRMC,112930.000,A,5321.1583,N,00147.3622,W,0.000,0.00,060113,,A*60
$GPGGA,112945.000,5321.1567,N,00147.3280,W,1,0,,393.0,M,,M,,*46
$GPRMC,112945.000,A,5321.1567,N,00147.3280,W,0.000,0.00,060113,,A*64
$GPGGA,113000.000,5321.1549,N,00147.3253,W,1,0,,393.0,M,,M,,*4D
$GPRMC,113000.000,A,5321.1549,N,00147.3253,W,0.000,0.00,060113,,A*6F
$GPGGA,113016.000,5321.1581,N,00147.3086,W,1,0,,393.0,M,,M,,*44
$GPRMC,113016.000,A,5321.1581,N,00147.3086,W,0.000,0.00,060113,,A*66
$GPGGA,113032.000,5321.1961,N,00147.2794,W,1,0,,393.0,M,,M,,*45
$GPRMC,113032.000,A,5321.1961,N,00147.2794,W,0.000,0.00,060113,,A*67
$GPGGA,113047.000,5321.1709,N,00147.2775,W,1,0,,393.0,M,,M,,*48
$GPRMC,113047.000,A,5321.1709,N,00147.2775,W,0.000,0.00,060113,,A*6A
$GPGGA,113102.000,5321.1645,N,00147.2775,W,1,0,,393.0,M,,M,,*41
$GPRMC,113102.000,A,5321.1645,N,00147.2775,W,0.000,0.00,060113,,A*63
$GPGGA,113117.000,5321.1597,N,00147.2737,W,1,0,,393.0,M,,M,,*4F
$GPRMC,113117.000,A,5321.1597,N,00147.2737,W,0.000,0.00,060113,,A*6D
$GPGGA,113133.000,5321.1452,N,00147.2604,W,1,0,,393.0,M,,M,,*40
$GPRMC,113133.000,A,5321.1452,N,00147.2604,W,0.000,0.00,060113,,A*62
$GPGGA,113148.000,5321.1263,N,00147.2453,W,1,0,,393.0,M,,M,,*48
$GPRMC,113148.000,A,5321.1263,N,00147.2453,W,0.000,0.00,060113,,A*6A
$GPGGA,113204.000,5321.2057,N,00147.2358,W,1,0,,393.0,M,,M,,*49
$GPRMC,113204.000,A,5321.2057,N,00147.2358,W,0.000,0.00,060113,,A*6B
$GPGGA,113219.000,5321.2064,N,00147.2277,W,1,0,,393.0,M,,M,,*49
$GPRMC,113219.000,A,5321.2064,N,00147.2277,W,0.000,0.00,060113,,A*6B
$GPGGA,113234.000,5321.1967,N,00147.1999,W,1,0,,392.0,M,,M,,*46
$GPRMC,113234.000,A,5321.1967,N,00147.1999,W,0.000,0.00,060113,,A*65
$GPGGA,113249.000,5321.2148,N,00147.2025,W,1,0,,392.0,M,,M,,*47
$GPRMC,113249.000,A,5321.2148,N,00147.2025,W,0.000,0.00,060113,,A*64
$GPGGA,113305.000,5321.2052,N,00147.1931,W,1,0,,392.0,M,,M,,*4B
$GPRMC,113305.000,A,5321.2052,N,00147.1931,W,0.000,0.00,060113,,A*68
$GPGGA,113320.000,5321.1988,N,00147.1854,W,1,0,,392.0,M,,M,,*43
$GPRMC,113320.000,A,5321.1988,N,00147.1854,W,0.000,0.00,060113,,A*60
$GPGGA,113335.000,5321.1915,N,00147.1704,W,1,0,,391.0,M,,M,,*4A
$GPRMC,113335.000,A,5321.1915,N,00147.1704,W,0.000,0.00,060113,,A*6A
$GPGGA,113352.000,5321.1913,N,00147.1858,W,1,0,,391.0,M,,M,,*4B
$GPRMC,113352.000,A,5321.1913,N,00147.1858,W,0.000,0.00,060113,,A*6B
$GPGGA,113408.000,5321.1899,N,00147.1926,W,1,0,,391.0,M,,M,,*48
$GPRMC,113408.000,A,5321.1899,N,00147.1926,W,0.000,0.00,060113,,A*68
$GPGGA,113426.000,5321.2043,N,00147.2543,W,1,0,,391.0,M,,M,,*44
$GPRMC,113426.000,A,5321.2043,N,00147.2543,W,0.000,0.00,060113,,A*64
$GPGGA,113441.000,5321.1871,N,00147.2367,W,1,0,,391.0,M,,M,,*4F
$GPRMC,113441.000,A,5321.1871,N,00147.2367,W,0.000,0.00,060113,,A*6F
$GPGGA,113509.000,5321.1771,N,00147.2236,W,1,0,,391.0,M,,M,,*48
$GPRMC,113509.000,A,5321.1771,N,00147.2236,W,0.000,0.00,060113,,A*68
$GPGGA,113524.000,5321.1684,N,00147.2129,W,1,0,,390.0,M,,M,,*40
$GPRMC,113524.000,A,5321.1684,N,00147.2129,W,0.000,0.00,060113,,A*61
$GPGGA,113539.000,5321.1658,N,00147.2085,W,1,0,,390.0,M,,M,,*4A
$GPRMC,113539.000,A,5321.1658,N,00147.2085,W,0.000,0.00,060113,,A*6B
$GPGGA,113555.000,5321.1475,N,00147.1983,W,1,0,,390.0,M,,M,,*41
$GPRMC,113555.000,A,5321.1475,N,00147.1983,W,0.000,0.00,060113,,A*60
$GPGGA,113614.000,5321.1482,N,00147.1786,W,1,0,,390.0,M,,M,,*44
$GPRMC,113614.000,A,5321.1482,N,00147.1786,W,0.000,0.00,060113,,A*65
$GPGGA,113633.000,5321.0361,N,00147.0013,W,1,0,,390.0,M,,M,,*40
$GPRMC,113633.000,A,5321.0361,N,00147.0013,W,0.000,0.00,060113,,A*61
$GPGGA,113648.000,5321.0420,N,00147.0018,W,1,0,,390.0,M,,M,,*45
$GPRMC,113648.000,A,5321.0420,N,00147.0018,W,0.000,0.00,060113,,A*64
$GPGGA,113703.000,5321.0466,N,00146.9950,W,1,0,,389.0,M,,M,,*4C
$GPRMC,113703.000,A,5321.0466,N,00146.9950,W,0.000,0.00,060113,,A*65
$GPGGA,113718.000,5321.0537,N,00146.9760,W,1,0,,389.0,M,,M,,*4E
$GPRMC,113718.000,A,5321.0537,N,00146.9760,W,0.000,0.00,060113,,A*67
$GPGGA,113733.000,5321.0464,N,00146.9688,W,1,0,,389.0,M,,M,,*47
$GPRMC,113733.000,A,5321.0464,N,00146.9688,W,0.000,0.00,060113,,A*6E
$GPGGA,113749.000,5321.0358,N,00146.9338,W,1,0,,389.0,M,,M,,*4C
$GPRMC,113749.000,A,5321.0358,N,00146.9338,W,0.000,0.00,060113,,A*65
$GPGGA,113804.000,5321.0258,N,00146.9234,W,1,0,,388.0,M,,M,,*47
$GPRMC,113804.000,A,5321.0258,N,00146.9234,W,0.000,0.00,060113,,A*6F
$GPGGA,113819.000,5321.0182,N,00146.9173,W,1,0,,388.0,M,,M,,*4F
$GPRMC,113819.000,A,5321.0182,N,00146.9173,W,0.000,0.00,060113,,A*67
$GPGGA,113834.000,5321.0377,N,00146.9303,W,1,0,,388.0,M,,M,,*4D
$GPRMC,113834.000,A,5321.0377,N,00146.9303,W,0.000,0.00,060113,,A*65
$GPGGA,113850.000,5321.0207,N,00146.9036,W,1,0,,388.0,M,,M,,*4C
$GPRMC,113850.000,A,5321.0207,N,00146.9036,W,0.000,0.00,060113,,A*64
$GPGGA,113905.000,5321.0310,N,00146.8991,W,1,0,,388.0,M,,M,,*4F
$GPRMC,113905.000,A,5321.0310,N,00146.8991,W,0.000,0.00,060113,,A*67
$GPGGA,113920.000,5321.0331,N,00146.8848,W,1,0,,388.0,M,,M,,*4E
$GPRMC,113920.000,A,5321.0331,N,00146.8848,W,0.000,0.00,060113,,A*66
$GPGGA,113936.000,5321.0184,N,00146.8677,W,1,0,,388.0,M,,M,,*47
$GPRMC,113936.000,A,5321.0184,N,00146.8677,W,0.000,0.00,060113,,A*6F
$GPGGA,113951.000,5321.0173,N,00146.8626,W,1,0,,388.0,M,,M,,*4A
$GPRMC,113951.000,A,5321.0173,N,00146.8626,W,0.000,0.00,060113,,A*62
$GPGGA,114012.000,5321.0299,N,00146.9144,W,1,0,,387.0,M,,M,,*49
$GPRMC,114012.000,A,5321.0299,N,00146.9144,W,0.000,0.00,060113,,A*6E
$GPGGA,114027.000,5321.0210,N,00146.9125,W,1,0,,387.0,M,,M,,*49
$GPRMC,114027.000,A,5321.0210,N,00146.9125,W,0.000,0.00,060113,,A*6E
$GPGGA,114048.000,5321.0203,N,00146.9225,W,1,0,,387.0,M,,M,,*41
$GPRMC,114048.000,A,5321.0203,N,00146.9225,W,0.000,0.00,060113,,A*66
$GPGGA,114103.000,5321.0125,N,00146.9047,W,1,0,,387.0,M,,M,,*4E
$GPRMC,114103.000,A,5321.0125,N,00146.9047,W,0.000,0.00,060113,,A*69
$GPGGA,114119.000,5321.0045,N,00146.8956,W,1,0,,387.0,M,,M,,*4A
$GPRMC,114119.000,A,5321.0045,N,00146.8956,W,0.000,0.00,060113,,A*6D
$GPGGA,114134.000,5320.9992,N,00146.8780,W,1,0,,387.0,M,,M,,*4B
$GPRMC,114134.000,A,5320.9992,N,00146.8780,W,0.000,0.00,060113,,A*6C
$GPGGA,114149.000,5320.9949,N,00146.8731,W,1,0,,387.0,M,,M,,*4D
$GPRMC,114149.000,A,5320.9949,N,00146.8731,W,0.000,0.00,060113,,A*6A
$GPGGA,114204.000,5320.9853,N,00146.8742,W,1,0,,387.0,M,,M,,*49
$GPRMC,114204.000,A,5320.9853,N,00146.8742,W,0.000,0.00,060113,,A*6E
$GPGGA,114220.000,5320.9683,N,00146.8509,W,1,0,,387.0,M,,M,,*41
$GPRMC,114220.000,A,5320.9683,N,00146.8509,W,0.000,0.00,060113,,A*66
$GPGGA,114238.000,5320.9649,N,00146.8559,W,1,0,,387.0,M,,M,,*4B
$GPRMC,114238.000,A,5320.9649,N,00146.8559,W,0.000,0.00,060113,,A*6C
$GPGGA,114253.000,5320.9447,N,00146.8003,W,1,0,,387.0,M,,M,,*40
$GPRMC,114253.000,A,5320.9447,N,00146.8003,W,0.000,0.00,060113,,A*67
$GPGGA,114308.000,5320.9372,N,00146.8032,W,1,0,,386.0,M,,M,,*4D
$GPRMC,114308.000,A,5320.9372,N,00146.8032,W,0.000,0.00,060113,,A*6B
$GPGGA,114325.000,5320.9173,N,00146.7395,W,1,0,,386.0,M,,M,,*40
$GPRMC,114325.000,A,5320.9173,N,00146.7395,W,0.000,0.00,060113,,A*66
$GPGGA,114340.000,5320.8992,N,00146.6998,W,1,0,,386.0,M,,M,,*43
$GPRMC,114340.000,A,5320.8992,N,00146.6998,W,0.000,0.00,060113,,A*65
$GPGGA,114408.000,5320.8962,N,00146.6722,W,1,0,,387.0,M,,M,,*49
$GPRMC,114408.000,A,5320.8962,N,00146.6722,W,0.000,0.00,060113,,A*6E
$GPGGA,114423.000,5320.8834,N,00146.6407,W,1,0,,387.0,M,,M,,*46
$GPRMC,114423.000,A,5320.8834,N,00146.6407,W,0.000,0.00,060113,,A*61
$GPGGA,114438.000,5320.8740,N,00146.6225,W,1,0,,387.0,M,,M,,*46
$GPRMC,114438.000,A,5320.8740,N,00146.6225,W,0.000,0.00,060113,,A*61
$GPGGA,114454.000,5320.8662,N,00146.6173,W,1,0,,387.0,M,,M,,*4D
$GPRMC,114454.000,A,5320.8662,N,00146.6173,W,0.000,0.00,060113,,A*6A
$GPGGA,114509.000,5320.8539,N,00146.6051,W,1,0,,387.0,M,,M,,*48
$GPRMC,114509.000,A,5320.8539,N,00146.6051,W,0.000,0.00,060113,,A*6F
$GPGGA,114526.000,5320.8356,N,00146.5740,W,1,0,,387.0,M,,M,,*4E
$GPRMC,114526.000,A,5320.8356,N,00146.5740,W,0.000,0.00,060113,,A*69
$GPGGA,114541.000,5320.8319,N,00146.5751,W,1,0,,387.0,M,,M,,*44
$GPRMC,114541.000,A,5320.8319,N,00146.5751,W,0.000,0.00,060113,,A*63
$GPGGA,114558.000,5320.7967,N,00146.5785,W,1,0,,387.0,M,,M,,*49
$GPRMC,114558.000,A,5320.7967,N,00146.5785,W,0.000,0.00,060113,,A*6E
$GPGGA,114613.000,5320.7882,N,00146.5742,W,1,0,,386.0,M,,M,,*45
$GPRMC,114613.000,A,5320.7882,N,00146.5742,W,0.000,0.00,060113,,A*63
$GPGGA,114629.000,5320.8008,N,00146.5497,W,1,0,,386.0,M,,M,,*42
$GPRMC,114629.000,A,5320.8008,N,00146.5497,W,0.000,0.00,060113,,A*64
$GPGGA,114652.000,5320.7088,N,00146.6457,W,1,0,,386.0,M,,M,,*46
$GPRMC,114652.000,A,5320.7088,N,00146.6457,W,0.000,0.00,060113,,A*60
$GPGGA,114707.000,5320.6408,N,00146.6519,W,1,0,,386.0,M,,M,,*41
$GPRMC,114707.000,A,5320.6408,N,00146.6519,W,0.000,0.00,060113,,A*67
$GPGGA,114723.000,5320.6076,N,00146.6339,W,1,0,,386.0,M,,M,,*4E
$GPRMC,114723.000,A,5320.6076,N,00146.6339,W,0.000,0.00,060113,,A*68
$GPGGA,114740.000,5320.5918,N,00146.6489,W,1,0,,386.0,M,,M,,*45
$GPRMC,114740.000,A,5320.5918,N,00146.6489,W,0.000,0.00,060113,,A*63
$GPGGA,114759.000,5320.6033,N,00146.6348,W,1,0,,386.0,M,,M,,*44
$GPRMC,114759.000,A,5320.6033,N,00146.6348,W,0.000,0.00,060113,,A*62
$GPGGA,114814.000,5320.5781,N,00146.6262,W,1,0,,386.0,M,,M,,*46
$GPRMC,114814.000,A,5320.5781,N,00146.6262,W,0.000,0.00,060113,,A*60
$GPGGA,114841.000,5320.5728,N,00146.6213,W,1,0,,386.0,M,,M,,*43
$GPRMC,114841.000,A,5320.5728,N,00146.6213,W,0.000,0.00,060113,,A*65
$GPGGA,114900.000,5320.5453,N,00146.6426,W,1,0,,386.0,M,,M,,*48
$GPRMC,114900.000,A,5320.5453,N,00146.6426,W,0.000,0.00,060113,,A*6E
$GPGGA,114915.000,5320.5387,N,00146.6414,W,1,0,,386.0,M,,M,,*43
$GPRMC,114915.000,A,5320.5387,N,00146.6414,W,0.000,0.00,060113,,A*65
$GPGGA,114934.000,5320.5284,N,00146.6246,W,1,0,,386.0,M,,M,,*43
$GPRMC,114934.000,A,5320.5284,N,00146.6246,W,0.000,0.00,060113,,A*65
$GPGGA,115005.000,5320.5415,N,00146.6287,W,1,0,,386.0,M,,M,,*4A
$GPRMC,115005.000,A,5320.5415,N,00146.6287,W,0.000,0.00,060113,,A*6C
$GPGGA,115022.000,5320.6099,N,00146.5863,W,1,0,,386.0,M,,M,,*4F
$GPRMC,115022.000,A,5320.6099,N,00146.5863,W,0.000,0.00,060113,,A*69
$GPGGA,115052.000,5320.6293,N,00146.5965,W,1,0,,386.0,M,,M,,*47
$GPRMC,115052.000,A,5320.6293,N,00146.5965,W,0.000,0.00,060113,,A*61
$GPGGA,115108.000,5320.6044,N,00146.5989,W,1,0,,386.0,M,,M,,*43
$GPRMC,115108.000,A,5320.6044,N,00146.5989,W,0.000,0.00,060113,,A*65
$GPGGA,115123.000,5320.5843,N,00146.6008,W,1,0,,385.0,M,,M,,*46
$GPRMC,115123.000,A,5320.5843,N,00146.6008,W,0.000,0.00,060113,,A*63
$GPGGA,115140.000,5320.6243,N,00146.5968,W,1,0,,385.0,M,,M,,*46
$GPRMC,115140.000,A,5320.6243,N,00146.5968,W,0.000,0.00,060113,,A*63
$GPGGA,115210.000,5320.6330,N,00146.6108,W,1,0,,385.0,M,,M,,*48
$GPRMC,115210.000,A,5320.6330,N,00146.6108,W,0.000,0.00,060113,,A*6D
$GPGGA,115225.000,5320.6463,N,00146.6160,W,1,0,,385.0,M,,M,,*41
$GPRMC,115225.000,A,5320.6463,N,00146.6160,W,0.000,0.00,060113,,A*64
$GPGGA,115241.000,5320.6532,N,00146.6202,W,1,0,,385.0,M,,M,,*41
$GPRMC,115241.000,A,5320.6532,N,00146.6202,W,0.000,0.00,060113,,A*64
$GPGGA,115300.000,5320.6637,N,00146.6265,W,1,0,,385.0,M,,M,,*42
$GPRMC,115300.000,A,5320.6637,N,00146.6265,W,0.000,0.00,060113,,A*67
$GPGGA,115317.000,5320.6625,N,00146.6241,W,1,0,,385.0,M,,M,,*41
$GPRMC,115317.000,A,5320.6625,N,00146.6241,W,0.000,0.00,060113,,A*64
$GPGGA,115333.000,5320.6646,N,00146.6274,W,1,0,,385.0,M,,M,,*44
$GPRMC,115333.000,A,5320.6646,N,00146.6274,W,0.000,0.00,060113,,A*61
$GPGGA,115348.000,5320.6596,N,00146.6202,W,1,0,,385.0,M,,M,,*47
$GPRMC,115348.000,A,5320.6596,N,00146.6202,W,0.000,0.00,060113,,A*62
$GPGGA,115414.000,5320.6621,N,00146.6231,W,1,0,,385.0,M,,M,,*46
$GPRMC,115414.000,A,5320.6621,N,00146.6231,W,0.000,0.00,060113,,A*63
$GPGGA,115448.000,5320.6605,N,00146.6189,W,1,0,,385.0,M,,M,,*49
$GPRMC,115448.000,A,5320.6605,N,00146.6189,W,0.000,0.00,060113,,A*6C
$GPGGA,115518.000,5320.6509,N,00146.6320,W,1,0,,385.0,M,,M,,*43
$GPRMC,115518.000,A,5320.6509,N,00146.6320,W,0.000,0.00,060113,,A*66
$GPGGA,115537.000,5320.6637,N,00146.6172,W,1,0,,385.0,M,,M,,*45
$GPRMC,115537.000,A,5320.6637,N,00146.6172,W,0.000,0.00,060113,,A*60
$GPGGA,115606.000,5320.6525,N,00146.6223,W,1,0,,385.0,M,,M,,*43
$GPRMC,115606.000,A,5320.6525,N,00146.6223,W,0.000,0.00,060113,,A*66
$GPGGA,115639.000,5320.6744,N,00146.6150,W,1,0,,385.0,M,,M,,*4D
$GPRMC,115639.000,A,5320.6744,N,00146.6150,W,0.000,0.00,060113,,A*68
$GPGGA,115701.000,5320.6488,N,00146.6312,W,1,0,,385.0,M,,M,,*40
$GPRMC,115701.000,A,5320.6488,N,00146.6312,W,0.000,0.00,060113,,A*65
$GPGGA,115738.000,5320.4343,N,00146.8251,W,1,0,,385.0,M,,M,,*40
$GPRMC,115738.000,A,5320.4343,N,00146.8251,W,0.000,0.00,060113,,A*65
$GPGGA,115804.000,5320.4575,N,00146.7974,W,1,0,,385.0,M,,M,,*40
$GPRMC,115804.000,A,5320.4575,N,00146.7974,W,0.000,0.00,060113,,A*65
$GPGGA,115912.000,5320.6580,N,00146.6231,W,1,0,,385.0,M,,M,,*45
$GPRMC,115912.000,A,5320.6580,N,00146.6231,W,0.000,0.00,060113,,A*60
$GPGGA,115934.000,5320.6033,N,00146.6549,W,1,0,,385.0,M,,M,,*44
$GPRMC,115934.000,A,5320.6033,N,00146.6549,W,0.000,0.00,060113,,A*61
$GPGGA,120000.000,5320.6396,N,00146.6314,W,1,0,,385.0,M,,M,,*4E
$GPRMC,120000.000,A,5320.6396,N,00146.6314,W,0.000,0.00,060113,,A*6B
$GPGGA,120036.000,5320.4964,N,00146.6524,W,1,0,,385.0,M,,M,,*4B
$GPRMC,120036.000,A,5320.4964,N,00146.6524,W,0.000,0.00,060113,,A*6E
$GPGGA,120112.000,5320.4925,N,00146.6485,W,1,0,,385.0,M,,M,,*43
$GPRMC,120112.000,A,5320.4925,N,00146.6485,W,0.000,0.00,060113,,A*66
$GPGGA,120129.000,5320.4884,N,00146.6522,W,1,0,,385.0,M,,M,,*4D
$GPRMC,120129.000,A,5320.4884,N,00146.6522,W,0.000,0.00,060113,,A*68
$GPGGA,120200.000,5320.5085,N,00146.6399,W,1,0,,385.0,M,,M,,*4B
$GPRMC,120200.000,A,5320.5085,N,00146.6399,W,0.000,0.00,060113,,A*6E
$GPGGA,120233.000,5320.5408,N,00146.6203,W,1,0,,385.0,M,,M,,*48
$GPRMC,120233.000,A,5320.5408,N,00146.6203,W,0.000,0.00,060113,,A*6D
$GPGGA,120254.000,5320.5437,N,00146.6108,W,1,0,,385.0,M,,M,,*4D
$GPRMC,120254.000,A,5320.5437,N,00146.6108,W,0.000,0.00,060113,,A*68
$GPGGA,120312.000,5320.5405,N,00146.6092,W,1,0,,385.0,M,,M,,*4D
$GPRMC,120312.000,A,5320.5405,N,00146.6092,W,0.000,0.00,060113,,A*68
$GPGGA,120345.000,5320.5545,N,00146.5947,W,1,0,,384.0,M,,M,,*49
$GPRMC,120345.000,A,5320.5545,N,00146.5947,W,0.000,0.00,060113,,A*6D
$GPGGA,120413.000,5320.5566,N,00146.6057,W,1,0,,384.0,M,,M,,*47
$GPRMC,120413.000,A,5320.5566,N,00146.6057,W,0.000,0.00,060113,,A*63
$GPGGA,120428.000,5320.5465,N,00146.6092,W,1,0,,384.0,M,,M,,*44
$GPRMC,120428.000,A,5320.5465,N,00146.6092,W,0.000,0.00,060113,,A*60
$GPGGA,120443.000,5320.5453,N,00146.6112,W,1,0,,384.0,M,,M,,*45
$GPRMC,120443.000,A,5320.5453,N,00146.6112,W,0.000,0.00,060113,,A*61
$GPGGA,120458.000,5320.5467,N,00146.6152,W,1,0,,384.0,M,,M,,*4C
$GPRMC,120458.000,A,5320.5467,N,00146.6152,W,0.000,0.00,060113,,A*68
$GPGGA,120513.000,5320.5538,N,00146.6176,W,1,0,,384.0,M,,M,,*4F
$GPRMC,120513.000,A,5320.5538,N,00146.6176,W,0.000,0.00,060113,,A*6B
$GPGGA,120538.000,5320.5387,N,00146.6643,W,1,0,,384.0,M,,M,,*45
$GPRMC,120538.000,A,5320.5387,N,00146.6643,W,0.000,0.00,060113,,A*61
$GPGGA,120555.000,5320.5302,N,00146.6314,W,1,0,,384.0,M,,M,,*44
$GPRMC,120555.000,A,5320.5302,N,00146.6314,W,0.000,0.00,060113,,A*60
$GPGGA,120624.000,5320.5339,N,00146.6799,W,1,0,,384.0,M,,M,,*48
$GPRMC,120624.000,A,5320.5339,N,00146.6799,W,0.000,0.00,060113,,A*6C
$GPGGA,120639.000,5320.5346,N,00146.6794,W,1,0,,384.0,M,,M,,*41
$GPRMC,120639.000,A,5320.5346,N,00146.6794,W,0.000,0.00,060113,,A*65
$GPGGA,120655.000,5320.5355,N,00146.6535,W,1,0,,384.0,M,,M,,*40
$GPRMC,120655.000,A,5320.5355,N,00146.6535,W,0.000,0.00,060113,,A*64
$GPGGA,120711.000,5320.5332,N,00146.6440,W,1,0,,384.0,M,,M,,*43
$GPRMC,120711.000,A,5320.5332,N,00146.6440,W,0.000,0.00,060113,,A*67
$GPGGA,120801.000,5320.5676,N,00146.7863,W,1,0,,384.0,M,,M,,*44
$GPRMC,120801.000,A,5320.5676,N,00146.7863,W,0.000,0.00,060113,,A*60
$GPGGA,120822.000,5320.5607,N,00146.7767,W,1,0,,384.0,M,,M,,*48
$GPRMC,120822.000,A,5320.5607,N,00146.7767,W,0.000,0.00,060113,,A*6C
$GPGGA,120837.000,5320.5630,N,00146.7810,W,1,0,,384.0,M,,M,,*47
$GPRMC,120837.000,A,5320.5630,N,00146.7810,W,0.000,0.00,060113,,A*63
$GPGGA,120853.000,5320.5639,N,00146.7814,W,1,0,,384.0,M,,M,,*48
$GPRMC,120853.000,A,5320.5639,N,00146.7814,W,0.000,0.00,060113,,A*6C
$GPGGA,120924.000,5320.5701,N,00146.7969,W,1,0,,384.0,M,,M,,*48
$GPRMC,120924.000,A,5320.5701,N,00146.7969,W,0.000,0.00,060113,,A*6C
$GPGGA,120942.000,5320.5708,N,00146.8062,W,1,0,,384.0,M,,M,,*4C
$GPRMC,120942.000,A,5320.5708,N,00146.8062,W,0.000,0.00,060113,,A*68
$GPGGA,120959.000,5320.5756,N,00146.8176,W,1,0,,384.0,M,,M,,*49
$GPRMC,120959.000,A,5320.5756,N,00146.8176,W,0.000,0.00,060113,,A*6D
$GPGGA,121016.000,5320.5767,N,00146.8200,W,1,0,,384.0,M,,M,,*4A
$GPRMC,121016.000,A,5320.5767,N,00146.8200,W,0.000,0.00,060113,,A*6E
$GPGGA,121032.000,5320.5779,N,00146.8217,W,1,0,,384.0,M,,M,,*45
$GPRMC,121032.000,A,5320.5779,N,00146.8217,W,0.000,0.00,060113,,A*61
$GPGGA,121051.000,5320.5765,N,00146.8248,W,1,0,,384.0,M,,M,,*47
$GPRMC,121051.000,A,5320.5765,N,00146.8248,W,0.000,0.00,060113,,A*63
$GPGGA,121106.000,5320.5552,N,00146.6870,W,1,0,,384.0,M,,M,,*4D
$GPRMC,121106.000,A,5320.5552,N,00146.6870,W,0.000,0.00,060113,,A*69
$GPGGA,121121.000,5320.5472,N,00146.6586,W,1,0,,383.0,M,,M,,*48
$GPRMC,121121.000,A,5320.5472,N,00146.6586,W,0.000,0.00,060113,,A*6B
$GPGGA,121136.000,5320.5488,N,00146.6401,W,1,0,,384.0,M,,M,,*42
$GPRMC,121136.000,A,5320.5488,N,00146.6401,W,0.000,0.00,060113,,A*66
$GPGGA,121151.000,5320.5570,N,00146.6199,W,1,0,,385.0,M,,M,,*40
$GPRMC,121151.000,A,5320.5570,N,00146.6199,W,0.000,0.00,060113,,A*65
$GPGGA,121210.000,5320.5486,N,00146.6165,W,1,0,,384.0,M,,M,,*4C
$GPRMC,121210.000,A,5320.5486,N,00146.6165,W,0.000,0.00,060113,,A*68
$GPGGA,121326.000,5320.5357,N,00146.6271,W,1,0,,384.0,M,,M,,*45
$GPRMC,121326.000,A,5320.5357,N,00146.6271,W,0.000,0.00,060113,,A*61
$GPGGA,124353.000,5320.5298,N,00146.5808,W,1,0,,155.0,M,,M,,*49
$GPRMC,124353.000,A,5320.5298,N,00146.5808,W,0.000,0.00,060113,,A*63
$GPGGA,124408.000,5320.5165,N,00146.5748,W,1,0,,185.0,M,,M,,*47
$GPRMC,124408.000,A,5320.5165,N,00146.5748,W,0.000,0.00,060113,,A*60
$GPGGA,124423.000,5320.5103,N,00146.5616,W,1,0,,185.0,M,,M,,*44
$GPRMC,124423.000,A,5320.5103,N,00146.5616,W,0.000,0.00,060113,,A*63
$GPGGA,124438.000,5320.5062,N,00146.5463,W,1,0,,182.0,M,,M,,*4F
$GPRMC,124438.000,A,5320.5062,N,00146.5463,W,0.000,0.00,060113,,A*6F
$GPGGA,124455.000,5320.4984,N,00146.5407,W,1,0,,182.0,M,,M,,*46
$GPRMC,124455.000,A,5320.4984,N,00146.5407,W,0.000,0.00,060113,,A*66
$GPGGA,124510.000,5320.4906,N,00146.5301,W,1,0,,182.0,M,,M,,*4D
$GPRMC,124510.000,A,5320.4906,N,00146.5301,W,0.000,0.00,060113,,A*6D
$GPGGA,124526.000,5320.4822,N,00146.5274,W,1,0,,182.0,M,,M,,*4C
$GPRMC,124526.000,A,5320.4822,N,00146.5274,W,0.000,0.00,060113,,A*6C
$GPGGA,124541.000,5320.4684,N,00146.5366,W,1,0,,182.0,M,,M,,*4D
$GPRMC,124541.000,A,5320.4684,N,00146.5366,W,0.000,0.00,060113,,A*6D
$GPGGA,124610.000,5320.4581,N,00146.5319,W,1,0,,182.0,M,,M,,*44
$GPRMC,124610.000,A,5320.4581,N,00146.5319,W,0.000,0.00,060113,,A*64
$GPGGA,124625.000,5320.4435,N,00146.5255,W,1,0,,182.0,M,,M,,*45
$GPRMC,124625.000,A,5320.4435,N,00146.5255,W,0.000,0.00,060113,,A*65
$GPGGA,124640.000,5320.4410,N,00146.5388,W,1,0,,182.0,M,,M,,*40
$GPRMC,124640.000,A,5320.4410,N,00146.5388,W,0.000,0.00,060113,,A*60
$GPGGA,124656.000,5320.4382,N,00146.5441,W,1,0,,182.0,M,,M,,*49
$GPRMC,124656.000,A,5320.4382,N,00146.5441,W,0.000,0.00,060113,,A*69
$GPGGA,124724.000,5320.4263,N,00146.5406,W,1,0,,182.0,M,,M,,*40
$GPRMC,124724.000,A,5320.4263,N,00146.5406,W,0.000,0.00,060113,,A*60
$GPGGA,124739.000,5320.4231,N,00146.5395,W,1,0,,182.0,M,,M,,*46
$GPRMC,124739.000,A,5320.4231,N,00146.5395,W,0.000,0.00,060113,,A*66
$GPGGA,124754.000,5320.4208,N,00146.5478,W,1,0,,182.0,M,,M,,*43
$GPRMC,124754.000,A,5320.4208,N,00146.5478,W,0.000,0.00,060113,,A*63
$GPGGA,124809.000,5320.4144,N,00146.5542,W,1,0,,182.0,M,,M,,*47
$GPRMC,124809.000,A,5320.4144,N,00146.5542,W,0.000,0.00,060113,,A*67
$GPGGA,124824.000,5320.4069,N,00146.5562,W,1,0,,182.0,M,,M,,*44
$GPRMC,124824.000,A,5320.4069,N,00146.5562,W,0.000,0.00,060113,,A*64
$GPGGA,124839.000,5320.4002,N,00146.5640,W,1,0,,182.0,M,,M,,*46
$GPRMC,124839.000,A,5320.4002,N,00146.5640,W,0.000,0.00,060113,,A*66
$GPGGA,124854.000,5320.3867,N,00146.5782,W,1,0,,182.0,M,,M,,*4E
$GPRMC,124854.000,A,5320.3867,N,00146.5782,W,0.000,0.00,060113,,A*6E
$GPGGA,124910.000,5320.3806,N,00146.5859,W,1,0,,182.0,M,,M,,*41
$GPRMC,124910.000,A,5320.3806,N,00146.5859,W,0.000,0.00,060113,,A*61
$GPGGA,124925.000,5320.3714,N,00146.6001,W,1,0,,182.0,M,,M,,*4D
$GPRMC,124925.000,A,5320.3714,N,00146.6001,W,0.000,0.00,060113,,A*6D
$GPGGA,124941.000,5320.3682,N,00146.6063,W,1,0,,182.0,M,,M,,*45
$GPRMC,124941.000,A,5320.3682,N,00146.6063,W,0.000,0.00,060113,,A*65
$GPGGA,124957.000,5320.3627,N,00146.6247,W,1,0,,182.0,M,,M,,*49
$GPRMC,124957.000,A,5320.3627,N,00146.6247,W,0.000,0.00,060113,,A*69
$GPGGA,125012.000,5320.3574,N,00146.6325,W,1,0,,182.0,M,,M,,*40
$GPRMC,125012.000,A,5320.3574,N,00146.6325,W,0.000,0.00,060113,,A*60
$GPGGA,125027.000,5320.3554,N,00146.6396,W,1,0,,182.0,M,,M,,*4C
$GPRMC,125027.000,A,5320.3554,N,00146.6396,W,0.000,0.00,060113,,A*6C
$GPGGA,125042.000,5320.3446,N,00146.6579,W,1,0,,182.0,M,,M,,*4A
$GPRMC,125042.000,A,5320.3446,N,00146.6579,W,0.000,0.00,060113,,A*6A
$GPGGA,125057.000,5320.3380,N,00146.6628,W,1,0,,183.0,M,,M,,*45
$GPRMC,125057.000,A,5320.3380,N,00146.6628,W,0.000,0.00,060113,,A*64
$GPGGA,125112.000,5320.3329,N,00146.6681,W,1,0,,183.0,M,,M,,*45
$GPRMC,125112.000,A,5320.3329,N,00146.6681,W,0.000,0.00,060113,,A*64
$GPGGA,125127.000,5320.3261,N,00146.6724,W,1,0,,183.0,M,,M,,*40
$GPRMC,125127.000,A,5320.3261,N,00146.6724,W,0.000,0.00,060113,,A*61
$GPGGA,125142.000,5320.3199,N,00146.6755,W,1,0,,183.0,M,,M,,*41
$GPRMC,125142.000,A,5320.3199,N,00146.6755,W,0.000,0.00,060113,,A*60
$GPGGA,125157.000,5320.3139,N,00146.6808,W,1,0,,183.0,M,,M,,*48
$GPRMC,125157.000,A,5320.3139,N,00146.6808,W,0.000,0.00,060113,,A*69
$GPGGA,125212.000,5320.3014,N,00146.6651,W,1,0,,184.0,M,,M,,*41
$GPRMC,125212.000,A,5320.3014,N,00146.6651,W,0.000,0.00,060113,,A*67
$GPGGA,125227.000,5320.2959,N,00146.6693,W,1,0,,184.0,M,,M,,*48
$GPRMC,125227.000,A,5320.2959,N,00146.6693,W,0.000,0.00,060113,,A*6E
$GPGGA,125247.000,5320.2931,N,00146.6680,W,1,0,,184.0,M,,M,,*42
$GPRMC,125247.000,A,5320.2931,N,00146.6680,W,0.000,0.00,060113,,A*64
$GPGGA,125303.000,5320.2904,N,00146.6745,W,1,0,,184.0,M,,M,,*4D
$GPRMC,125303.000,A,5320.2904,N,00146.6745,W,0.000,0.00,060113,,A*6B
$GPGGA,125318.000,5320.2920,N,00146.6887,W,1,0,,185.0,M,,M,,*41
$GPRMC,125318.000,A,5320.2920,N,00146.6887,W,0.000,0.00,060113,,A*66
$GPGGA,125334.000,5320.2835,N,00146.6865,W,1,0,,185.0,M,,M,,*46
$GPRMC,125334.000,A,5320.2835,N,00146.6865,W,0.000,0.00,060113,,A*61
$GPGGA,125349.000,5320.2821,N,00146.6904,W,1,0,,185.0,M,,M,,*4F
$GPRMC,125349.000,A,5320.2821,N,00146.6904,W,0.000,0.00,060113,,A*68
$GPGGA,125404.000,5320.2794,N,00146.6872,W,1,0,,185.0,M,,M,,*40
$GPRMC,125404.000,A,5320.2794,N,00146.6872,W,0.000,0.00,060113,,A*67
$GPGGA,125419.000,5320.2711,N,00146.6942,W,1,0,,185.0,M,,M,,*43
$GPRMC,125419.000,A,5320.2711,N,00146.6942,W,0.000,0.00,060113,,A*64
$GPGGA,125434.000,5320.2652,N,00146.7013,W,1,0,,185.0,M,,M,,*46
$GPRMC,125434.000,A,5320.2652,N,00146.7013,W,0.000,0.00,060113,,A*61
$GPGGA,125450.000,5320.2583,N,00146.6988,W,1,0,,185.0,M,,M,,*41
$GPRMC,125450.000,A,5320.2583,N,00146.6988,W,0.000,0.00,060113,,A*66
$GPGGA,125518.000,5320.2432,N,00146.6883,W,1,0,,185.0,M,,M,,*4D
$GPRMC,125518.000,A,5320.2432,N,00146.6883,W,0.000,0.00,060113,,A*6A
$GPGGA,125533.000,5320.2389,N,00146.6950,W,1,0,,186.0,M,,M,,*4F
$GPRMC,125533.000,A,5320.2389,N,00146.6950,W,0.000,0.00,060113,,A*6B
$GPGGA,125549.000,5320.2350,N,00146.6929,W,1,0,,186.0,M,,M,,*48
$GPRMC,125549.000,A,5320.2350,N,00146.6929,W,0.000,0.00,060113,,A*6C
$GPGGA,125605.000,5320.2322,N,00146.6899,W,1,0,,186.0,M,,M,,*4C
$GPRMC,125605.000,A,5320.2322,N,00146.6899,W,0.000,0.00,060113,,A*68
$GPGGA,125620.000,5320.2274,N,00146.6935,W,1,0,,186.0,M,,M,,*4E
$GPRMC,125620.000,A,5320.2274,N,00146.6935,W,0.000,0.00,060113,,A*6A
$GPGGA,125635.000,5320.2219,N,00146.6941,W,1,0,,186.0,M,,M,,*42
$GPRMC,125635.000,A,5320.2219,N,00146.6941,W,0.000,0.00,060113,,A*66
$GPGGA,125650.000,5320.2162,N,00146.7003,W,1,0,,186.0,M,,M,,*40
$GPRMC,125650.000,A,5320.2162,N,00146.7003,W,0.000,0.00,060113,,A*64
$GPGGA,125705.000,5320.2137,N,00146.7009,W,1,0,,186.0,M,,M,,*4B
$GPRMC,125705.000,A,5320.2137,N,00146.7009,W,0.000,0.00,060113,,A*6F
$GPGGA,125736.000,5320.2048,N,00146.7061,W,1,0,,186.0,M,,M,,*4C
$GPRMC,125736.000,A,5320.2048,N,00146.7061,W,0.000,0.00,060113,,A*68
$GPGGA,125803.000,5320.2041,N,00146.7066,W,1,0,,186.0,M,,M,,*4B
$GPRMC,125803.000,A,5320.2041,N,00146.7066,W,0.000,0.00,060113,,A*6F
$GPGGA,125818.000,5320.2013,N,00146.7040,W,1,0,,186.0,M,,M,,*42
$GPRMC,125818.000,A,5320.2013,N,00146.7040,W,0.000,0.00,060113,,A*66
$GPGGA,125838.000,5320.2039,N,00146.7092,W,1,0,,186.0,M,,M,,*47
$GPRMC,125838.000,A,5320.2039,N,00146.7092,W,0.000,0.00,060113,,A*63
$GPGGA,125854.000,5320.1874,N,00146.7334,W,1,0,,186.0,M,,M,,*40
$GPRMC,125854.000,A,5320.1874,N,00146.7334,W,0.000,0.00,060113,,A*64
$GPGGA,125909.000,5320.1899,N,00146.7395,W,1,0,,187.0,M,,M,,*40
$GPRMC,125909.000,A,5320.1899,N,00146.7395,W,0.000,0.00,060113,,A*65
$GPGGA,125925.000,5320.1871,N,00146.7409,W,1,0,,187.0,M,,M,,*4A
$GPRMC,125925.000,A,5320.1871,N,00146.7409,W,0.000,0.00,060113,,A*6F
$GPGGA,125941.000,5320.1851,N,00146.7481,W,1,0,,187.0,M,,M,,*4A
$GPRMC,125941.000,A,5320.1851,N,00146.7481,W,0.000,0.00,060113,,A*6F
$GPGGA,125956.000,5320.1768,N,00146.7645,W,1,0,,187.0,M,,M,,*43
$GPRMC,125956.000,A,5320.1768,N,00146.7645,W,0.000,0.00,060113,,A*66
$GPGGA,130011.000,5320.1801,N,00146.7636,W,1,0,,188.0,M,,M,,*46
$GPRMC,130011.000,A,5320.1801,N,00146.7636,W,0.000,0.00,060113,,A*6C
$GPGGA,130026.000,5320.1732,N,00146.7753,W,1,0,,188.0,M,,M,,*4F
$GPRMC,130026.000,A,5320.1732,N,00146.7753,W,0.000,0.00,060113,,A*65
$GPGGA,130041.000,5320.1675,N,00146.7860,W,1,0,,188.0,M,,M,,*43
$GPRMC,130041.000,A,5320.1675,N,00146.7860,W,0.000,0.00,060113,,A*69
$GPGGA,130056.000,5320.1615,N,00146.7980,W,1,0,,188.0,M,,M,,*4C
$GPRMC,130056.000,A,5320.1615,N,00146.7980,W,0.000,0.00,060113,,A*66
$GPGGA,130111.000,5320.1544,N,00146.8082,W,1,0,,188.0,M,,M,,*4D
$GPRMC,130111.000,A,5320.1544,N,00146.8082,W,0.000,0.00,060113,,A*67
$GPGGA,130126.000,5320.1544,N,00146.8196,W,1,0,,188.0,M,,M,,*4D
$GPRMC,130126.000,A,5320.1544,N,00146.8196,W,0.000,0.00,060113,,A*67
$GPGGA,130146.000,5320.1411,N,00146.8261,W,1,0,,189.0,M,,M,,*40
$GPRMC,130146.000,A,5320.1411,N,00146.8261,W,0.000,0.00,060113,,A*6B
$GPGGA,130201.000,5320.1366,N,00146.8425,W,1,0,,189.0,M,,M,,*41
$GPRMC,130201.000,A,5320.1366,N,00146.8425,W,0.000,0.00,060113,,A*6A
$GPGGA,130216.000,5320.1382,N,00146.8465,W,1,0,,189.0,M,,M,,*49
$GPRMC,130216.000,A,5320.1382,N,00146.8465,W,0.000,0.00,060113,,A*62
$GPGGA,130231.000,5320.1384,N,00146.8432,W,1,0,,189.0,M,,M,,*48
$GPRMC,130231.000,A,5320.1384,N,00146.8432,W,0.000,0.00,060113,,A*63
$GPGGA,130247.000,5320.1336,N,00146.8512,W,1,0,,189.0,M,,M,,*43
$GPRMC,130247.000,A,5320.1336,N,00146.8512,W,0.000,0.00,060113,,A*68
$GPGGA,130303.000,5320.1379,N,00146.8592,W,1,0,,189.0,M,,M,,*41
$GPRMC,130303.000,A,5320.1379,N,00146.8592,W,0.000,0.00,060113,,A*6A
$GPGGA,130319.000,5320.1391,N,00146.8723,W,1,0,,189.0,M,,M,,*44
$GPRMC,130319.000,A,5320.1391,N,00146.8723,W,0.000,0.00,060113,,A*6F
$GPGGA,130334.000,5320.1416,N,00146.8848,W,1,0,,189.0,M,,M,,*41
$GPRMC,130334.000,A,5320.1416,N,00146.8848,W,0.000,0.00,060113,,A*6A
$GPGGA,130349.000,5320.1347,N,00146.9048,W,1,0,,189.0,M,,M,,*41
$GPRMC,130349.000,A,5320.1347,N,00146.9048,W,0.000,0.00,060113,,A*6A
$GPGGA,130405.000,5320.1327,N,00146.9205,W,1,0,,189.0,M,,M,,*43
$GPRMC,130405.000,A,5320.1327,N,00146.9205,W,0.000,0.00,060113,,A*68
$GPGGA,130420.000,5320.1343,N,00146.9331,W,1,0,,189.0,M,,M,,*40
$GPRMC,130420.000,A,5320.1343,N,00146.9331,W,0.000,0.00,060113,,A*6B
$GPGGA,130435.000,5320.1327,N,00146.9445,W,1,0,,189.0,M,,M,,*42
$GPRMC,130435.000,A,5320.1327,N,00146.9445,W,0.000,0.00,060113,,A*69
$GPGGA,130450.000,5320.1320,N,00146.9599,W,1,0,,190.0,M,,M,,*4E
$GPRMC,130450.000,A,5320.1320,N,00146.9599,W,0.000,0.00,060113,,A*6D
$GPGGA,130505.000,5320.1304,N,00146.9752,W,1,0,,190.0,M,,M,,*4C
$GPRMC,130505.000,A,5320.1304,N,00146.9752,W,0.000,0.00,060113,,A*6F
$GPGGA,130521.000,5320.1352,N,00146.9845,W,1,0,,190.0,M,,M,,*40
$GPRMC,130521.000,A,5320.1352,N,00146.9845,W,0.000,0.00,060113,,A*63
$GPGGA,130536.000,5320.1443,N,00146.9848,W,1,0,,189.0,M,,M,,*44
$GPRMC,130536.000,A,5320.1443,N,00146.9848,W,0.000,0.00,060113,,A*6F
$GPGGA,130551.000,5320.1530,N,00147.0034,W,1,0,,190.0,M,,M,,*43
$GPRMC,130551.000,A,5320.1530,N,00147.0034,W,0.000,0.00,060113,,A*60
$GPGGA,130607.000,5320.1512,N,00147.0311,W,1,0,,191.0,M,,M,,*46
$GPRMC,130607.000,A,5320.1512,N,00147.0311,W,0.000,0.00,060113,,A*64
$GPGGA,130622.000,5320.1482,N,00147.0443,W,1,0,,191.0,M,,M,,*49
$GPRMC,130622.000,A,5320.1482,N,00147.0443,W,0.000,0.00,060113,,A*6B
$GPGGA,130637.000,5320.1377,N,00147.0639,W,1,0,,191.0,M,,M,,*4F
$GPRMC,130637.000,A,5320.1377,N,00147.0639,W,0.000,0.00,060113,,A*6D
$GPGGA,130652.000,5320.1377,N,00147.0706,W,1,0,,192.0,M,,M,,*42
$GPRMC,130652.000,A,5320.1377,N,00147.0706,W,0.000,0.00,060113,,A*63
$GPGGA,130707.000,5320.1347,N,00147.0837,W,1,0,,192.0,M,,M,,*4D
$GPRMC,130707.000,A,5320.1347,N,00147.0837,W,0.000,0.00,060113,,A*6C
$GPGGA,130723.000,5320.1391,N,00147.0912,W,1,0,,193.0,M,,M,,*47
$GPRMC,130723.000,A,5320.1391,N,00147.0912,W,0.000,0.00,060113,,A*67
$GPGGA,130738.000,5320.1391,N,00147.1027,W,1,0,,193.0,M,,M,,*43
$GPRMC,130738.000,A,5320.1391,N,00147.1027,W,0.000,0.00,060113,,A*63
$GPGGA,130753.000,5320.1405,N,00147.1134,W,1,0,,193.0,M,,M,,*47
$GPRMC,130753.000,A,5320.1405,N,00147.1134,W,0.000,0.00,060113,,A*67
$GPGGA,130808.000,5320.1460,N,00147.1181,W,1,0,,193.0,M,,M,,*4B
$GPRMC,130808.000,A,5320.1460,N,00147.1181,W,0.000,0.00,060113,,A*6B
$GPGGA,130823.000,5320.1281,N,00147.1277,W,1,0,,194.0,M,,M,,*46
$GPRMC,130823.000,A,5320.1281,N,00147.1277,W,0.000,0.00,060113,,A*61
$GPGGA,130838.000,5320.1331,N,00147.1305,W,1,0,,194.0,M,,M,,*42
$GPRMC,130838.000,A,5320.1331,N,00147.1305,W,0.000,0.00,060113,,A*65
$GPGGA,130854.000,5320.1318,N,00147.1408,W,1,0,,194.0,M,,M,,*49
$GPRMC,130854.000,A,5320.1318,N,00147.1408,W,0.000,0.00,060113,,A*6E
$GPGGA,130909.000,5320.1311,N,00147.1387,W,1,0,,194.0,M,,M,,*49
$GPRMC,130909.000,A,5320.1311,N,00147.1387,W,0.000,0.00,060113,,A*6E
$GPGGA,130924.000,5320.1254,N,00147.1336,W,1,0,,195.0,M,,M,,*4D
$GPRMC,130924.000,A,5320.1254,N,00147.1336,W,0.000,0.00,060113,,A*6B
$GPGGA,130940.000,5320.1304,N,00147.1856,W,1,0,,195.0,M,,M,,*46
$GPRMC,130940.000,A,5320.1304,N,00147.1856,W,0.000,0.00,060113,,A*60
$GPGGA,130955.000,5320.1322,N,00147.2154,W,1,0,,195.0,M,,M,,*4E
$GPRMC,130955.000,A,5320.1322,N,00147.2154,W,0.000,0.00,060113,,A*68
$GPGGA,131010.000,5320.1318,N,00147.2198,W,1,0,,195.0,M,,M,,*4E
$GPRMC,131010.000,A,5320.1318,N,00147.2198,W,0.000,0.00,060113,,A*68
$GPGGA,131026.000,5320.1217,N,00147.2362,W,1,0,,195.0,M,,M,,*42
$GPRMC,131026.000,A,5320.1217,N,00147.2362,W,0.000,0.00,060113,,A*64
$GPGGA,131041.000,5320.1167,N,00147.2541,W,1,0,,196.0,M,,M,,*43
$GPRMC,131041.000,A,5320.1167,N,00147.2541,W,0.000,0.00,060113,,A*66
$GPGGA,131057.000,5320.1128,N,00147.2594,W,1,0,,196.0,M,,M,,*47
