@Sonygps/ver3.0/wgs-84/
$GPGGA,095230.000,5322.1992,N,00129.5916,W,1,0,,78.0,M,,M,,*78
$GPRMC,095230.000,A,5322.1992,N,00129.5916,W,0.000,0.00,071212,,A*6E
$GPGGA,095245.000,5322.1981,N,00129.6016,W,1,0,,63.0,M,,M,,*78
$GPRMC,095245.000,A,5322.1981,N,00129.6016,W,0.000,0.00,071212,,A*64
$GPGGA,095300.000,5322.1956,N,00129.6169,W,1,0,,63.0,M,,M,,*7B
$GPRMC,095300.000,A,5322.1956,N,00129.6169,W,0.000,0.00,071212,,A*67
$GPGGA,095315.000,5322.1885,N,00129.6289,W,1,0,,66.0,M,,M,,*78
$GPRMC,095315.000,A,5322.1885,N,00129.6289,W,0.000,0.00,071212,,A*61
$GPGGA,095330.000,5322.1809,N,00129.6422,W,1,0,,75.0,M,,M,,*7E
$GPRMC,095330.000,A,5322.1809,N,00129.6422,W,0.000,0.00,071212,,A*65
$GPGGA,095345.000,5322.1745,N,00129.6569,W,1,0,,82.0,M,,M,,*7D
$GPRMC,095345.000,A,5322.1745,N,00129.6569,W,0.000,0.00,071212,,A*6E
$GPGGA,095400.000,5322.1702,N,00129.6741,W,1,0,,87.0,M,,M,,*75
$GPRMC,095400.000,A,5322.1702,N,00129.6741,W,0.000,0.00,071212,,A*63
$GPGGA,095415.000,5322.1661,N,00129.6896,W,1,0,,91.0,M,,M,,*77
$GPRMC,095415.000,A,5322.1661,N,00129.6896,W,0.000,0.00,071212,,A*66
$GPGGA,095433.000,5322.1626,N,00129.6999,W,1,0,,92.0,M,,M,,*7D
$GPRMC,095433.000,A,5322.1626,N,00129.6999,W,0.000,0.00,071212,,A*6F
$GPGGA,095448.000,5322.1583,N,00129.7196,W,1,0,,92.0,M,,M,,*7B
$GPRMC,095448.000,A,5322.1583,N,00129.7196,W,0.000,0.00,071212,,A*69
$GPGGA,095503.000,5322.1555,N,00129.7356,W,1,0,,92.0,M,,M,,*70
$GPRMC,095503.000,A,5322.1555,N,00129.7356,W,0.000,0.00,071212,,A*62
$GPGGA,095518.000,5322.1519,N,00129.7516,W,1,0,,92.0,M,,M,,*70
$GPRMC,095518.000,A,5322.1519,N,00129.7516,W,0.000,0.00,071212,,A*62
$GPGGA,095533.000,5322.1487,N,00129.7637,W,1,0,,92.0,M,,M,,*7F
$GPRMC,095533.000,A,5322.1487,N,00129.7637,W,0.000,0.00,071212,,A*6D
$GPGGA,095548.000,5322.1542,N,00129.7741,W,1,0,,92.0,M,,M,,*7B
$GPRMC,095548.000,A,5322.1542,N,00129.7741,W,0.000,0.00,071212,,A*69
$GPGGA,095603.000,5322.1528,N,00129.7901,W,1,0,,91.0,M,,M,,*72
$GPRMC,095603.000,A,5322.1528,N,00129.7901,W,0.000,0.00,071212,,A*63
$GPGGA,095618.000,5322.1494,N,00129.8061,W,1,0,,91.0,M,,M,,*7E
$GPRMC,095618.000,A,5322.1494,N,00129.8061,W,0.000,0.00,071212,,A*6F
$GPGGA,095633.000,5322.1450,N,00129.8206,W,1,0,,92.0,M,,M,,*7F
$GPRMC,095633.000,A,5322.1450,N,00129.8206,W,0.000,0.00,071212,,A*6D
$GPGGA,095648.000,5322.1416,N,00129.8369,W,1,0,,94.0,M,,M,,*7F
$GPRMC,095648.000,A,5322.1416,N,00129.8369,W,0.000,0.00,071212,,A*6B
$GPGGA,095703.000,5322.1404,N,00129.8497,W,1,0,,96.0,M,,M,,*76
$GPRMC,095703.000,A,5322.1404,N,00129.8497,W,0.000,0.00,071212,,A*60
$GPGGA,095718.000,5322.1349,N,00129.8669,W,1,0,,99.0,M,,M,,*7E
$GPRMC,095718.000,A,5322.1349,N,00129.8669,W,0.000,0.00,071212,,A*67
$GPGGA,095733.000,5322.1313,N,00129.8852,W,1,0,,102.0,M,,M,,*4D
$GPRMC,095733.000,A,5322.1313,N,00129.8852,W,0.000,0.00,071212,,A*67
$GPGGA,095749.000,5322.1276,N,00129.8930,W,1,0,,102.0,M,,M,,*47
$GPRMC,095749.000,A,5322.1276,N,00129.8930,W,0.000,0.00,071212,,A*6D
$GPGGA,095805.000,5322.1226,N,00129.9175,W,1,0,,102.0,M,,M,,*4D
$GPRMC,095805.000,A,5322.1226,N,00129.9175,W,0.000,0.00,071212,,A*67
$GPGGA,095820.000,5322.1217,N,00129.9281,W,1,0,,102.0,M,,M,,*40
$GPRMC,095820.000,A,5322.1217,N,00129.9281,W,0.000,0.00,071212,,A*6A
$GPGGA,095835.000,5322.1182,N,00129.9412,W,1,0,,102.0,M,,M,,*47
$GPRMC,095835.000,A,5322.1182,N,00129.9412,W,0.000,0.00,071212,,A*6D
$GPGGA,095851.000,5322.1102,N,00129.9519,W,1,0,,102.0,M,,M,,*47
$GPRMC,095851.000,A,5322.1102,N,00129.9519,W,0.000,0.00,071212,,A*6D
$GPGGA,095907.000,5322.1049,N,00129.9647,W,1,0,,102.0,M,,M,,*43
$GPRMC,095907.000,A,5322.1049,N,00129.9647,W,0.000,0.00,071212,,A*69
$GPGGA,095922.000,5322.1036,N,00129.9798,W,1,0,,102.0,M,,M,,*4F
$GPRMC,095922.000,A,5322.1036,N,00129.9798,W,0.000,0.00,071212,,A*65
$GPGGA,095937.000,5322.0956,N,00130.0108,W,1,0,,102.0,M,,M,,*4B
$GPRMC,095937.000,A,5322.0956,N,00130.0108,W,0.000,0.00,071212,,A*61
$GPGGA,095953.000,5322.0912,N,00130.0208,W,1,0,,102.0,M,,M,,*4A
$GPRMC,095953.000,A,5322.0912,N,00130.0208,W,0.000,0.00,071212,,A*60
$GPGGA,100010.000,5322.0908,N,00130.0304,W,1,0,,103.0,M,,M,,*4E
$GPRMC,100010.000,A,5322.0908,N,00130.0304,W,0.000,0.00,071212,,A*65
$GPGGA,100028.000,5322.0846,N,00130.0444,W,1,0,,103.0,M,,M,,*4D
$GPRMC,100028.000,A,5322.0846,N,00130.0444,W,0.000,0.00,071212,,A*66
$GPGGA,100043.000,5322.0766,N,00130.0563,W,1,0,,103.0,M,,M,,*49
$GPRMC,100043.000,A,5322.0766,N,00130.0563,W,0.000,0.00,071212,,A*62
$GPGGA,100058.000,5322.0676,N,00130.0763,W,1,0,,103.0,M,,M,,*41
$GPRMC,100058.000,A,5322.0676,N,00130.0763,W,0.000,0.00,071212,,A*6A
$GPGGA,100114.000,5322.0672,N,00130.0938,W,1,0,,103.0,M,,M,,*4C
$GPRMC,100114.000,A,5322.0672,N,00130.0938,W,0.000,0.00,071212,,A*67
$GPGGA,100129.000,5322.0692,N,00130.1053,W,1,0,,102.0,M,,M,,*48
$GPRMC,100129.000,A,5322.0692,N,00130.1053,W,0.000,0.00,071212,,A*62
$GPGGA,100144.000,5322.0724,N,00130.1188,W,1,0,,103.0,M,,M,,*49
$GPRMC,100144.000,A,5322.0724,N,00130.1188,W,0.000,0.00,071212,,A*62
$GPGGA,100159.000,5322.0731,N,00130.1273,W,1,0,,103.0,M,,M,,*46
$GPRMC,100159.000,A,5322.0731,N,00130.1273,W,0.000,0.00,071212,,A*6D
$GPGGA,100218.000,5322.0754,N,00130.1397,W,1,0,,103.0,M,,M,,*48
$GPRMC,100218.000,A,5322.0754,N,00130.1397,W,0.000,0.00,071212,,A*63
$GPGGA,100233.000,5322.0711,N,00130.1522,W,1,0,,103.0,M,,M,,*48
$GPRMC,100233.000,A,5322.0711,N,00130.1522,W,0.000,0.00,071212,,A*63
$GPGGA,100248.000,5322.0635,N,00130.1705,W,1,0,,103.0,M,,M,,*44
$GPRMC,100248.000,A,5322.0635,N,00130.1705,W,0.000,0.00,071212,,A*6F
$GPGGA,100303.000,5322.0633,N,00130.1785,W,1,0,,103.0,M,,M,,*44
$GPRMC,100303.000,A,5322.0633,N,00130.1785,W,0.000,0.00,071212,,A*6F
$GPGGA,100318.000,5322.0628,N,00130.1929,W,1,0,,103.0,M,,M,,*4C
$GPRMC,100318.000,A,5322.0628,N,00130.1929,W,0.000,0.00,071212,,A*67
$GPGGA,100333.000,5322.0592,N,00130.1985,W,1,0,,103.0,M,,M,,*41
$GPRMC,100333.000,A,5322.0592,N,00130.1985,W,0.000,0.00,071212,,A*6A
$GPGGA,100353.000,5322.0569,N,00130.2161,W,1,0,,103.0,M,,M,,*42
$GPRMC,100353.000,A,5322.0569,N,00130.2161,W,0.000,0.00,071212,,A*69
$GPGGA,100410.000,5322.0784,N,00130.2280,W,1,0,,103.0,M,,M,,*4F
$GPRMC,100410.000,A,5322.0784,N,00130.2280,W,0.000,0.00,071212,,A*64
$GPGGA,100426.000,5322.0816,N,00130.2480,W,1,0,,103.0,M,,M,,*48
$GPRMC,100426.000,A,5322.0816,N,00130.2480,W,0.000,0.00,071212,,A*63
$GPGGA,100441.000,5322.0786,N,00130.2653,W,1,0,,103.0,M,,M,,*43
$GPRMC,100441.000,A,5322.0786,N,00130.2653,W,0.000,0.00,071212,,A*68
$GPGGA,100456.000,5322.0857,N,00130.2897,W,1,0,,103.0,M,,M,,*40
$GPRMC,100456.000,A,5322.0857,N,00130.2897,W,0.000,0.00,071212,,A*6B
$GPGGA,100524.000,5322.0807,N,00130.3032,W,1,0,,103.0,M,,M,,*47
$GPRMC,100524.000,A,5322.0807,N,00130.3032,W,0.000,0.00,071212,,A*6C
$GPGGA,100545.000,5322.0974,N,00130.3196,W,1,0,,103.0,M,,M,,*4A
$GPRMC,100545.000,A,5322.0974,N,00130.3196,W,0.000,0.00,071212,,A*61
$GPGGA,100612.000,5322.1022,N,00130.3255,W,1,0,,103.0,M,,M,,*4C
$GPRMC,100612.000,A,5322.1022,N,00130.3255,W,0.000,0.00,071212,,A*67
$GPGGA,100627.000,5322.1084,N,00130.3319,W,1,0,,103.0,M,,M,,*4F
$GPRMC,100627.000,A,5322.1084,N,00130.3319,W,0.000,0.00,071212,,A*64
$GPGGA,100642.000,5322.1159,N,00130.3448,W,1,0,,103.0,M,,M,,*4E
$GPRMC,100642.000,A,5322.1159,N,00130.3448,W,0.000,0.00,071212,,A*65
$GPGGA,100658.000,5322.1219,N,00130.3565,W,1,0,,103.0,M,,M,,*4C
$GPRMC,100658.000,A,5322.1219,N,00130.3565,W,0.000,0.00,071212,,A*67
$GPGGA,100715.000,5322.1237,N,00130.3761,W,1,0,,103.0,M,,M,,*4E
$GPRMC,100715.000,A,5322.1237,N,00130.3761,W,0.000,0.00,071212,,A*65
$GPGGA,100733.000,5322.1260,N,00130.4134,W,1,0,,103.0,M,,M,,*49
$GPRMC,100733.000,A,5322.1260,N,00130.4134,W,0.000,0.00,071212,,A*62
$GPGGA,100801.000,5322.1239,N,00130.4237,W,1,0,,103.0,M,,M,,*4B
$GPRMC,100801.000,A,5322.1239,N,00130.4237,W,0.000,0.00,071212,,A*60
$GPGGA,100817.000,5322.1185,N,00130.4551,W,1,0,,103.0,M,,M,,*4F
$GPRMC,100817.000,A,5322.1185,N,00130.4551,W,0.000,0.00,071212,,A*64
$GPGGA,100832.000,5322.1162,N,00130.4572,W,1,0,,103.0,M,,M,,*40
$GPRMC,100832.000,A,5322.1162,N,00130.4572,W,0.000,0.00,071212,,A*6B
$GPGGA,100847.000,5322.1120,N,00130.4679,W,1,0,,103.0,M,,M,,*4C
$GPRMC,100847.000,A,5322.1120,N,00130.4679,W,0.000,0.00,071212,,A*67
$GPGGA,100902.000,5322.1091,N,00130.4873,W,1,0,,102.0,M,,M,,*42
$GPRMC,100902.000,A,5322.1091,N,00130.4873,W,0.000,0.00,071212,,A*68
$GPGGA,100917.000,5322.1086,N,00130.4927,W,1,0,,103.0,M,,M,,*41
$GPRMC,100917.000,A,5322.1086,N,00130.4927,W,0.000,0.00,071212,,A*6A
$GPGGA,100932.000,5322.1132,N,00130.5087,W,1,0,,103.0,M,,M,,*4A
$GPRMC,100932.000,A,5322.1132,N,00130.5087,W,0.000,0.00,071212,,A*61
$GPGGA,100951.000,5322.1139,N,00130.5437,W,1,0,,103.0,M,,M,,*4B
$GPRMC,100951.000,A,5322.1139,N,00130.5437,W,0.000,0.00,071212,,A*60
$GPGGA,101006.000,5322.1173,N,00130.5562,W,1,0,,103.0,M,,M,,*4E
$GPRMC,101006.000,A,5322.1173,N,00130.5562,W,0.000,0.00,071212,,A*65
$GPGGA,101021.000,5322.1141,N,00130.5627,W,1,0,,103.0,M,,M,,*48
$GPRMC,101021.000,A,5322.1141,N,00130.5627,W,0.000,0.00,071212,,A*63
$GPGGA,101036.000,5322.1217,N,00130.5826,W,1,0,,103.0,M,,M,,*41
$GPRMC,101036.000,A,5322.1217,N,00130.5826,W,0.000,0.00,071212,,A*6A
$GPGGA,101051.000,5322.1175,N,00130.5878,W,1,0,,103.0,M,,M,,*4C
$GPRMC,101051.000,A,5322.1175,N,00130.5878,W,0.000,0.00,071212,,A*67
$GPGGA,101108.000,5322.1063,N,00130.6128,W,1,0,,103.0,M,,M,,*48
$GPRMC,101108.000,A,5322.1063,N,00130.6128,W,0.000,0.00,071212,,A*63
$GPGGA,101126.000,5322.0972,N,00130.6278,W,1,0,,103.0,M,,M,,*4A
$GPRMC,101126.000,A,5322.0972,N,00130.6278,W,0.000,0.00,071212,,A*61
$GPGGA,101141.000,5322.1040,N,00130.6318,W,1,0,,103.0,M,,M,,*45
$GPRMC,101141.000,A,5322.1040,N,00130.6318,W,0.000,0.00,071212,,A*6E
$GPGGA,101158.000,5322.1027,N,00130.6667,W,1,0,,103.0,M,,M,,*41
$GPRMC,101158.000,A,5322.1027,N,00130.6667,W,0.000,0.00,071212,,A*6A
$GPGGA,101213.000,5322.1136,N,00130.6869,W,1,0,,103.0,M,,M,,*4C
$GPRMC,101213.000,A,5322.1136,N,00130.6869,W,0.000,0.00,071212,,A*67
$GPGGA,101228.000,5322.1123,N,00130.6937,W,1,0,,103.0,M,,M,,*4A
$GPRMC,101228.000,A,5322.1123,N,00130.6937,W,0.000,0.00,071212,,A*61
$GPGGA,101244.000,5322.1214,N,00130.7007,W,1,0,,103.0,M,,M,,*4C
$GPRMC,101244.000,A,5322.1214,N,00130.7007,W,0.000,0.00,071212,,A*67
$GPGGA,101302.000,5322.1143,N,00130.7134,W,1,0,,103.0,M,,M,,*4F
$GPRMC,101302.000,A,5322.1143,N,00130.7134,W,0.000,0.00,071212,,A*64
$GPGGA,101317.000,5322.1162,N,00130.7325,W,1,0,,103.0,M,,M,,*4A
$GPRMC,101317.000,A,5322.1162,N,00130.7325,W,0.000,0.00,071212,,A*61
$GPGGA,101332.000,5322.1093,N,00130.7583,W,1,0,,102.0,M,,M,,*49
$GPRMC,101332.000,A,5322.1093,N,00130.7583,W,0.000,0.00,071212,,A*63
$GPGGA,101348.000,5322.1114,N,00130.7662,W,1,0,,102.0,M,,M,,*46
$GPRMC,101348.000,A,5322.1114,N,00130.7662,W,0.000,0.00,071212,,A*6C
$GPGGA,101403.000,5322.1189,N,00130.7701,W,1,0,,102.0,M,,M,,*4E
$GPRMC,101403.000,A,5322.1189,N,00130.7701,W,0.000,0.00,071212,,A*64
$GPGGA,101418.000,5322.1306,N,00130.7864,W,1,0,,102.0,M,,M,,*4D
$GPRMC,101418.000,A,5322.1306,N,00130.7864,W,0.000,0.00,071212,,A*67
$GPGGA,101433.000,5322.1322,N,00130.7911,W,1,0,,102.0,M,,M,,*41
$GPRMC,101433.000,A,5322.1322,N,00130.7911,W,0.000,0.00,071212,,A*6B
$GPGGA,101448.000,5322.1338,N,00130.8021,W,1,0,,102.0,M,,M,,*43
$GPRMC,101448.000,A,5322.1338,N,00130.8021,W,0.000,0.00,071212,,A*69
$GPGGA,101505.000,5322.1425,N,00130.8266,W,1,0,,102.0,M,,M,,*41
$GPRMC,101505.000,A,5322.1425,N,00130.8266,W,0.000,0.00,071212,,A*6B
$GPGGA,101525.000,5322.1420,N,00130.8589,W,1,0,,102.0,M,,M,,*40
$GPRMC,101525.000,A,5322.1420,N,00130.8589,W,0.000,0.00,071212,,A*6A
$GPGGA,101554.000,5322.1333,N,00130.8854,W,1,0,,102.0,M,,M,,*4E
$GPRMC,101554.000,A,5322.1333,N,00130.8854,W,0.000,0.00,071212,,A*64
$GPGGA,101623.000,5322.1324,N,00130.8970,W,1,0,,102.0,M,,M,,*4C
$GPRMC,101623.000,A,5322.1324,N,00130.8970,W,0.000,0.00,071212,,A*66
$GPGGA,101641.000,5322.1473,N,00130.9305,W,1,0,,102.0,M,,M,,*44
$GPRMC,101641.000,A,5322.1473,N,00130.9305,W,0.000,0.00,071212,,A*6E
$GPGGA,101657.000,5322.1471,N,00130.9382,W,1,0,,102.0,M,,M,,*4E
$GPRMC,101657.000,A,5322.1471,N,00130.9382,W,0.000,0.00,071212,,A*64
$GPGGA,101712.000,5322.1473,N,00130.9565,W,1,0,,102.0,M,,M,,*43
$GPRMC,101712.000,A,5322.1473,N,00130.9565,W,0.000,0.00,071212,,A*69
$GPGGA,101727.000,5322.1461,N,00130.9646,W,1,0,,102.0,M,,M,,*44
$GPRMC,101727.000,A,5322.1461,N,00130.9646,W,0.000,0.00,071212,,A*6E
$GPGGA,101742.000,5322.1507,N,00130.9879,W,1,0,,102.0,M,,M,,*44
$GPRMC,101742.000,A,5322.1507,N,00130.9879,W,0.000,0.00,071212,,A*6E
$GPGGA,101757.000,5322.1510,N,00130.9957,W,1,0,,102.0,M,,M,,*4B
$GPRMC,101757.000,A,5322.1510,N,00130.9957,W,0.000,0.00,071212,,A*61
$GPGGA,101813.000,5322.1558,N,00131.0006,W,1,0,,102.0,M,,M,,*4D
$GPRMC,101813.000,A,5322.1558,N,00131.0006,W,0.000,0.00,071212,,A*67
$GPGGA,101829.000,5322.1578,N,00131.0153,W,1,0,,102.0,M,,M,,*47
$GPRMC,101829.000,A,5322.1578,N,00131.0153,W,0.000,0.00,071212,,A*6D
$GPGGA,101845.000,5322.1544,N,00131.0321,W,1,0,,102.0,M,,M,,*45
$GPRMC,101845.000,A,5322.1544,N,00131.0321,W,0.000,0.00,071212,,A*6F
$GPGGA,101900.000,5322.1443,N,00131.0526,W,1,0,,102.0,M,,M,,*42
$GPRMC,101900.000,A,5322.1443,N,00131.0526,W,0.000,0.00,071212,,A*68
$GPGGA,101916.000,5322.1400,N,00131.0562,W,1,0,,102.0,M,,M,,*42
$GPRMC,101916.000,A,5322.1400,N,00131.0562,W,0.000,0.00,071212,,A*68
$GPGGA,101931.000,5322.1381,N,00131.0676,W,1,0,,102.0,M,,M,,*4F
$GPRMC,101931.000,A,5322.1381,N,00131.0676,W,0.000,0.00,071212,,A*65
$GPGGA,101947.000,5322.1370,N,00131.0781,W,1,0,,102.0,M,,M,,*49
$GPRMC,101947.000,A,5322.1370,N,00131.0781,W,0.000,0.00,071212,,A*63
$GPGGA,102002.000,5322.1452,N,00131.0948,W,1,0,,102.0,M,,M,,*4E
$GPRMC,102002.000,A,5322.1452,N,00131.0948,W,0.000,0.00,071212,,A*64
$GPGGA,102017.000,5322.1375,N,00131.1056,W,1,0,,102.0,M,,M,,*4F
$GPRMC,102017.000,A,5322.1375,N,00131.1056,W,0.000,0.00,071212,,A*65
$GPGGA,102032.000,5322.1342,N,00131.1159,W,1,0,,102.0,M,,M,,*42
$GPRMC,102032.000,A,5322.1342,N,00131.1159,W,0.000,0.00,071212,,A*68
$GPGGA,102047.000,5322.1342,N,00131.1327,W,1,0,,102.0,M,,M,,*4B
$GPRMC,102047.000,A,5322.1342,N,00131.1327,W,0.000,0.00,071212,,A*61
$GPGGA,102108.000,5322.1356,N,00131.1430,W,1,0,,102.0,M,,M,,*45
$GPRMC,102108.000,A,5322.1356,N,00131.1430,W,0.000,0.00,071212,,A*6F
$GPGGA,102123.000,5322.1249,N,00131.1537,W,1,0,,102.0,M,,M,,*45
$GPRMC,102123.000,A,5322.1249,N,00131.1537,W,0.000,0.00,071212,,A*6F
$GPGGA,102138.000,5322.1185,N,00131.1583,W,1,0,,102.0,M,,M,,*43
$GPRMC,102138.000,A,5322.1185,N,00131.1583,W,0.000,0.00,071212,,A*69
$GPGGA,102153.000,5322.1253,N,00131.1791,W,1,0,,102.0,M,,M,,*47
$GPRMC,102153.000,A,5322.1253,N,00131.1791,W,0.000,0.00,071212,,A*6D
$GPGGA,102209.000,5322.1267,N,00131.1776,W,1,0,,102.0,M,,M,,*45
$GPRMC,102209.000,A,5322.1267,N,00131.1776,W,0.000,0.00,071212,,A*6F
$GPGGA,102225.000,5322.1148,N,00131.1873,W,1,0,,102.0,M,,M,,*4F
$GPRMC,102225.000,A,5322.1148,N,00131.1873,W,0.000,0.00,071212,,A*65
$GPGGA,102240.000,5322.1052,N,00131.2009,W,1,0,,102.0,M,,M,,*40
$GPRMC,102240.000,A,5322.1052,N,00131.2009,W,0.000,0.00,071212,,A*6A
$GPGGA,102256.000,5322.1022,N,00131.2104,W,1,0,,102.0,M,,M,,*4C
$GPRMC,102256.000,A,5322.1022,N,00131.2104,W,0.000,0.00,071212,,A*66
$GPGGA,102311.000,5322.0990,N,00131.2170,W,1,0,,102.0,M,,M,,*4C
$GPRMC,102311.000,A,5322.0990,N,00131.2170,W,0.000,0.00,071212,,A*66
$GPGGA,102327.000,5322.0969,N,00131.2244,W,1,0,,102.0,M,,M,,*4B
$GPRMC,102327.000,A,5322.0969,N,00131.2244,W,0.000,0.00,071212,,A*61
$GPGGA,102342.000,5322.0972,N,00131.2295,W,1,0,,102.0,M,,M,,*4E
$GPRMC,102342.000,A,5322.0972,N,00131.2295,W,0.000,0.00,071212,,A*64
$GPGGA,102358.000,5322.0882,N,00131.2466,W,1,0,,102.0,M,,M,,*41
$GPRMC,102358.000,A,5322.0882,N,00131.2466,W,0.000,0.00,071212,,A*6B
$GPGGA,102413.000,5322.0866,N,00131.2539,W,1,0,,102.0,M,,M,,*48
$GPRMC,102413.000,A,5322.0866,N,00131.2539,W,0.000,0.00,071212,,A*62
$GPGGA,102428.000,5322.0683,N,00131.2672,W,1,0,,102.0,M,,M,,*49
$GPRMC,102428.000,A,5322.0683,N,00131.2672,W,0.000,0.00,071212,,A*63
$GPGGA,102447.000,5322.0633,N,00131.2649,W,1,0,,102.0,M,,M,,*43
$GPRMC,102447.000,A,5322.0633,N,00131.2649,W,0.000,0.00,071212,,A*69
$GPGGA,102503.000,5322.0651,N,00131.2695,W,1,0,,102.0,M,,M,,*47
$GPRMC,102503.000,A,5322.0651,N,00131.2695,W,0.000,0.00,071212,,A*6D
$GPGGA,102518.000,5322.0587,N,00131.2785,W,1,0,,102.0,M,,M,,*45
$GPRMC,102518.000,A,5322.0587,N,00131.2785,W,0.000,0.00,071212,,A*6F
$GPGGA,102534.000,5322.0555,N,00131.2776,W,1,0,,102.0,M,,M,,*48
$GPRMC,102534.000,A,5322.0555,N,00131.2776,W,0.000,0.00,071212,,A*62
$GPGGA,102550.000,5322.0505,N,00131.2834,W,1,0,,102.0,M,,M,,*46
$GPRMC,102550.000,A,5322.0505,N,00131.2834,W,0.000,0.00,071212,,A*6C
$GPGGA,102605.000,5322.0452,N,00131.2926,W,1,0,,102.0,M,,M,,*44
$GPRMC,102605.000,A,5322.0452,N,00131.2926,W,0.000,0.00,071212,,A*6E
$GPGGA,102620.000,5322.0271,N,00131.3071,W,1,0,,102.0,M,,M,,*4E
$GPRMC,102620.000,A,5322.0271,N,00131.3071,W,0.000,0.00,071212,,A*64
$GPGGA,102638.000,5322.0207,N,00131.3127,W,1,0,,102.0,M,,M,,*44
$GPRMC,102638.000,A,5322.0207,N,00131.3127,W,0.000,0.00,071212,,A*6E
$GPGGA,102653.000,5322.0155,N,00131.3176,W,1,0,,102.0,M,,M,,*49
$GPRMC,102653.000,A,5322.0155,N,00131.3176,W,0.000,0.00,071212,,A*63
$GPGGA,102709.000,5322.0116,N,00131.3243,W,1,0,,102.0,M,,M,,*45
$GPRMC,102709.000,A,5322.0116,N,00131.3243,W,0.000,0.00,071212,,A*6F
$GPGGA,102725.000,5322.0024,N,00131.3386,W,1,0,,102.0,M,,M,,*43
$GPRMC,102725.000,A,5322.0024,N,00131.3386,W,0.000,0.00,071212,,A*69
$GPGGA,102740.000,5321.9985,N,00131.3374,W,1,0,,102.0,M,,M,,*45
$GPRMC,102740.000,A,5321.9985,N,00131.3374,W,0.000,0.00,071212,,A*6F
$GPGGA,102755.000,5321.9882,N,00131.3388,W,1,0,,102.0,M,,M,,*44
$GPRMC,102755.000,A,5321.9882,N,00131.3388,W,0.000,0.00,071212,,A*6E
$GPGGA,102810.000,5321.9846,N,00131.3507,W,1,0,,102.0,M,,M,,*43
$GPRMC,102810.000,A,5321.9846,N,00131.3507,W,0.000,0.00,071212,,A*69
$GPGGA,102827.000,5321.9617,N,00131.3661,W,1,0,,102.0,M,,M,,*4E
$GPRMC,102827.000,A,5321.9617,N,00131.3661,W,0.000,0.00,071212,,A*64
$GPGGA,102842.000,5321.9489,N,00131.3700,W,1,0,,102.0,M,,M,,*4E
$GPRMC,102842.000,A,5321.9489,N,00131.3700,W,0.000,0.00,071212,,A*64
$GPGGA,102858.000,5321.9486,N,00131.3771,W,1,0,,102.0,M,,M,,*4C
$GPRMC,102858.000,A,5321.9486,N,00131.3771,W,0.000,0.00,071212,,A*66
$GPGGA,102914.000,5321.9445,N,00131.3872,W,1,0,,102.0,M,,M,,*46
$GPRMC,102914.000,A,5321.9445,N,00131.3872,W,0.000,0.00,071212,,A*6C
$GPGGA,102929.000,5321.9376,N,00131.3882,W,1,0,,102.0,M,,M,,*40
$GPRMC,102929.000,A,5321.9376,N,00131.3882,W,0.000,0.00,071212,,A*6A
$GPGGA,102945.000,5321.9317,N,00131.3931,W,1,0,,102.0,M,,M,,*44
$GPRMC,102945.000,A,5321.9317,N,00131.3931,W,0.000,0.00,071212,,A*6E
$GPGGA,103001.000,5321.9198,N,00131.3999,W,1,0,,102.0,M,,M,,*4B
$GPRMC,103001.000,A,5321.9198,N,00131.3999,W,0.000,0.00,071212,,A*61
$GPGGA,103016.000,5321.9150,N,00131.4061,W,1,0,,102.0,M,,M,,*40
$GPRMC,103016.000,A,5321.9150,N,00131.4061,W,0.000,0.00,071212,,A*6A
$GPGGA,103031.000,5321.9044,N,00131.4251,W,1,0,,102.0,M,,M,,*40
$GPRMC,103031.000,A,5321.9044,N,00131.4251,W,0.000,0.00,071212,,A*6A
$GPGGA,103046.000,5321.8939,N,00131.4352,W,1,0,,102.0,M,,M,,*40
$GPRMC,103046.000,A,5321.8939,N,00131.4352,W,0.000,0.00,071212,,A*6A
$GPGGA,103101.000,5321.8811,N,00131.4422,W,1,0,,102.0,M,,M,,*49
$GPRMC,103101.000,A,5321.8811,N,00131.4422,W,0.000,0.00,071212,,A*63
$GPGGA,103116.000,5321.8772,N,00131.4458,W,1,0,,102.0,M,,M,,*48
$GPRMC,103116.000,A,5321.8772,N,00131.4458,W,0.000,0.00,071212,,A*62
$GPGGA,103132.000,5321.8772,N,00131.4653,W,1,0,,102.0,M,,M,,*47
$GPRMC,103132.000,A,5321.8772,N,00131.4653,W,0.000,0.00,071212,,A*6D
$GPGGA,103154.000,5321.8669,N,00131.4729,W,1,0,,102.0,M,,M,,*40
$GPRMC,103154.000,A,5321.8669,N,00131.4729,W,0.000,0.00,071212,,A*6A
$GPGGA,103210.000,5321.8605,N,00131.4842,W,1,0,,102.0,M,,M,,*4B
$GPRMC,103210.000,A,5321.8605,N,00131.4842,W,0.000,0.00,071212,,A*61
$GPGGA,103225.000,5321.8612,N,00131.4896,W,1,0,,102.0,M,,M,,*42
$GPRMC,103225.000,A,5321.8612,N,00131.4896,W,0.000,0.00,071212,,A*68
$GPGGA,103240.000,5321.8564,N,00131.4972,W,1,0,,102.0,M,,M,,*48
$GPRMC,103240.000,A,5321.8564,N,00131.4972,W,0.000,0.00,071212,,A*62
$GPGGA,103256.000,5321.8559,N,00131.5113,W,1,0,,102.0,M,,M,,*4F
$GPRMC,103256.000,A,5321.8559,N,00131.5113,W,0.000,0.00,071212,,A*65
$GPGGA,103311.000,5321.8507,N,00131.5206,W,1,0,,103.0,M,,M,,*40
$GPRMC,103311.000,A,5321.8507,N,00131.5206,W,0.000,0.00,071212,,A*6B
$GPGGA,103326.000,5321.8525,N,00131.5225,W,1,0,,103.0,M,,M,,*45
$GPRMC,103326.000,A,5321.8525,N,00131.5225,W,0.000,0.00,071212,,A*6E
$GPGGA,103341.000,5321.8420,N,00131.5254,W,1,0,,102.0,M,,M,,*47
$GPRMC,103341.000,A,5321.8420,N,00131.5254,W,0.000,0.00,071212,,A*6D
$GPGGA,103356.000,5321.8415,N,00131.5303,W,1,0,,102.0,M,,M,,*44
$GPRMC,103356.000,A,5321.8415,N,00131.5303,W,0.000,0.00,071212,,A*6E
$GPGGA,103411.000,5321.8427,N,00131.5359,W,1,0,,102.0,M,,M,,*4E
$GPRMC,103411.000,A,5321.8427,N,00131.5359,W,0.000,0.00,071212,,A*64
$GPGGA,103426.000,5321.8415,N,00131.5384,W,1,0,,102.0,M,,M,,*4B
$GPRMC,103426.000,A,5321.8415,N,00131.5384,W,0.000,0.00,071212,,A*61
$GPGGA,103448.000,5321.8374,N,00131.5530,W,1,0,,102.0,M,,M,,*4A
$GPRMC,103448.000,A,5321.8374,N,00131.5530,W,0.000,0.00,071212,,A*60
$GPGGA,103503.000,5321.8239,N,00131.5775,W,1,0,,103.0,M,,M,,*4E
$GPRMC,103503.000,A,5321.8239,N,00131.5775,W,0.000,0.00,071212,,A*65
$GPGGA,103518.000,5321.8239,N,00131.5793,W,1,0,,103.0,M,,M,,*4C
$GPRMC,103518.000,A,5321.8239,N,00131.5793,W,0.000,0.00,071212,,A*67
$GPGGA,103535.000,5321.8184,N,00131.5815,W,1,0,,103.0,M,,M,,*47
$GPRMC,103535.000,A,5321.8184,N,00131.5815,W,0.000,0.00,071212,,A*6C
$GPGGA,103551.000,5321.8108,N,00131.5843,W,1,0,,103.0,M,,M,,*42
$GPRMC,103551.000,A,5321.8108,N,00131.5843,W,0.000,0.00,071212,,A*69
$GPGGA,103606.000,5321.8076,N,00131.5872,W,1,0,,103.0,M,,M,,*49
$GPRMC,103606.000,A,5321.8076,N,00131.5872,W,0.000,0.00,071212,,A*62
$GPGGA,103621.000,5321.7964,N,00131.5925,W,1,0,,103.0,M,,M,,*4A
$GPRMC,103621.000,A,5321.7964,N,00131.5925,W,0.000,0.00,071212,,A*61
$GPGGA,103637.000,5321.7939,N,00131.6052,W,1,0,,103.0,M,,M,,*4F
$GPRMC,103637.000,A,5321.7939,N,00131.6052,W,0.000,0.00,071212,,A*64
$GPGGA,103652.000,5321.7870,N,00131.6266,W,1,0,,104.0,M,,M,,*42
$GPRMC,103652.000,A,5321.7870,N,00131.6266,W,0.000,0.00,071212,,A*6E
$GPGGA,103707.000,5321.7809,N,00131.6347,W,1,0,,104.0,M,,M,,*4F
$GPRMC,103707.000,A,5321.7809,N,00131.6347,W,0.000,0.00,071212,,A*63
$GPGGA,103722.000,5321.7779,N,00131.6416,W,1,0,,104.0,M,,M,,*43
$GPRMC,103722.000,A,5321.7779,N,00131.6416,W,0.000,0.00,071212,,A*6F
$GPGGA,103743.000,5321.7694,N,00131.6584,W,1,0,,104.0,M,,M,,*4C
$GPRMC,103743.000,A,5321.7694,N,00131.6584,W,0.000,0.00,071212,,A*60
$GPGGA,103758.000,5321.7722,N,00131.6733,W,1,0,,104.0,M,,M,,*44
$GPRMC,103758.000,A,5321.7722,N,00131.6733,W,0.000,0.00,071212,,A*68
$GPGGA,103813.000,5321.7706,N,00131.6883,W,1,0,,104.0,M,,M,,*46
$GPRMC,103813.000,A,5321.7706,N,00131.6883,W,0.000,0.00,071212,,A*6A
$GPGGA,103828.000,5321.7726,N,00131.6967,W,1,0,,104.0,M,,M,,*47
$GPRMC,103828.000,A,5321.7726,N,00131.6967,W,0.000,0.00,071212,,A*6B
$GPGGA,103844.000,5321.7694,N,00131.7319,W,1,0,,104.0,M,,M,,*47
$GPRMC,103844.000,A,5321.7694,N,00131.7319,W,0.000,0.00,071212,,A*6B
$GPGGA,103859.000,5321.7708,N,00131.7366,W,1,0,,104.0,M,,M,,*47
$GPRMC,103859.000,A,5321.7708,N,00131.7366,W,0.000,0.00,071212,,A*6B
$GPGGA,103914.000,5321.7735,N,00131.7480,W,1,0,,105.0,M,,M,,*4F
$GPRMC,103914.000,A,5321.7735,N,00131.7480,W,0.000,0.00,071212,,A*62
$GPGGA,103929.000,5321.7744,N,00131.7574,W,1,0,,105.0,M,,M,,*4D
$GPRMC,103929.000,A,5321.7744,N,00131.7574,W,0.000,0.00,071212,,A*60
$GPGGA,103944.000,5321.7738,N,00131.7760,W,1,0,,105.0,M,,M,,*4A
$GPRMC,103944.000,A,5321.7738,N,00131.7760,W,0.000,0.00,071212,,A*67
$GPGGA,103959.000,5321.7710,N,00131.7857,W,1,0,,105.0,M,,M,,*47
$GPRMC,103959.000,A,5321.7710,N,00131.7857,W,0.000,0.00,071212,,A*6A
$GPGGA,104015.000,5321.7749,N,00131.7949,W,1,0,,105.0,M,,M,,*43
$GPRMC,104015.000,A,5321.7749,N,00131.7949,W,0.000,0.00,071212,,A*6E
$GPGGA,104030.000,5321.7747,N,00131.7999,W,1,0,,105.0,M,,M,,*47
$GPRMC,104030.000,A,5321.7747,N,00131.7999,W,0.000,0.00,071212,,A*6A
$GPGGA,104045.000,5321.7776,N,00131.8055,W,1,0,,105.0,M,,M,,*41
$GPRMC,104045.000,A,5321.7776,N,00131.8055,W,0.000,0.00,071212,,A*6C
$GPGGA,104101.000,5321.7838,N,00131.8124,W,1,0,,105.0,M,,M,,*42
$GPRMC,104101.000,A,5321.7838,N,00131.8124,W,0.000,0.00,071212,,A*6F
$GPGGA,104116.000,5321.7882,N,00131.8144,W,1,0,,105.0,M,,M,,*43
$GPRMC,104116.000,A,5321.7882,N,00131.8144,W,0.000,0.00,071212,,A*6E
$GPGGA,104131.000,5321.7857,N,00131.8203,W,1,0,,105.0,M,,M,,*4E
$GPRMC,104131.000,A,5321.7857,N,00131.8203,W,0.000,0.00,071212,,A*63
$GPGGA,104146.000,5321.7813,N,00131.8285,W,1,0,,105.0,M,,M,,*40
$GPRMC,104146.000,A,5321.7813,N,00131.8285,W,0.000,0.00,071212,,A*6D
$GPGGA,104202.000,5321.7813,N,00131.8407,W,1,0,,105.0,M,,M,,*4F
$GPRMC,104202.000,A,5321.7813,N,00131.8407,W,0.000,0.00,071212,,A*62
$GPGGA,104217.000,5321.7799,N,00131.8498,W,1,0,,105.0,M,,M,,*40
$GPRMC,104217.000,A,5321.7799,N,00131.8498,W,0.000,0.00,071212,,A*6D
$GPGGA,104232.000,5321.7760,N,00131.8613,W,1,0,,105.0,M,,M,,*40
$GPRMC,104232.000,A,5321.7760,N,00131.8613,W,0.000,0.00,071212,,A*6D
$GPGGA,104248.000,5321.7646,N,00131.8900,W,1,0,,105.0,M,,M,,*45
$GPRMC,104248.000,A,5321.7646,N,00131.8900,W,0.000,0.00,071212,,A*68
$GPGGA,104303.000,5321.7660,N,00131.8973,W,1,0,,106.0,M,,M,,*48
$GPRMC,104303.000,A,5321.7660,N,00131.8973,W,0.000,0.00,071212,,A*66
$GPGGA,104318.000,5321.7692,N,00131.9124,W,1,0,,105.0,M,,M,,*47
$GPRMC,104318.000,A,5321.7692,N,00131.9124,W,0.000,0.00,071212,,A*6A
$GPGGA,104340.000,5321.7692,N,00131.9233,W,1,0,,105.0,M,,M,,*4F
$GPRMC,104340.000,A,5321.7692,N,00131.9233,W,0.000,0.00,071212,,A*62
$GPGGA,104355.000,5321.7767,N,00131.9336,W,1,0,,105.0,M,,M,,*44
$GPRMC,104355.000,A,5321.7767,N,00131.9336,W,0.000,0.00,071212,,A*69
$GPGGA,104410.000,5321.7641,N,00131.9443,W,1,0,,106.0,M,,M,,*41
$GPRMC,104410.000,A,5321.7641,N,00131.9443,W,0.000,0.00,071212,,A*6F
$GPGGA,104425.000,5321.7696,N,00131.9484,W,1,0,,106.0,M,,M,,*46
$GPRMC,104425.000,A,5321.7696,N,00131.9484,W,0.000,0.00,071212,,A*68
$GPGGA,104440.000,5321.7648,N,00131.9588,W,1,0,,106.0,M,,M,,*4B
$GPRMC,104440.000,A,5321.7648,N,00131.9588,W,0.000,0.00,071212,,A*65
$GPGGA,104455.000,5321.7607,N,00131.9624,W,1,0,,106.0,M,,M,,*41
$GPRMC,104455.000,A,5321.7607,N,00131.9624,W,0.000,0.00,071212,,A*6F
$GPGGA,104510.000,5321.7600,N,00131.9723,W,1,0,,106.0,M,,M,,*40
$GPRMC,104510.000,A,5321.7600,N,00131.9723,W,0.000,0.00,071212,,A*6E
$GPGGA,104526.000,5321.7605,N,00131.9787,W,1,0,,106.0,M,,M,,*4E
$GPRMC,104526.000,A,5321.7605,N,00131.9787,W,0.000,0.00,071212,,A*60
$GPGGA,104541.000,5321.7550,N,00132.0042,W,1,0,,106.0,M,,M,,*48
$GPRMC,104541.000,A,5321.7550,N,00132.0042,W,0.000,0.00,071212,,A*66
$GPGGA,104556.000,5321.7520,N,00132.0121,W,1,0,,106.0,M,,M,,*4D
$GPRMC,104556.000,A,5321.7520,N,00132.0121,W,0.000,0.00,071212,,A*63
$GPGGA,104612.000,5321.7458,N,00132.0311,W,1,0,,106.0,M,,M,,*41
$GPRMC,104612.000,A,5321.7458,N,00132.0311,W,0.000,0.00,071212,,A*6F
$GPGGA,104627.000,5321.7419,N,00132.0390,W,1,0,,106.0,M,,M,,*4B
$GPRMC,104627.000,A,5321.7419,N,00132.0390,W,0.000,0.00,071212,,A*65
$GPGGA,104643.000,5321.7509,N,00132.0437,W,1,0,,106.0,M,,M,,*43
$GPRMC,104643.000,A,5321.7509,N,00132.0437,W,0.000,0.00,071212,,A*6D
$GPGGA,104658.000,5321.7509,N,00132.0451,W,1,0,,106.0,M,,M,,*49
$GPRMC,104658.000,A,5321.7509,N,00132.0451,W,0.000,0.00,071212,,A*67
$GPGGA,104713.000,5321.7438,N,00132.0564,W,1,0,,106.0,M,,M,,*43
$GPRMC,104713.000,A,5321.7438,N,00132.0564,W,0.000,0.00,071212,,A*6D
$GPGGA,104729.000,5321.7326,N,00132.0702,W,1,0,,106.0,M,,M,,*40
$GPRMC,104729.000,A,5321.7326,N,00132.0702,W,0.000,0.00,071212,,A*6E
$GPGGA,104744.000,5321.7371,N,00132.0880,W,1,0,,106.0,M,,M,,*4C
$GPRMC,104744.000,A,5321.7371,N,00132.0880,W,0.000,0.00,071212,,A*62
$GPGGA,104759.000,5321.7369,N,00132.0942,W,1,0,,106.0,M,,M,,*46
$GPRMC,104759.000,A,5321.7369,N,00132.0942,W,0.000,0.00,071212,,A*68
$GPGGA,104814.000,5321.7376,N,00132.1006,W,1,0,,107.0,M,,M,,*47
$GPRMC,104814.000,A,5321.7376,N,00132.1006,W,0.000,0.00,071212,,A*68
$GPGGA,104829.000,5321.7376,N,00132.1061,W,1,0,,107.0,M,,M,,*48
$GPRMC,104829.000,A,5321.7376,N,00132.1061,W,0.000,0.00,071212,,A*67
$GPGGA,104845.000,5321.7328,N,00132.1190,W,1,0,,107.0,M,,M,,*46
$GPRMC,104845.000,A,5321.7328,N,00132.1190,W,0.000,0.00,071212,,A*69
$GPGGA,104901.000,5321.7225,N,00132.1340,W,1,0,,107.0,M,,M,,*44
$GPRMC,104901.000,A,5321.7225,N,00132.1340,W,0.000,0.00,071212,,A*6B
$GPGGA,104916.000,5321.7168,N,00132.1500,W,1,0,,107.0,M,,M,,*4A
$GPRMC,104916.000,A,5321.7168,N,00132.1500,W,0.000,0.00,071212,,A*65
$GPGGA,104931.000,5321.7152,N,00132.1586,W,1,0,,107.0,M,,M,,*48
$GPRMC,104931.000,A,5321.7152,N,00132.1586,W,0.000,0.00,071212,,A*67
$GPGGA,104946.000,5321.7122,N,00132.1653,W,1,0,,107.0,M,,M,,*44
$GPRMC,104946.000,A,5321.7122,N,00132.1653,W,0.000,0.00,071212,,A*6B
$GPGGA,105002.000,5321.7138,N,00132.1780,W,1,0,,107.0,M,,M,,*48
$GPRMC,105002.000,A,5321.7138,N,00132.1780,W,0.000,0.00,071212,,A*67
$GPGGA,105018.000,5321.7197,N,00132.1886,W,1,0,,107.0,M,,M,,*4F
$GPRMC,105018.000,A,5321.7197,N,00132.1886,W,0.000,0.00,071212,,A*60
$GPGGA,105033.000,5321.7142,N,00132.1928,W,1,0,,107.0,M,,M,,*4B
$GPRMC,105033.000,A,5321.7142,N,00132.1928,W,0.000,0.00,071212,,A*64
$GPGGA,105048.000,5321.7053,N,00132.2103,W,1,0,,107.0,M,,M,,*44
$GPRMC,105048.000,A,5321.7053,N,00132.2103,W,0.000,0.00,071212,,A*6B
$GPGGA,105103.000,5321.7065,N,00132.2122,W,1,0,,107.0,M,,M,,*4C
$GPRMC,105103.000,A,5321.7065,N,00132.2122,W,0.000,0.00,071212,,A*63
$GPGGA,105118.000,5321.7099,N,00132.2250,W,1,0,,107.0,M,,M,,*43
$GPRMC,105118.000,A,5321.7099,N,00132.2250,W,0.000,0.00,071212,,A*6C
$GPGGA,105133.000,5321.7051,N,00132.2346,W,1,0,,108.0,M,,M,,*47
$GPRMC,105133.000,A,5321.7051,N,00132.2346,W,0.000,0.00,071212,,A*67
$GPGGA,105149.000,5321.7099,N,00132.2458,W,1,0,,108.0,M,,M,,*46
$GPRMC,105149.000,A,5321.7099,N,00132.2458,W,0.000,0.00,071212,,A*66
$GPGGA,105204.000,5321.7122,N,00132.2523,W,1,0,,108.0,M,,M,,*40
$GPRMC,105204.000,A,5321.7122,N,00132.2523,W,0.000,0.00,071212,,A*60
$GPGGA,105221.000,5321.7115,N,00132.2722,W,1,0,,108.0,M,,M,,*40
$GPRMC,105221.000,A,5321.7115,N,00132.2722,W,0.000,0.00,071212,,A*60
$GPGGA,105237.000,5321.7136,N,00132.2937,W,1,0,,108.0,M,,M,,*4C
$GPRMC,105237.000,A,5321.7136,N,00132.2937,W,0.000,0.00,071212,,A*6C
$GPGGA,105252.000,5321.7053,N,00132.3031,W,1,0,,108.0,M,,M,,*43
$GPRMC,105252.000,A,5321.7053,N,00132.3031,W,0.000,0.00,071212,,A*63
$GPGGA,105308.000,5321.6975,N,00132.3188,W,1,0,,108.0,M,,M,,*42
$GPRMC,105308.000,A,5321.6975,N,00132.3188,W,0.000,0.00,071212,,A*62
$GPGGA,105323.000,5321.6980,N,00132.3256,W,1,0,,108.0,M,,M,,*41
$GPRMC,105323.000,A,5321.6980,N,00132.3256,W,0.000,0.00,071212,,A*61
$GPGGA,105339.000,5321.7044,N,00132.3479,W,1,0,,108.0,M,,M,,*41
$GPRMC,105339.000,A,5321.7044,N,00132.3479,W,0.000,0.00,071212,,A*61
$GPGGA,105354.000,5321.7078,N,00132.3487,W,1,0,,108.0,M,,M,,*44
$GPRMC,105354.000,A,5321.7078,N,00132.3487,W,0.000,0.00,071212,,A*64
$GPGGA,105409.000,5321.7117,N,00132.3552,W,1,0,,108.0,M,,M,,*4A
$GPRMC,105409.000,A,5321.7117,N,00132.3552,W,0.000,0.00,071212,,A*6A
$GPGGA,105424.000,5321.6985,N,00132.3772,W,1,0,,108.0,M,,M,,*47
$GPRMC,105424.000,A,5321.6985,N,00132.3772,W,0.000,0.00,071212,,A*67
$GPGGA,105439.000,5321.6973,N,00132.3856,W,1,0,,109.0,M,,M,,*4A
$GPRMC,105439.000,A,5321.6973,N,00132.3856,W,0.000,0.00,071212,,A*6B
$GPGGA,105455.000,5321.6856,N,00132.4063,W,1,0,,109.0,M,,M,,*4F
$GPRMC,105455.000,A,5321.6856,N,00132.4063,W,0.000,0.00,071212,,A*6E
$GPGGA,105510.000,5321.6836,N,00132.4198,W,1,0,,109.0,M,,M,,*4C
$GPRMC,105510.000,A,5321.6836,N,00132.4198,W,0.000,0.00,071212,,A*6D
$GPGGA,105525.000,5321.6914,N,00132.4358,W,1,0,,109.0,M,,M,,*45
$GPRMC,105525.000,A,5321.6914,N,00132.4358,W,0.000,0.00,071212,,A*64
$GPGGA,105542.000,5321.6856,N,00132.4413,W,1,0,,109.0,M,,M,,*4B
$GPRMC,105542.000,A,5321.6856,N,00132.4413,W,0.000,0.00,071212,,A*6A
$GPGGA,105557.000,5321.6840,N,00132.4461,W,1,0,,109.0,M,,M,,*4D
$GPRMC,105557.000,A,5321.6840,N,00132.4461,W,0.000,0.00,071212,,A*6C
$GPGGA,105612.000,5321.6829,N,00132.4530,W,1,0,,109.0,M,,M,,*45
$GPRMC,105612.000,A,5321.6829,N,00132.4530,W,0.000,0.00,071212,,A*64
$GPGGA,105627.000,5321.6804,N,00132.4726,W,1,0,,109.0,M,,M,,*49
$GPRMC,105627.000,A,5321.6804,N,00132.4726,W,0.000,0.00,071212,,A*68
$GPGGA,105644.000,5321.6744,N,00132.4879,W,1,0,,109.0,M,,M,,*42
$GPRMC,105644.000,A,5321.6744,N,00132.4879,W,0.000,0.00,071212,,A*63
$GPGGA,105659.000,5321.6918,N,00132.5050,W,1,0,,109.0,M,,M,,*4B
$GPRMC,105659.000,A,5321.6918,N,00132.5050,W,0.000,0.00,071212,,A*6A
$GPGGA,105714.000,5321.6898,N,00132.5087,W,1,0,,109.0,M,,M,,*40
$GPRMC,105714.000,A,5321.6898,N,00132.5087,W,0.000,0.00,071212,,A*61
$GPGGA,105729.000,5321.6820,N,00132.5197,W,1,0,,109.0,M,,M,,*4D
$GPRMC,105729.000,A,5321.6820,N,00132.5197,W,0.000,0.00,071212,,A*6C
$GPGGA,105746.000,5321.6694,N,00132.5489,W,1,0,,110.0,M,,M,,*47
$GPRMC,105746.000,A,5321.6694,N,00132.5489,W,0.000,0.00,071212,,A*6E
$GPGGA,105801.000,5321.6666,N,00132.5516,W,1,0,,110.0,M,,M,,*41
$GPRMC,105801.000,A,5321.6666,N,00132.5516,W,0.000,0.00,071212,,A*68
$GPGGA,105817.000,5321.6726,N,00132.5699,W,1,0,,110.0,M,,M,,*47
$GPRMC,105817.000,A,5321.6726,N,00132.5699,W,0.000,0.00,071212,,A*6E
$GPGGA,105833.000,5321.6653,N,00132.5774,W,1,0,,110.0,M,,M,,*40
$GPRMC,105833.000,A,5321.6653,N,00132.5774,W,0.000,0.00,071212,,A*69
$GPGGA,105848.000,5321.6611,N,00132.5914,W,1,0,,110.0,M,,M,,*42
$GPRMC,105848.000,A,5321.6611,N,00132.5914,W,0.000,0.00,071212,,A*6B
$GPGGA,105903.000,5321.6584,N,00132.6003,W,1,0,,110.0,M,,M,,*4F
$GPRMC,105903.000,A,5321.6584,N,00132.6003,W,0.000,0.00,071212,,A*66
$GPGGA,105919.000,5321.6545,N,00132.6158,W,1,0,,110.0,M,,M,,*46
$GPRMC,105919.000,A,5321.6545,N,00132.6158,W,0.000,0.00,071212,,A*6F
$GPGGA,105935.000,5321.6522,N,00132.6289,W,1,0,,110.0,M,,M,,*46
$GPRMC,105935.000,A,5321.6522,N,00132.6289,W,0.000,0.00,071212,,A*6F
$GPGGA,105954.000,5321.6547,N,00132.6484,W,1,0,,110.0,M,,M,,*49
$GPRMC,105954.000,A,5321.6547,N,00132.6484,W,0.000,0.00,071212,,A*60
$GPGGA,110009.000,5321.6520,N,00132.6548,W,1,0,,111.0,M,,M,,*4D
$GPRMC,110009.000,A,5321.6520,N,00132.6548,W,0.000,0.00,071212,,A*65
$GPGGA,110036.000,5321.6456,N,00132.6603,W,1,0,,111.0,M,,M,,*4D
$GPRMC,110036.000,A,5321.6456,N,00132.6603,W,0.000,0.00,071212,,A*65
$GPGGA,110051.000,5321.6499,N,00132.6638,W,1,0,,111.0,M,,M,,*47
$GPRMC,110051.000,A,5321.6499,N,00132.6638,W,0.000,0.00,071212,,A*6F
$GPGGA,110107.000,5321.6492,N,00132.6732,W,1,0,,111.0,M,,M,,*45
$GPRMC,110107.000,A,5321.6492,N,00132.6732,W,0.000,0.00,071212,,A*6D
$GPGGA,110122.000,5321.6431,N,00132.6841,W,1,0,,111.0,M,,M,,*40
$GPRMC,110122.000,A,5321.6431,N,00132.6841,W,0.000,0.00,071212,,A*68
$GPGGA,110138.000,5321.6486,N,00132.6953,W,1,0,,111.0,M,,M,,*45
$GPRMC,110138.000,A,5321.6486,N,00132.6953,W,0.000,0.00,071212,,A*6D
$GPGGA,110154.000,5321.6589,N,00132.7035,W,1,0,,111.0,M,,M,,*49
$GPRMC,110154.000,A,5321.6589,N,00132.7035,W,0.000,0.00,071212,,A*61
$GPGGA,110209.000,5321.6593,N,00132.7097,W,1,0,,112.0,M,,M,,*42
$GPRMC,110209.000,A,5321.6593,N,00132.7097,W,0.000,0.00,071212,,A*69
$GPGGA,110226.000,5321.6392,N,00132.7371,W,1,0,,112.0,M,,M,,*43
$GPRMC,110226.000,A,5321.6392,N,00132.7371,W,0.000,0.00,071212,,A*68
$GPGGA,110313.000,5321.6362,N,00132.7739,W,1,0,,112.0,M,,M,,*43
$GPRMC,110313.000,A,5321.6362,N,00132.7739,W,0.000,0.00,071212,,A*68
$GPGGA,110408.000,5321.6195,N,00132.8123,W,1,0,,112.0,M,,M,,*46
$GPRMC,110408.000,A,5321.6195,N,00132.8123,W,0.000,0.00,071212,,A*6D
$GPGGA,110453.000,5321.6547,N,00132.7534,W,1,0,,112.0,M,,M,,*4E
$GPRMC,110453.000,A,5321.6547,N,00132.7534,W,0.000,0.00,071212,,A*65
$GPGGA,110538.000,5321.6458,N,00132.7905,W,1,0,,112.0,M,,M,,*43
$GPRMC,110538.000,A,5321.6458,N,00132.7905,W,0.000,0.00,071212,,A*68
$GPGGA,110607.000,5321.6488,N,00132.7462,W,1,0,,112.0,M,,M,,*4D
$GPRMC,110607.000,A,5321.6488,N,00132.7462,W,0.000,0.00,071212,,A*66
$GPGGA,110632.000,5321.6495,N,00132.7483,W,1,0,,112.0,M,,M,,*48
$GPRMC,110632.000,A,5321.6495,N,00132.7483,W,0.000,0.00,071212,,A*63
$GPGGA,110746.000,5321.6552,N,00132.7866,W,1,0,,112.0,M,,M,,*47
$GPRMC,110746.000,A,5321.6552,N,00132.7866,W,0.000,0.00,071212,,A*6C
$GPGGA,110830.000,5321.6541,N,00132.7699,W,1,0,,112.0,M,,M,,*45
$GPRMC,110830.000,A,5321.6541,N,00132.7699,W,0.000,0.00,071212,,A*6E
$GPGGA,110858.000,5321.6511,N,00132.7650,W,1,0,,112.0,M,,M,,*4B
$GPRMC,110858.000,A,5321.6511,N,00132.7650,W,0.000,0.00,071212,,A*60
$GPGGA,110929.000,5321.6474,N,00132.7589,W,1,0,,112.0,M,,M,,*49
$GPRMC,110929.000,A,5321.6474,N,00132.7589,W,0.000,0.00,071212,,A*62
$GPGGA,111113.000,5321.6543,N,00132.7671,W,1,0,,112.0,M,,M,,*48
$GPRMC,111113.000,A,5321.6543,N,00132.7671,W,0.000,0.00,071212,,A*63
$GPGGA,111219.000,5321.6543,N,00132.7880,W,1,0,,112.0,M,,M,,*41
$GPRMC,111219.000,A,5321.6543,N,00132.7880,W,0.000,0.00,071212,,A*6A
$GPGGA,111322.000,5321.6522,N,00132.7599,W,1,0,,112.0,M,,M,,*4A
$GPRMC,111322.000,A,5321.6522,N,00132.7599,W,0.000,0.00,071212,,A*61
$GPGGA,111424.000,5321.6403,N,00132.7710,W,1,0,,112.0,M,,M,,*4A
$GPRMC,111424.000,A,5321.6403,N,00132.7710,W,0.000,0.00,071212,,A*61
$GPGGA,112542.000,5321.6234,N,00132.7620,W,1,0,,193.0,M,,M,,*41
$GPRMC,112542.000,A,5321.6234,N,00132.7620,W,0.000,0.00,071212,,A*63
$GPGGA,112557.000,5321.6332,N,00132.7748,W,1,0,,199.0,M,,M,,*47
$GPRMC,112557.000,A,5321.6332,N,00132.7748,W,0.000,0.00,071212,,A*6F
$GPGGA,112612.000,5321.6435,N,00132.7784,W,1,0,,199.0,M,,M,,*45
$GPRMC,112612.000,A,5321.6435,N,00132.7784,W,0.000,0.00,071212,,A*6D
$GPGGA,112627.000,5321.6376,N,00132.7893,W,1,0,,199.0,M,,M,,*4A
$GPRMC,112627.000,A,5321.6376,N,00132.7893,W,0.000,0.00,071212,,A*62
$GPGGA,112642.000,5321.6312,N,00132.8053,W,1,0,,199.0,M,,M,,*40
$GPRMC,112642.000,A,5321.6312,N,00132.8053,W,0.000,0.00,071212,,A*68
$GPGGA,112658.000,5321.6266,N,00132.8110,W,1,0,,199.0,M,,M,,*4F
$GPRMC,112658.000,A,5321.6266,N,00132.8110,W,0.000,0.00,071212,,A*67
$GPGGA,112713.000,5321.6307,N,00132.8212,W,1,0,,199.0,M,,M,,*46
$GPRMC,112713.000,A,5321.6307,N,00132.8212,W,0.000,0.00,071212,,A*6E
$GPGGA,112728.000,5321.6266,N,00132.8326,W,1,0,,199.0,M,,M,,*4E
$GPRMC,112728.000,A,5321.6266,N,00132.8326,W,0.000,0.00,071212,,A*66
$GPGGA,112743.000,5321.6257,N,00132.8328,W,1,0,,199.0,M,,M,,*4F
$GPRMC,112743.000,A,5321.6257,N,00132.8328,W,0.000,0.00,071212,,A*67
$GPGGA,112759.000,5321.6252,N,00132.8374,W,1,0,,199.0,M,,M,,*48
$GPRMC,112759.000,A,5321.6252,N,00132.8374,W,0.000,0.00,071212,,A*60
$GPGGA,112814.000,5321.6195,N,00132.8389,W,1,0,,199.0,M,,M,,*44
$GPRMC,112814.000,A,5321.6195,N,00132.8389,W,0.000,0.00,071212,,A*6C
$GPGGA,112830.000,5321.6129,N,00132.8323,W,1,0,,199.0,M,,M,,*45
$GPRMC,112830.000,A,5321.6129,N,00132.8323,W,0.000,0.00,071212,,A*6D
$GPGGA,112847.000,5321.6000,N,00132.8321,W,1,0,,199.0,M,,M,,*4D
$GPRMC,112847.000,A,5321.6000,N,00132.8321,W,0.000,0.00,071212,,A*65
$GPGGA,112903.000,5321.5971,N,00132.8430,W,1,0,,199.0,M,,M,,*47
$GPRMC,112903.000,A,5321.5971,N,00132.8430,W,0.000,0.00,071212,,A*6F
$GPGGA,112918.000,5321.5842,N,00132.8616,W,1,0,,199.0,M,,M,,*4A
$GPRMC,112918.000,A,5321.5842,N,00132.8616,W,0.000,0.00,071212,,A*62
$GPGGA,112933.000,5321.5838,N,00132.8620,W,1,0,,199.0,M,,M,,*4B
$GPRMC,112933.000,A,5321.5838,N,00132.8620,W,0.000,0.00,071212,,A*63
$GPGGA,112948.000,5321.5781,N,00132.8740,W,1,0,,198.0,M,,M,,*4C
$GPRMC,112948.000,A,5321.5781,N,00132.8740,W,0.000,0.00,071212,,A*65
$GPGGA,113009.000,5321.5788,N,00132.8878,W,1,0,,198.0,M,,M,,*4C
$GPRMC,113009.000,A,5321.5788,N,00132.8878,W,0.000,0.00,071212,,A*65
$GPGGA,113025.000,5321.5781,N,00132.8955,W,1,0,,198.0,M,,M,,*45
$GPRMC,113025.000,A,5321.5781,N,00132.8955,W,0.000,0.00,071212,,A*6C
$GPGGA,113040.000,5321.5712,N,00132.9096,W,1,0,,198.0,M,,M,,*4B
$GPRMC,113040.000,A,5321.5712,N,00132.9096,W,0.000,0.00,071212,,A*62
$GPGGA,113055.000,5321.5666,N,00132.9197,W,1,0,,198.0,M,,M,,*4D
$GPRMC,113055.000,A,5321.5666,N,00132.9197,W,0.000,0.00,071212,,A*64
$GPGGA,113111.000,5321.5662,N,00132.9364,W,1,0,,198.0,M,,M,,*46
$GPRMC,113111.000,A,5321.5662,N,00132.9364,W,0.000,0.00,071212,,A*6F
$GPGGA,113126.000,5321.5646,N,00132.9407,W,1,0,,197.0,M,,M,,*49
$GPRMC,113126.000,A,5321.5646,N,00132.9407,W,0.000,0.00,071212,,A*6F
$GPGGA,113141.000,5321.5641,N,00132.9504,W,1,0,,197.0,M,,M,,*4D
$GPRMC,113141.000,A,5321.5641,N,00132.9504,W,0.000,0.00,071212,,A*6B
$GPGGA,113156.000,5321.5668,N,00132.9599,W,1,0,,197.0,M,,M,,*44
$GPRMC,113156.000,A,5321.5668,N,00132.9599,W,0.000,0.00,071212,,A*62
$GPGGA,113211.000,5321.5698,N,00132.9698,W,1,0,,197.0,M,,M,,*49
$GPRMC,113211.000,A,5321.5698,N,00132.9698,W,0.000,0.00,071212,,A*6F
$GPGGA,113226.000,5321.5643,N,00132.9820,W,1,0,,197.0,M,,M,,*46
$GPRMC,113226.000,A,5321.5643,N,00132.9820,W,0.000,0.00,071212,,A*60
$GPGGA,113241.000,5321.5625,N,00132.9936,W,1,0,,197.0,M,,M,,*41
$GPRMC,113241.000,A,5321.5625,N,00132.9936,W,0.000,0.00,071212,,A*67
$GPGGA,113256.000,5321.5600,N,00133.0074,W,1,0,,197.0,M,,M,,*47
$GPRMC,113256.000,A,5321.5600,N,00133.0074,W,0.000,0.00,071212,,A*61
$GPGGA,113311.000,5321.5602,N,00133.0117,W,1,0,,196.0,M,,M,,*42
$GPRMC,113311.000,A,5321.5602,N,00133.0117,W,0.000,0.00,071212,,A*65
$GPGGA,113326.000,5321.5568,N,00133.0345,W,1,0,,196.0,M,,M,,*4C
$GPRMC,113326.000,A,5321.5568,N,00133.0345,W,0.000,0.00,071212,,A*6B
$GPGGA,113341.000,5321.5511,N,00133.0518,W,1,0,,197.0,M,,M,,*4C
$GPRMC,113341.000,A,5321.5511,N,00133.0518,W,0.000,0.00,071212,,A*6A
$GPGGA,113357.000,5321.5508,N,00133.0544,W,1,0,,197.0,M,,M,,*4A
$GPRMC,113357.000,A,5321.5508,N,00133.0544,W,0.000,0.00,071212,,A*6C
$GPGGA,113414.000,5321.5529,N,00133.0846,W,1,0,,197.0,M,,M,,*46
$GPRMC,113414.000,A,5321.5529,N,00133.0846,W,0.000,0.00,071212,,A*60
$GPGGA,113441.000,5321.5492,N,00133.0977,W,1,0,,196.0,M,,M,,*45
$GPRMC,113441.000,A,5321.5492,N,00133.0977,W,0.000,0.00,071212,,A*62
$GPGGA,113456.000,5321.5483,N,00133.1125,W,1,0,,196.0,M,,M,,*4D
$GPRMC,113456.000,A,5321.5483,N,00133.1125,W,0.000,0.00,071212,,A*6A
$GPGGA,113511.000,5321.5460,N,00133.1250,W,1,0,,196.0,M,,M,,*43
$GPRMC,113511.000,A,5321.5460,N,00133.1250,W,0.000,0.00,071212,,A*64
$GPGGA,113526.000,5321.5437,N,00133.1344,W,1,0,,196.0,M,,M,,*41
$GPRMC,113526.000,A,5321.5437,N,00133.1344,W,0.000,0.00,071212,,A*66
$GPGGA,113545.000,5321.5396,N,00133.1380,W,1,0,,196.0,M,,M,,*40
$GPRMC,113545.000,A,5321.5396,N,00133.1380,W,0.000,0.00,071212,,A*67
$GPGGA,113600.000,5321.5325,N,00133.1455,W,1,0,,196.0,M,,M,,*45
$GPRMC,113600.000,A,5321.5325,N,00133.1455,W,0.000,0.00,071212,,A*62
$GPGGA,113615.000,5321.5318,N,00133.1605,W,1,0,,196.0,M,,M,,*48
$GPRMC,113615.000,A,5321.5318,N,00133.1605,W,0.000,0.00,071212,,A*6F
$GPGGA,113630.000,5321.5314,N,00133.1619,W,1,0,,196.0,M,,M,,*4E
$GPRMC,113630.000,A,5321.5314,N,00133.1619,W,0.000,0.00,071212,,A*69
$GPGGA,113645.000,5321.5254,N,00133.1605,W,1,0,,196.0,M,,M,,*44
$GPRMC,113645.000,A,5321.5254,N,00133.1605,W,0.000,0.00,071212,,A*63
$GPGGA,113700.000,5321.5208,N,00133.1620,W,1,0,,196.0,M,,M,,*4A
$GPRMC,113700.000,A,5321.5208,N,00133.1620,W,0.000,0.00,071212,,A*6D
$GPGGA,113715.000,5321.5197,N,00133.1799,W,1,0,,196.0,M,,M,,*48
$GPRMC,113715.000,A,5321.5197,N,00133.1799,W,0.000,0.00,071212,,A*6F
$GPGGA,113731.000,5321.5183,N,00133.1853,W,1,0,,196.0,M,,M,,*42
$GPRMC,113731.000,A,5321.5183,N,00133.1853,W,0.000,0.00,071212,,A*65
$GPGGA,113748.000,5321.5195,N,00133.1935,W,1,0,,196.0,M,,M,,*4A
$GPRMC,113748.000,A,5321.5195,N,00133.1935,W,0.000,0.00,071212,,A*6D
$GPGGA,113804.000,5321.5149,N,00133.2020,W,1,0,,196.0,M,,M,,*42
$GPRMC,113804.000,A,5321.5149,N,00133.2020,W,0.000,0.00,071212,,A*65
$GPGGA,113819.000,5321.5124,N,00133.1990,W,1,0,,196.0,M,,M,,*44
$GPRMC,113819.000,A,5321.5124,N,00133.1990,W,0.000,0.00,071212,,A*63
$GPGGA,113835.000,5321.5080,N,00133.2098,W,1,0,,197.0,M,,M,,*46
$GPRMC,113835.000,A,5321.5080,N,00133.2098,W,0.000,0.00,071212,,A*60
$GPGGA,113851.000,5321.5092,N,00133.2198,W,1,0,,197.0,M,,M,,*46
$GPRMC,113851.000,A,5321.5092,N,00133.2198,W,0.000,0.00,071212,,A*60
$GPGGA,113915.000,5321.5101,N,00133.2356,W,1,0,,197.0,M,,M,,*4C
$GPRMC,113915.000,A,5321.5101,N,00133.2356,W,0.000,0.00,071212,,A*6A
$GPGGA,113930.000,5321.5089,N,00133.2480,W,1,0,,196.0,M,,M,,*47
$GPRMC,113930.000,A,5321.5089,N,00133.2480,W,0.000,0.00,071212,,A*60
$GPGGA,113945.000,5321.5053,N,00133.2567,W,1,0,,197.0,M,,M,,*4B
$GPRMC,113945.000,A,5321.5053,N,00133.2567,W,0.000,0.00,071212,,A*6D
$GPGGA,114000.000,5321.5044,N,00133.2638,W,1,0,,197.0,M,,M,,*4B
$GPRMC,114000.000,A,5321.5044,N,00133.2638,W,0.000,0.00,071212,,A*6D
$GPGGA,114016.000,5321.5067,N,00133.2642,W,1,0,,197.0,M,,M,,*40
$GPRMC,114016.000,A,5321.5067,N,00133.2642,W,0.000,0.00,071212,,A*66
$GPGGA,114031.000,5321.5055,N,00133.2715,W,1,0,,197.0,M,,M,,*47
$GPRMC,114031.000,A,5321.5055,N,00133.2715,W,0.000,0.00,071212,,A*61
$GPGGA,114046.000,5321.5057,N,00133.2768,W,1,0,,197.0,M,,M,,*4F
$GPRMC,114046.000,A,5321.5057,N,00133.2768,W,0.000,0.00,071212,,A*69
$GPGGA,114101.000,5321.5055,N,00133.2891,W,1,0,,197.0,M,,M,,*46
$GPRMC,114101.000,A,5321.5055,N,00133.2891,W,0.000,0.00,071212,,A*60
$GPGGA,114116.000,5321.5023,N,00133.3004,W,1,0,,197.0,M,,M,,*44
$GPRMC,114116.000,A,5321.5023,N,00133.3004,W,0.000,0.00,071212,,A*62
$GPGGA,114138.000,5321.5023,N,00133.3141,W,1,0,,197.0,M,,M,,*48
$GPRMC,114138.000,A,5321.5023,N,00133.3141,W,0.000,0.00,071212,,A*6E
$GPGGA,114154.000,5321.5023,N,00133.3268,W,1,0,,196.0,M,,M,,*4B
$GPRMC,114154.000,A,5321.5023,N,00133.3268,W,0.000,0.00,071212,,A*6C
$GPGGA,114225.000,5321.4925,N,00133.3767,W,1,0,,197.0,M,,M,,*4B
$GPRMC,114225.000,A,5321.4925,N,00133.3767,W,0.000,0.00,071212,,A*6D
$GPGGA,114240.000,5321.4936,N,00133.3779,W,1,0,,197.0,M,,M,,*45
$GPRMC,114240.000,A,5321.4936,N,00133.3779,W,0.000,0.00,071212,,A*63
$GPGGA,114255.000,5321.4931,N,00133.3862,W,1,0,,197.0,M,,M,,*43
$GPRMC,114255.000,A,5321.4931,N,00133.3862,W,0.000,0.00,071212,,A*65
$GPGGA,114310.000,5321.4915,N,00133.3960,W,1,0,,197.0,M,,M,,*46
$GPRMC,114310.000,A,5321.4915,N,00133.3960,W,0.000,0.00,071212,,A*60
$GPGGA,114325.000,5321.4927,N,00133.3989,W,1,0,,197.0,M,,M,,*46
$GPRMC,114325.000,A,5321.4927,N,00133.3989,W,0.000,0.00,071212,,A*60
$GPGGA,114340.000,5321.4936,N,00133.4105,W,1,0,,197.0,M,,M,,*4E
$GPRMC,114340.000,A,5321.4936,N,00133.4105,W,0.000,0.00,071212,,A*68
$GPGGA,114404.000,5321.4858,N,00133.4344,W,1,0,,197.0,M,,M,,*47
$GPRMC,114404.000,A,5321.4858,N,00133.4344,W,0.000,0.00,071212,,A*61
$GPGGA,114420.000,5321.4858,N,00133.4503,W,1,0,,197.0,M,,M,,*44
$GPRMC,114420.000,A,5321.4858,N,00133.4503,W,0.000,0.00,071212,,A*62
$GPGGA,114435.000,5321.4863,N,00133.4585,W,1,0,,197.0,M,,M,,*46
$GPRMC,114435.000,A,5321.4863,N,00133.4585,W,0.000,0.00,071212,,A*60
$GPGGA,114451.000,5321.4904,N,00133.4741,W,1,0,,197.0,M,,M,,*4E
$GPRMC,114451.000,A,5321.4904,N,00133.4741,W,0.000,0.00,071212,,A*68
$GPGGA,114506.000,5321.4883,N,00133.4780,W,1,0,,197.0,M,,M,,*4E
$GPRMC,114506.000,A,5321.4883,N,00133.4780,W,0.000,0.00,071212,,A*68
$GPGGA,114521.000,5321.4925,N,00133.4799,W,1,0,,197.0,M,,M,,*4E
$GPRMC,114521.000,A,5321.4925,N,00133.4799,W,0.000,0.00,071212,,A*68
$GPGGA,114537.000,5321.4959,N,00133.4821,W,1,0,,197.0,M,,M,,*4E
$GPRMC,114537.000,A,5321.4959,N,00133.4821,W,0.000,0.00,071212,,A*68
$GPGGA,114552.000,5321.4877,N,00133.4816,W,1,0,,197.0,M,,M,,*44
$GPRMC,114552.000,A,5321.4877,N,00133.4816,W,0.000,0.00,071212,,A*62
$GPGGA,114607.000,5321.4845,N,00133.4848,W,1,0,,197.0,M,,M,,*4D
$GPRMC,114607.000,A,5321.4845,N,00133.4848,W,0.000,0.00,071212,,A*6B
$GPGGA,114627.000,5321.4851,N,00133.4906,W,1,0,,197.0,M,,M,,*41
$GPRMC,114627.000,A,5321.4851,N,00133.4906,W,0.000,0.00,071212,,A*67
$GPGGA,114642.000,5321.4810,N,00133.4981,W,1,0,,197.0,M,,M,,*48
$GPRMC,114642.000,A,5321.4810,N,00133.4981,W,0.000,0.00,071212,,A*6E
$GPGGA,114657.000,5321.4730,N,00133.5134,W,1,0,,197.0,M,,M,,*46
$GPRMC,114657.000,A,5321.4730,N,00133.5134,W,0.000,0.00,071212,,A*60
$GPGGA,114712.000,5321.4732,N,00133.5149,W,1,0,,197.0,M,,M,,*4E
$GPRMC,114712.000,A,5321.4732,N,00133.5149,W,0.000,0.00,071212,,A*68
$GPGGA,114727.000,5321.4748,N,00133.5279,W,1,0,,197.0,M,,M,,*45
$GPRMC,114727.000,A,5321.4748,N,00133.5279,W,0.000,0.00,071212,,A*63
$GPGGA,114742.000,5321.4737,N,00133.5341,W,1,0,,197.0,M,,M,,*44
$GPRMC,114742.000,A,5321.4737,N,00133.5341,W,0.000,0.00,071212,,A*62
$GPGGA,114757.000,5321.4636,N,00133.5587,W,1,0,,197.0,M,,M,,*4C
$GPRMC,114757.000,A,5321.4636,N,00133.5587,W,0.000,0.00,071212,,A*6A
$GPGGA,114812.000,5321.4574,N,00133.5707,W,1,0,,197.0,M,,M,,*4D
$GPRMC,114812.000,A,5321.4574,N,00133.5707,W,0.000,0.00,071212,,A*6B
$GPGGA,114827.000,5321.4529,N,00133.5735,W,1,0,,197.0,M,,M,,*42
$GPRMC,114827.000,A,5321.4529,N,00133.5735,W,0.000,0.00,071212,,A*64
$GPGGA,114842.000,5321.4501,N,00133.5722,W,1,0,,197.0,M,,M,,*4D
$GPRMC,114842.000,A,5321.4501,N,00133.5722,W,0.000,0.00,071212,,A*6B
$GPGGA,114857.000,5321.4483,N,00133.5745,W,1,0,,197.0,M,,M,,*43
$GPRMC,114857.000,A,5321.4483,N,00133.5745,W,0.000,0.00,071212,,A*65
$GPGGA,114912.000,5321.4462,N,00133.5796,W,1,0,,198.0,M,,M,,*4D
$GPRMC,114912.000,A,5321.4462,N,00133.5796,W,0.000,0.00,071212,,A*64
$GPGGA,114935.000,5321.4455,N,00133.5795,W,1,0,,198.0,M,,M,,*4F
$GPRMC,114935.000,A,5321.4455,N,00133.5795,W,0.000,0.00,071212,,A*66
$GPGGA,114950.000,5321.4355,N,00133.6027,W,1,0,,198.0,M,,M,,*46
$GPRMC,114950.000,A,5321.4355,N,00133.6027,W,0.000,0.00,071212,,A*6F
$GPGGA,115005.000,5321.4318,N,00133.6118,W,1,0,,198.0,M,,M,,*4A
$GPRMC,115005.000,A,5321.4318,N,00133.6118,W,0.000,0.00,071212,,A*63
$GPGGA,115020.000,5321.4252,N,00133.6192,W,1,0,,198.0,M,,M,,*40
$GPRMC,115020.000,A,5321.4252,N,00133.6192,W,0.000,0.00,071212,,A*69
$GPGGA,115035.000,5321.4204,N,00133.6258,W,1,0,,198.0,M,,M,,*42
$GPRMC,115035.000,A,5321.4204,N,00133.6258,W,0.000,0.00,071212,,A*6B
$GPGGA,115050.000,5321.4144,N,00133.6350,W,1,0,,198.0,M,,M,,*4F
$GPRMC,115050.000,A,5321.4144,N,00133.6350,W,0.000,0.00,071212,,A*66
$GPGGA,115105.000,5321.4117,N,00133.6403,W,1,0,,199.0,M,,M,,*48
$GPRMC,115105.000,A,5321.4117,N,00133.6403,W,0.000,0.00,071212,,A*60
$GPGGA,115120.000,5321.4064,N,00133.6498,W,1,0,,199.0,M,,M,,*48
$GPRMC,115120.000,A,5321.4064,N,00133.6498,W,0.000,0.00,071212,,A*60
$GPGGA,115135.000,5321.4112,N,00133.6520,W,1,0,,200.0,M,,M,,*4D
$GPRMC,115135.000,A,5321.4112,N,00133.6520,W,0.000,0.00,071212,,A*66
$GPGGA,115150.000,5321.4135,N,00133.6598,W,1,0,,201.0,M,,M,,*49
$GPRMC,115150.000,A,5321.4135,N,00133.6598,W,0.000,0.00,071212,,A*63
$GPGGA,115205.000,5321.4140,N,00133.6682,W,1,0,,202.0,M,,M,,*43
$GPRMC,115205.000,A,5321.4140,N,00133.6682,W,0.000,0.00,071212,,A*6A
$GPGGA,115233.000,5321.4034,N,00133.6550,W,1,0,,201.0,M,,M,,*4B
$GPRMC,115233.000,A,5321.4034,N,00133.6550,W,0.000,0.00,071212,,A*61
$GPGGA,115248.000,5321.4075,N,00133.6536,W,1,0,,202.0,M,,M,,*41
$GPRMC,115248.000,A,5321.4075,N,00133.6536,W,0.000,0.00,071212,,A*68
$GPGGA,115303.000,5321.4037,N,00133.6613,W,1,0,,202.0,M,,M,,*4D
$GPRMC,115303.000,A,5321.4037,N,00133.6613,W,0.000,0.00,071212,,A*64
$GPGGA,115319.000,5321.3991,N,00133.6784,W,1,0,,202.0,M,,M,,*4B
$GPRMC,115319.000,A,5321.3991,N,00133.6784,W,0.000,0.00,071212,,A*62
$GPGGA,115334.000,5321.3968,N,00133.6838,W,1,0,,202.0,M,,M,,*4A
$GPRMC,115334.000,A,5321.3968,N,00133.6838,W,0.000,0.00,071212,,A*63
$GPGGA,115350.000,5321.3897,N,00133.6964,W,1,0,,202.0,M,,M,,*41
$GPRMC,115350.000,A,5321.3897,N,00133.6964,W,0.000,0.00,071212,,A*68
$GPGGA,115405.000,5321.3828,N,00133.7109,W,1,0,,202.0,M,,M,,*40
$GPRMC,115405.000,A,5321.3828,N,00133.7109,W,0.000,0.00,071212,,A*69
$GPGGA,115426.000,5321.3792,N,00133.7209,W,1,0,,202.0,M,,M,,*4C
$GPRMC,115426.000,A,5321.3792,N,00133.7209,W,0.000,0.00,071212,,A*65
$GPGGA,115441.000,5321.3705,N,00133.7223,W,1,0,,202.0,M,,M,,*4B
$GPRMC,115441.000,A,5321.3705,N,00133.7223,W,0.000,0.00,071212,,A*62
$GPGGA,115510.000,5321.3643,N,00133.7387,W,1,0,,203.0,M,,M,,*43
$GPRMC,115510.000,A,5321.3643,N,00133.7387,W,0.000,0.00,071212,,A*6B
$GPGGA,115525.000,5321.3625,N,00133.7408,W,1,0,,203.0,M,,M,,*45
$GPRMC,115525.000,A,5321.3625,N,00133.7408,W,0.000,0.00,071212,,A*6D
$GPGGA,115540.000,5321.3517,N,00133.7551,W,1,0,,203.0,M,,M,,*49
$GPRMC,115540.000,A,5321.3517,N,00133.7551,W,0.000,0.00,071212,,A*61
$GPGGA,115555.000,5321.3471,N,00133.7684,W,1,0,,203.0,M,,M,,*47
$GPRMC,115555.000,A,5321.3471,N,00133.7684,W,0.000,0.00,071212,,A*6F
$GPGGA,115610.000,5321.3441,N,00133.7732,W,1,0,,203.0,M,,M,,*4A
$GPRMC,115610.000,A,5321.3441,N,00133.7732,W,0.000,0.00,071212,,A*62
$GPGGA,115628.000,5321.3393,N,00133.7803,W,1,0,,203.0,M,,M,,*44
$GPRMC,115628.000,A,5321.3393,N,00133.7803,W,0.000,0.00,071212,,A*6C
$GPGGA,115643.000,5321.3348,N,00133.7902,W,1,0,,203.0,M,,M,,*4F
$GPRMC,115643.000,A,5321.3348,N,00133.7902,W,0.000,0.00,071212,,A*67
$GPGGA,115658.000,5321.3409,N,00133.7939,W,1,0,,203.0,M,,M,,*4F
$GPRMC,115658.000,A,5321.3409,N,00133.7939,W,0.000,0.00,071212,,A*67
$GPGGA,115714.000,5321.3391,N,00133.7886,W,1,0,,203.0,M,,M,,*45
$GPRMC,115714.000,A,5321.3391,N,00133.7886,W,0.000,0.00,071212,,A*6D
$GPGGA,115730.000,5321.3352,N,00133.7871,W,1,0,,203.0,M,,M,,*44
$GPRMC,115730.000,A,5321.3352,N,00133.7871,W,0.000,0.00,071212,,A*6C
$GPGGA,115745.000,5321.3322,N,00133.8022,W,1,0,,203.0,M,,M,,*40
$GPRMC,115745.000,A,5321.3322,N,00133.8022,W,0.000,0.00,071212,,A*68
$GPGGA,115800.000,5321.3265,N,00133.8105,W,1,0,,203.0,M,,M,,*48
$GPRMC,115800.000,A,5321.3265,N,00133.8105,W,0.000,0.00,071212,,A*60
$GPGGA,115815.000,5321.3263,N,00133.8114,W,1,0,,203.0,M,,M,,*4A
$GPRMC,115815.000,A,5321.3263,N,00133.8114,W,0.000,0.00,071212,,A*62
$GPGGA,115830.000,5321.3213,N,00133.8170,W,1,0,,203.0,M,,M,,*48
$GPRMC,115830.000,A,5321.3213,N,00133.8170,W,0.000,0.00,071212,,A*60
$GPGGA,115845.000,5321.3187,N,00133.8226,W,1,0,,203.0,M,,M,,*44
$GPRMC,115845.000,A,5321.3187,N,00133.8226,W,0.000,0.00,071212,,A*6C
$GPGGA,115900.000,5321.3160,N,00133.8263,W,1,0,,203.0,M,,M,,*4C
$GPRMC,115900.000,A,5321.3160,N,00133.8263,W,0.000,0.00,071212,,A*64
$GPGGA,115915.000,5321.3162,N,00133.8316,W,1,0,,203.0,M,,M,,*49
$GPRMC,115915.000,A,5321.3162,N,00133.8316,W,0.000,0.00,071212,,A*61
$GPGGA,115930.000,5321.3194,N,00133.8369,W,1,0,,204.0,M,,M,,*48
$GPRMC,115930.000,A,5321.3194,N,00133.8369,W,0.000,0.00,071212,,A*67
$GPGGA,115950.000,5321.3160,N,00133.8405,W,1,0,,204.0,M,,M,,*48
$GPRMC,115950.000,A,5321.3160,N,00133.8405,W,0.000,0.00,071212,,A*67
$GPGGA,120006.000,5321.3185,N,00133.8375,W,1,0,,204.0,M,,M,,*4F
$GPRMC,120006.000,A,5321.3185,N,00133.8375,W,0.000,0.00,071212,,A*60
$GPGGA,120022.000,5321.3169,N,00133.8409,W,1,0,,204.0,M,,M,,*47
$GPRMC,120022.000,A,5321.3169,N,00133.8409,W,0.000,0.00,071212,,A*68
$GPGGA,120038.000,5321.3135,N,00133.8377,W,1,0,,204.0,M,,M,,*4B
$GPRMC,120038.000,A,5321.3135,N,00133.8377,W,0.000,0.00,071212,,A*64
$GPGGA,120054.000,5321.3142,N,00133.8455,W,1,0,,204.0,M,,M,,*46
$GPRMC,120054.000,A,5321.3142,N,00133.8455,W,0.000,0.00,071212,,A*69
$GPGGA,120112.000,5321.3144,N,00133.8501,W,1,0,,204.0,M,,M,,*43
$GPRMC,120112.000,A,5321.3144,N,00133.8501,W,0.000,0.00,071212,,A*6C
$GPGGA,120127.000,5321.3123,N,00133.8493,W,1,0,,204.0,M,,M,,*4E
$GPRMC,120127.000,A,5321.3123,N,00133.8493,W,0.000,0.00,071212,,A*61
$GPGGA,120143.000,5321.3123,N,00133.8352,W,1,0,,204.0,M,,M,,*46
$GPRMC,120143.000,A,5321.3123,N,00133.8352,W,0.000,0.00,071212,,A*69
$GPGGA,120158.000,5321.3112,N,00133.8508,W,1,0,,204.0,M,,M,,*47
$GPRMC,120158.000,A,5321.3112,N,00133.8508,W,0.000,0.00,071212,,A*68
$GPGGA,120213.000,5321.3116,N,00133.8575,W,1,0,,204.0,M,,M,,*45
$GPRMC,120213.000,A,5321.3116,N,00133.8575,W,0.000,0.00,071212,,A*6A
$GPGGA,120229.000,5321.3089,N,00133.8626,W,1,0,,205.0,M,,M,,*4F
$GPRMC,120229.000,A,5321.3089,N,00133.8626,W,0.000,0.00,071212,,A*61
$GPGGA,120244.000,5321.3002,N,00133.8735,W,1,0,,204.0,M,,M,,*45
$GPRMC,120244.000,A,5321.3002,N,00133.8735,W,0.000,0.00,071212,,A*6A
$GPGGA,120307.000,5321.2853,N,00133.8909,W,1,0,,204.0,M,,M,,*4F
$GPRMC,120307.000,A,5321.2853,N,00133.8909,W,0.000,0.00,071212,,A*60
$GPGGA,120322.000,5321.2826,N,00133.8960,W,1,0,,204.0,M,,M,,*45
$GPRMC,120322.000,A,5321.2826,N,00133.8960,W,0.000,0.00,071212,,A*6A
$GPGGA,120337.000,5321.2801,N,00133.9034,W,1,0,,205.0,M,,M,,*4C
$GPRMC,120337.000,A,5321.2801,N,00133.9034,W,0.000,0.00,071212,,A*62
$GPGGA,120352.000,5321.2803,N,00133.9138,W,1,0,,205.0,M,,M,,*40
$GPRMC,120352.000,A,5321.2803,N,00133.9138,W,0.000,0.00,071212,,A*6E
$GPGGA,120407.000,5321.2780,N,00133.9301,W,1,0,,205.0,M,,M,,*4B
$GPRMC,120407.000,A,5321.2780,N,00133.9301,W,0.000,0.00,071212,,A*65
$GPGGA,120423.000,5321.2787,N,00133.9291,W,1,0,,205.0,M,,M,,*42
$GPRMC,120423.000,A,5321.2787,N,00133.9291,W,0.000,0.00,071212,,A*6C
$GPGGA,120438.000,5321.2698,N,00133.9457,W,1,0,,205.0,M,,M,,*4B
$GPRMC,120438.000,A,5321.2698,N,00133.9457,W,0.000,0.00,071212,,A*65
$GPGGA,120454.000,5321.2656,N,00133.9640,W,1,0,,205.0,M,,M,,*47
$GPRMC,120454.000,A,5321.2656,N,00133.9640,W,0.000,0.00,071212,,A*69
$GPGGA,120509.000,5321.2695,N,00133.9707,W,1,0,,205.0,M,,M,,*43
$GPRMC,120509.000,A,5321.2695,N,00133.9707,W,0.000,0.00,071212,,A*6D
$GPGGA,120524.000,5321.2668,N,00133.9739,W,1,0,,205.0,M,,M,,*43
$GPRMC,120524.000,A,5321.2668,N,00133.9739,W,0.000,0.00,071212,,A*6D
$GPGGA,120539.000,5321.2634,N,00133.9826,W,1,0,,205.0,M,,M,,*47
$GPRMC,120539.000,A,5321.2634,N,00133.9826,W,0.000,0.00,071212,,A*69
$GPGGA,120554.000,5321.2608,N,00133.9946,W,1,0,,205.0,M,,M,,*44
$GPRMC,120554.000,A,5321.2608,N,00133.9946,W,0.000,0.00,071212,,A*6A
$GPGGA,120620.000,5321.2553,N,00134.0166,W,1,0,,205.0,M,,M,,*4D
$GPRMC,120620.000,A,5321.2553,N,00134.0166,W,0.000,0.00,071212,,A*63
$GPGGA,120636.000,5321.2574,N,00134.0263,W,1,0,,205.0,M,,M,,*49
$GPRMC,120636.000,A,5321.2574,N,00134.0263,W,0.000,0.00,071212,,A*67
$GPGGA,120651.000,5321.2494,N,00134.0450,W,1,0,,205.0,M,,M,,*41
$GPRMC,120651.000,A,5321.2494,N,00134.0450,W,0.000,0.00,071212,,A*6F
$GPGGA,120707.000,5321.2482,N,00134.0504,W,1,0,,206.0,M,,M,,*47
$GPRMC,120707.000,A,5321.2482,N,00134.0504,W,0.000,0.00,071212,,A*6A
$GPGGA,120722.000,5321.2462,N,00134.0597,W,1,0,,206.0,M,,M,,*44
$GPRMC,120722.000,A,5321.2462,N,00134.0597,W,0.000,0.00,071212,,A*69
$GPGGA,120737.000,5321.2485,N,00134.0809,W,1,0,,206.0,M,,M,,*43
$GPRMC,120737.000,A,5321.2485,N,00134.0809,W,0.000,0.00,071212,,A*6E
$GPGGA,120752.000,5321.2437,N,00134.0861,W,1,0,,206.0,M,,M,,*47
$GPRMC,120752.000,A,5321.2437,N,00134.0861,W,0.000,0.00,071212,,A*6A
$GPGGA,120811.000,5321.2450,N,00134.0938,W,1,0,,206.0,M,,M,,*43
$GPRMC,120811.000,A,5321.2450,N,00134.0938,W,0.000,0.00,071212,,A*6E
$GPGGA,120827.000,5321.2430,N,00134.0957,W,1,0,,206.0,M,,M,,*49
$GPRMC,120827.000,A,5321.2430,N,00134.0957,W,0.000,0.00,071212,,A*64
$GPGGA,120845.000,5321.2411,N,00134.0895,W,1,0,,206.0,M,,M,,*41
$GPRMC,120845.000,A,5321.2411,N,00134.0895,W,0.000,0.00,071212,,A*6C
$GPGGA,120909.000,5321.2430,N,00134.1025,W,1,0,,206.0,M,,M,,*49
$GPRMC,120909.000,A,5321.2430,N,00134.1025,W,0.000,0.00,071212,,A*64
$GPGGA,120937.000,5321.2533,N,00134.1059,W,1,0,,206.0,M,,M,,*4D
$GPRMC,120937.000,A,5321.2533,N,00134.1059,W,0.000,0.00,071212,,A*60
$GPGGA,120959.000,5321.2492,N,00134.1098,W,1,0,,207.0,M,,M,,*43
$GPRMC,120959.000,A,5321.2492,N,00134.1098,W,0.000,0.00,071212,,A*6F
$GPGGA,121014.000,5321.2382,N,00134.1107,W,1,0,,207.0,M,,M,,*43
$GPRMC,121014.000,A,5321.2382,N,00134.1107,W,0.000,0.00,071212,,A*6F
$GPGGA,121030.000,5321.2384,N,00134.1125,W,1,0,,207.0,M,,M,,*43
$GPRMC,121030.000,A,5321.2384,N,00134.1125,W,0.000,0.00,071212,,A*6F
$GPGGA,121046.000,5321.2432,N,00134.1290,W,1,0,,207.0,M,,M,,*45
$GPRMC,121046.000,A,5321.2432,N,00134.1290,W,0.000,0.00,071212,,A*69
$GPGGA,121101.000,5321.2409,N,00134.1257,W,1,0,,207.0,M,,M,,*44
$GPRMC,121101.000,A,5321.2409,N,00134.1257,W,0.000,0.00,071212,,A*68
$GPGGA,121116.000,5321.2430,N,00134.1253,W,1,0,,207.0,M,,M,,*4C
$GPRMC,121116.000,A,5321.2430,N,00134.1253,W,0.000,0.00,071212,,A*60
$GPGGA,121131.000,5321.2423,N,00134.1300,W,1,0,,207.0,M,,M,,*4C
$GPRMC,121131.000,A,5321.2423,N,00134.1300,W,0.000,0.00,071212,,A*60
$GPGGA,121146.000,5321.2391,N,00134.1318,W,1,0,,207.0,M,,M,,*4B
$GPRMC,121146.000,A,5321.2391,N,00134.1318,W,0.000,0.00,071212,,A*67
$GPGGA,121210.000,5321.2395,N,00134.1248,W,1,0,,207.0,M,,M,,*4B
$GPRMC,121210.000,A,5321.2395,N,00134.1248,W,0.000,0.00,071212,,A*67
$GPGGA,121225.000,5321.2359,N,00134.1146,W,1,0,,207.0,M,,M,,*40
$GPRMC,121225.000,A,5321.2359,N,00134.1146,W,0.000,0.00,071212,,A*6C
