@Sonygps/ver3.0/wgs-84/
$GPGGA,112549.000,5312.3067,N,00136.2285,W,1,0,,126.0,M,,M,,*4F
$GPRMC,112549.000,A,5312.3067,N,00136.2285,W,0.000,0.00,251112,,A*60
$GPGGA,112604.000,5312.3186,N,00136.2307,W,1,0,,125.0,M,,M,,*43
$GPRMC,112604.000,A,5312.3186,N,00136.2307,W,0.000,0.00,251112,,A*6F
$GPGGA,112619.000,5312.3271,N,00136.2222,W,1,0,,126.0,M,,M,,*41
$GPRMC,112619.000,A,5312.3271,N,00136.2222,W,0.000,0.00,251112,,A*6E
$GPGGA,112640.000,5312.3315,N,00136.2099,W,1,0,,127.0,M,,M,,*4D
$GPRMC,112640.000,A,5312.3315,N,00136.2099,W,0.000,0.00,251112,,A*63
$GPGGA,112655.000,5312.3365,N,00136.1892,W,1,0,,127.0,M,,M,,*4E
$GPRMC,112655.000,A,5312.3365,N,00136.1892,W,0.000,0.00,251112,,A*60
$GPGGA,112710.000,5312.3409,N,00136.1820,W,1,0,,127.0,M,,M,,*4A
$GPRMC,112710.000,A,5312.3409,N,00136.1820,W,0.000,0.00,251112,,A*64
$GPGGA,112726.000,5312.3422,N,00136.1678,W,1,0,,127.0,M,,M,,*45
$GPRMC,112726.000,A,5312.3422,N,00136.1678,W,0.000,0.00,251112,,A*6B
$GPGGA,112741.000,5312.3493,N,00136.1519,W,1,0,,127.0,M,,M,,*4A
$GPRMC,112741.000,A,5312.3493,N,00136.1519,W,0.000,0.00,251112,,A*64
$GPGGA,112756.000,5312.3534,N,00136.1370,W,1,0,,127.0,M,,M,,*49
$GPRMC,112756.000,A,5312.3534,N,00136.1370,W,0.000,0.00,251112,,A*67
$GPGGA,112811.000,5312.3560,N,00136.1231,W,1,0,,127.0,M,,M,,*40
$GPRMC,112811.000,A,5312.3560,N,00136.1231,W,0.000,0.00,251112,,A*6E
$GPGGA,112826.000,5312.3637,N,00136.1019,W,1,0,,127.0,M,,M,,*4D
$GPRMC,112826.000,A,5312.3637,N,00136.1019,W,0.000,0.00,251112,,A*63
$GPGGA,112841.000,5312.3704,N,00136.0892,W,1,0,,127.0,M,,M,,*47
$GPRMC,112841.000,A,5312.3704,N,00136.0892,W,0.000,0.00,251112,,A*69
$GPGGA,112856.000,5312.3759,N,00136.0770,W,1,0,,127.0,M,,M,,*4A
$GPRMC,112856.000,A,5312.3759,N,00136.0770,W,0.000,0.00,251112,,A*64
$GPGGA,112915.000,5312.3834,N,00136.0670,W,1,0,,127.0,M,,M,,*49
$GPRMC,112915.000,A,5312.3834,N,00136.0670,W,0.000,0.00,251112,,A*67
$GPGGA,112931.000,5312.3930,N,00136.0529,W,1,0,,127.0,M,,M,,*45
$GPRMC,112931.000,A,5312.3930,N,00136.0529,W,0.000,0.00,251112,,A*6B
$GPGGA,112947.000,5312.4029,N,00136.0481,W,1,0,,127.0,M,,M,,*41
$GPRMC,112947.000,A,5312.4029,N,00136.0481,W,0.000,0.00,251112,,A*6F
$GPGGA,113003.000,5312.4077,N,00136.0377,W,1,0,,127.0,M,,M,,*4C
$GPRMC,113003.000,A,5312.4077,N,00136.0377,W,0.000,0.00,251112,,A*62
$GPGGA,113033.000,5312.4203,N,00136.0221,W,1,0,,128.0,M,,M,,*43
$GPRMC,113033.000,A,5312.4203,N,00136.0221,W,0.000,0.00,251112,,A*62
$GPGGA,113048.000,5312.4253,N,00136.0132,W,1,0,,128.0,M,,M,,*4B
$GPRMC,113048.000,A,5312.4253,N,00136.0132,W,0.000,0.00,251112,,A*6A
$GPGGA,113103.000,5312.4356,N,00136.0027,W,1,0,,128.0,M,,M,,*44
$GPRMC,113103.000,A,5312.4356,N,00136.0027,W,0.000,0.00,251112,,A*65
$GPGGA,113118.000,5312.4432,N,00135.9968,W,1,0,,128.0,M,,M,,*43
$GPRMC,113118.000,A,5312.4432,N,00135.9968,W,0.000,0.00,251112,,A*62
$GPGGA,113136.000,5312.4509,N,00135.9990,W,1,0,,128.0,M,,M,,*41
$GPRMC,113136.000,A,5312.4509,N,00135.9990,W,0.000,0.00,251112,,A*60
$GPGGA,113152.000,5312.4551,N,00136.0010,W,1,0,,128.0,M,,M,,*45
$GPRMC,113152.000,A,5312.4551,N,00136.0010,W,0.000,0.00,251112,,A*64
$GPGGA,113208.000,5312.4644,N,00136.0014,W,1,0,,128.0,M,,M,,*4A
$GPRMC,113208.000,A,5312.4644,N,00136.0014,W,0.000,0.00,251112,,A*6B
$GPGGA,113223.000,5312.4681,N,00135.9988,W,1,0,,128.0,M,,M,,*4C
$GPRMC,113223.000,A,5312.4681,N,00135.9988,W,0.000,0.00,251112,,A*6D
$GPGGA,113239.000,5312.4786,N,00135.9914,W,1,0,,128.0,M,,M,,*44
$GPRMC,113239.000,A,5312.4786,N,00135.9914,W,0.000,0.00,251112,,A*65
$GPGGA,113254.000,5312.4855,N,00135.9947,W,1,0,,128.0,M,,M,,*48
$GPRMC,113254.000,A,5312.4855,N,00135.9947,W,0.000,0.00,251112,,A*69
$GPGGA,113310.000,5312.4921,N,00135.9959,W,1,0,,129.0,M,,M,,*45
$GPRMC,113310.000,A,5312.4921,N,00135.9959,W,0.000,0.00,251112,,A*65
$GPGGA,113325.000,5312.4951,N,00135.9961,W,1,0,,129.0,M,,M,,*4F
$GPRMC,113325.000,A,5312.4951,N,00135.9961,W,0.000,0.00,251112,,A*6F
$GPGGA,113343.000,5312.5031,N,00135.9929,W,1,0,,129.0,M,,M,,*4D
$GPRMC,113343.000,A,5312.5031,N,00135.9929,W,0.000,0.00,251112,,A*6D
$GPGGA,113359.000,5312.5063,N,00135.9951,W,1,0,,129.0,M,,M,,*4E
$GPRMC,113359.000,A,5312.5063,N,00135.9951,W,0.000,0.00,251112,,A*6E
$GPGGA,113414.000,5312.5084,N,00135.9909,W,1,0,,129.0,M,,M,,*44
$GPRMC,113414.000,A,5312.5084,N,00135.9909,W,0.000,0.00,251112,,A*64
$GPGGA,113429.000,5312.5139,N,00135.9903,W,1,0,,129.0,M,,M,,*47
$GPRMC,113429.000,A,5312.5139,N,00135.9903,W,0.000,0.00,251112,,A*67
$GPGGA,113445.000,5312.5228,N,00135.9821,W,1,0,,129.0,M,,M,,*4F
$GPRMC,113445.000,A,5312.5228,N,00135.9821,W,0.000,0.00,251112,,A*6F
$GPGGA,113501.000,5312.5269,N,00135.9812,W,1,0,,129.0,M,,M,,*4B
$GPRMC,113501.000,A,5312.5269,N,00135.9812,W,0.000,0.00,251112,,A*6B
$GPGGA,113516.000,5312.5455,N,00135.9845,W,1,0,,130.0,M,,M,,*4E
$GPRMC,113516.000,A,5312.5455,N,00135.9845,W,0.000,0.00,251112,,A*66
$GPGGA,113539.000,5312.5549,N,00135.9719,W,1,0,,130.0,M,,M,,*49
$GPRMC,113539.000,A,5312.5549,N,00135.9719,W,0.000,0.00,251112,,A*61
$GPGGA,113554.000,5312.5645,N,00135.9720,W,1,0,,132.0,M,,M,,*45
$GPRMC,113554.000,A,5312.5645,N,00135.9720,W,0.000,0.00,251112,,A*6F
$GPGGA,113609.000,5312.5617,N,00135.9761,W,1,0,,131.0,M,,M,,*4F
$GPRMC,113609.000,A,5312.5617,N,00135.9761,W,0.000,0.00,251112,,A*66
$GPGGA,113624.000,5312.5603,N,00135.9727,W,1,0,,131.0,M,,M,,*47
$GPRMC,113624.000,A,5312.5603,N,00135.9727,W,0.000,0.00,251112,,A*6E
$GPGGA,113640.000,5312.5615,N,00135.9695,W,1,0,,130.0,M,,M,,*4B
$GPRMC,113640.000,A,5312.5615,N,00135.9695,W,0.000,0.00,251112,,A*63
$GPGGA,113657.000,5312.5711,N,00135.9535,W,1,0,,130.0,M,,M,,*41
$GPRMC,113657.000,A,5312.5711,N,00135.9535,W,0.000,0.00,251112,,A*69
$GPGGA,113712.000,5312.5784,N,00135.9480,W,1,0,,131.0,M,,M,,*43
$GPRMC,113712.000,A,5312.5784,N,00135.9480,W,0.000,0.00,251112,,A*6A
$GPGGA,113727.000,5312.5869,N,00135.9386,W,1,0,,130.0,M,,M,,*49
$GPRMC,113727.000,A,5312.5869,N,00135.9386,W,0.000,0.00,251112,,A*61
$GPGGA,113743.000,5312.5894,N,00135.9318,W,1,0,,130.0,M,,M,,*4E
$GPRMC,113743.000,A,5312.5894,N,00135.9318,W,0.000,0.00,251112,,A*66
$GPGGA,113759.000,5312.6036,N,00135.9256,W,1,0,,131.0,M,,M,,*4C
$GPRMC,113759.000,A,5312.6036,N,00135.9256,W,0.000,0.00,251112,,A*65
$GPGGA,113814.000,5312.6112,N,00135.9232,W,1,0,,131.0,M,,M,,*4F
$GPRMC,113814.000,A,5312.6112,N,00135.9232,W,0.000,0.00,251112,,A*66
$GPGGA,113829.000,5312.6164,N,00135.9206,W,1,0,,131.0,M,,M,,*47
$GPRMC,113829.000,A,5312.6164,N,00135.9206,W,0.000,0.00,251112,,A*6E
$GPGGA,113844.000,5312.6183,N,00135.9205,W,1,0,,131.0,M,,M,,*46
$GPRMC,113844.000,A,5312.6183,N,00135.9205,W,0.000,0.00,251112,,A*6F
$GPGGA,113900.000,5312.6187,N,00135.9193,W,1,0,,131.0,M,,M,,*4F
$GPRMC,113900.000,A,5312.6187,N,00135.9193,W,0.000,0.00,251112,,A*66
$GPGGA,113915.000,5312.6256,N,00135.9119,W,1,0,,131.0,M,,M,,*46
$GPRMC,113915.000,A,5312.6256,N,00135.9119,W,0.000,0.00,251112,,A*6F
$GPGGA,113930.000,5312.6331,N,00135.9057,W,1,0,,131.0,M,,M,,*4A
$GPRMC,113930.000,A,5312.6331,N,00135.9057,W,0.000,0.00,251112,,A*63
$GPGGA,113945.000,5312.6501,N,00135.8914,W,1,0,,131.0,M,,M,,*42
$GPRMC,113945.000,A,5312.6501,N,00135.8914,W,0.000,0.00,251112,,A*6B
$GPGGA,114000.000,5312.6496,N,00135.8943,W,1,0,,131.0,M,,M,,*40
$GPRMC,114000.000,A,5312.6496,N,00135.8943,W,0.000,0.00,251112,,A*69
$GPGGA,114015.000,5312.6629,N,00135.8904,W,1,0,,131.0,M,,M,,*41
$GPRMC,114015.000,A,5312.6629,N,00135.8904,W,0.000,0.00,251112,,A*68
$GPGGA,114030.000,5312.6652,N,00135.8822,W,1,0,,131.0,M,,M,,*4F
$GPRMC,114030.000,A,5312.6652,N,00135.8822,W,0.000,0.00,251112,,A*66
$GPGGA,114045.000,5312.6736,N,00135.8684,W,1,0,,132.0,M,,M,,*4F
$GPRMC,114045.000,A,5312.6736,N,00135.8684,W,0.000,0.00,251112,,A*65
$GPGGA,114101.000,5312.6837,N,00135.8682,W,1,0,,132.0,M,,M,,*46
$GPRMC,114101.000,A,5312.6837,N,00135.8682,W,0.000,0.00,251112,,A*6C
$GPGGA,114116.000,5312.6904,N,00135.8624,W,1,0,,132.0,M,,M,,*4D
$GPRMC,114116.000,A,5312.6904,N,00135.8624,W,0.000,0.00,251112,,A*67
$GPGGA,114131.000,5312.6940,N,00135.8566,W,1,0,,132.0,M,,M,,*4D
$GPRMC,114131.000,A,5312.6940,N,00135.8566,W,0.000,0.00,251112,,A*67
$GPGGA,114147.000,5312.7000,N,00135.8472,W,1,0,,132.0,M,,M,,*44
$GPRMC,114147.000,A,5312.7000,N,00135.8472,W,0.000,0.00,251112,,A*6E
$GPGGA,114202.000,5312.7084,N,00135.8334,W,1,0,,132.0,M,,M,,*4F
$GPRMC,114202.000,A,5312.7084,N,00135.8334,W,0.000,0.00,251112,,A*65
$GPGGA,114217.000,5312.7126,N,00135.8166,W,1,0,,133.0,M,,M,,*46
$GPRMC,114217.000,A,5312.7126,N,00135.8166,W,0.000,0.00,251112,,A*6D
$GPGGA,114233.000,5312.7148,N,00135.8013,W,1,0,,133.0,M,,M,,*4B
$GPRMC,114233.000,A,5312.7148,N,00135.8013,W,0.000,0.00,251112,,A*60
$GPGGA,114248.000,5312.7190,N,00135.7894,W,1,0,,133.0,M,,M,,*4A
$GPRMC,114248.000,A,5312.7190,N,00135.7894,W,0.000,0.00,251112,,A*61
$GPGGA,114303.000,5312.7258,N,00135.7791,W,1,0,,133.0,M,,M,,*49
$GPRMC,114303.000,A,5312.7258,N,00135.7791,W,0.000,0.00,251112,,A*62
$GPGGA,114318.000,5312.7283,N,00135.7762,W,1,0,,133.0,M,,M,,*49
$GPRMC,114318.000,A,5312.7283,N,00135.7762,W,0.000,0.00,251112,,A*62
$GPGGA,114333.000,5312.7302,N,00135.7744,W,1,0,,133.0,M,,M,,*4C
$GPRMC,114333.000,A,5312.7302,N,00135.7744,W,0.000,0.00,251112,,A*67
$GPGGA,114349.000,5312.7373,N,00135.7750,W,1,0,,133.0,M,,M,,*42
$GPRMC,114349.000,A,5312.7373,N,00135.7750,W,0.000,0.00,251112,,A*69
$GPGGA,114404.000,5312.7419,N,00135.7656,W,1,0,,133.0,M,,M,,*40
$GPRMC,114404.000,A,5312.7419,N,00135.7656,W,0.000,0.00,251112,,A*6B
$GPGGA,114420.000,5312.7389,N,00135.7605,W,1,0,,133.0,M,,M,,*4E
$GPRMC,114420.000,A,5312.7389,N,00135.7605,W,0.000,0.00,251112,,A*65
$GPGGA,114435.000,5312.7409,N,00135.7587,W,1,0,,133.0,M,,M,,*4C
$GPRMC,114435.000,A,5312.7409,N,00135.7587,W,0.000,0.00,251112,,A*67
$GPGGA,114450.000,5312.7446,N,00135.7531,W,1,0,,134.0,M,,M,,*4E
$GPRMC,114450.000,A,5312.7446,N,00135.7531,W,0.000,0.00,251112,,A*62
$GPGGA,114505.000,5312.7487,N,00135.7452,W,1,0,,134.0,M,,M,,*46
$GPRMC,114505.000,A,5312.7487,N,00135.7452,W,0.000,0.00,251112,,A*6A
$GPGGA,114521.000,5312.7492,N,00135.7335,W,1,0,,134.0,M,,M,,*42
$GPRMC,114521.000,A,5312.7492,N,00135.7335,W,0.000,0.00,251112,,A*6E
$GPGGA,114536.000,5312.7524,N,00135.7197,W,1,0,,134.0,M,,M,,*42
$GPRMC,114536.000,A,5312.7524,N,00135.7197,W,0.000,0.00,251112,,A*6E
$GPGGA,114551.000,5312.7478,N,00135.7010,W,1,0,,134.0,M,,M,,*45
$GPRMC,114551.000,A,5312.7478,N,00135.7010,W,0.000,0.00,251112,,A*69
$GPGGA,114606.000,5312.7499,N,00135.6865,W,1,0,,134.0,M,,M,,*40
$GPRMC,114606.000,A,5312.7499,N,00135.6865,W,0.000,0.00,251112,,A*6C
$GPGGA,114622.000,5312.7581,N,00135.6745,W,1,0,,134.0,M,,M,,*43
$GPRMC,114622.000,A,5312.7581,N,00135.6745,W,0.000,0.00,251112,,A*6F
$GPGGA,114637.000,5312.7604,N,00135.6641,W,1,0,,135.0,M,,M,,*4D
$GPRMC,114637.000,A,5312.7604,N,00135.6641,W,0.000,0.00,251112,,A*60
$GPGGA,114652.000,5312.7682,N,00135.6635,W,1,0,,135.0,M,,M,,*43
$GPRMC,114652.000,A,5312.7682,N,00135.6635,W,0.000,0.00,251112,,A*6E
$GPGGA,114708.000,5312.7693,N,00135.6567,W,1,0,,136.0,M,,M,,*4A
$GPRMC,114708.000,A,5312.7693,N,00135.6567,W,0.000,0.00,251112,,A*64
$GPGGA,114723.000,5312.7725,N,00135.6589,W,1,0,,136.0,M,,M,,*4F
$GPRMC,114723.000,A,5312.7725,N,00135.6589,W,0.000,0.00,251112,,A*61
$GPGGA,114739.000,5312.7734,N,00135.6473,W,1,0,,136.0,M,,M,,*40
$GPRMC,114739.000,A,5312.7734,N,00135.6473,W,0.000,0.00,251112,,A*6E
$GPGGA,114754.000,5312.7792,N,00135.6483,W,1,0,,135.0,M,,M,,*4B
$GPRMC,114754.000,A,5312.7792,N,00135.6483,W,0.000,0.00,251112,,A*66
$GPGGA,114810.000,5312.7879,N,00135.6437,W,1,0,,136.0,M,,M,,*42
$GPRMC,114810.000,A,5312.7879,N,00135.6437,W,0.000,0.00,251112,,A*6C
$GPGGA,114825.000,5312.7947,N,00135.6462,W,1,0,,136.0,M,,M,,*48
$GPRMC,114825.000,A,5312.7947,N,00135.6462,W,0.000,0.00,251112,,A*66
$GPGGA,114840.000,5312.8000,N,00135.6481,W,1,0,,136.0,M,,M,,*43
$GPRMC,114840.000,A,5312.8000,N,00135.6481,W,0.000,0.00,251112,,A*6D
$GPGGA,114855.000,5312.8094,N,00135.6496,W,1,0,,135.0,M,,M,,*4F
$GPRMC,114855.000,A,5312.8094,N,00135.6496,W,0.000,0.00,251112,,A*62
$GPGGA,114910.000,5312.8178,N,00135.6493,W,1,0,,136.0,M,,M,,*4A
$GPRMC,114910.000,A,5312.8178,N,00135.6493,W,0.000,0.00,251112,,A*64
$GPGGA,114925.000,5312.8229,N,00135.6465,W,1,0,,136.0,M,,M,,*42
$GPRMC,114925.000,A,5312.8229,N,00135.6465,W,0.000,0.00,251112,,A*6C
$GPGGA,114941.000,5312.8307,N,00135.6442,W,1,0,,136.0,M,,M,,*48
$GPRMC,114941.000,A,5312.8307,N,00135.6442,W,0.000,0.00,251112,,A*66
$GPGGA,114956.000,5312.8359,N,00135.6461,W,1,0,,136.0,M,,M,,*44
$GPRMC,114956.000,A,5312.8359,N,00135.6461,W,0.000,0.00,251112,,A*6A
$GPGGA,115014.000,5312.8545,N,00135.6461,W,1,0,,136.0,M,,M,,*41
$GPRMC,115014.000,A,5312.8545,N,00135.6461,W,0.000,0.00,251112,,A*6F
$GPGGA,115029.000,5312.8611,N,00135.6465,W,1,0,,137.0,M,,M,,*48
$GPRMC,115029.000,A,5312.8611,N,00135.6465,W,0.000,0.00,251112,,A*67
$GPGGA,115045.000,5312.8687,N,00135.6481,W,1,0,,137.0,M,,M,,*47
$GPRMC,115045.000,A,5312.8687,N,00135.6481,W,0.000,0.00,251112,,A*68
$GPGGA,115100.000,5312.8783,N,00135.6363,W,1,0,,137.0,M,,M,,*49
$GPRMC,115100.000,A,5312.8783,N,00135.6363,W,0.000,0.00,251112,,A*66
$GPGGA,115115.000,5312.8838,N,00135.6438,W,1,0,,137.0,M,,M,,*4B
$GPRMC,115115.000,A,5312.8838,N,00135.6438,W,0.000,0.00,251112,,A*64
$GPGGA,115131.000,5312.8920,N,00135.6462,W,1,0,,137.0,M,,M,,*4A
$GPRMC,115131.000,A,5312.8920,N,00135.6462,W,0.000,0.00,251112,,A*65
$GPGGA,115146.000,5312.9012,N,00135.6474,W,1,0,,137.0,M,,M,,*44
$GPRMC,115146.000,A,5312.9012,N,00135.6474,W,0.000,0.00,251112,,A*6B
$GPGGA,115202.000,5312.9131,N,00135.6455,W,1,0,,137.0,M,,M,,*44
$GPRMC,115202.000,A,5312.9131,N,00135.6455,W,0.000,0.00,251112,,A*6B
$GPGGA,115217.000,5312.9199,N,00135.6472,W,1,0,,137.0,M,,M,,*47
$GPRMC,115217.000,A,5312.9199,N,00135.6472,W,0.000,0.00,251112,,A*68
$GPGGA,115233.000,5312.9256,N,00135.6459,W,1,0,,138.0,M,,M,,*47
$GPRMC,115233.000,A,5312.9256,N,00135.6459,W,0.000,0.00,251112,,A*67
$GPGGA,115249.000,5312.9373,N,00135.6440,W,1,0,,138.0,M,,M,,*44
$GPRMC,115249.000,A,5312.9373,N,00135.6440,W,0.000,0.00,251112,,A*64
$GPGGA,115304.000,5312.9449,N,00135.6503,W,1,0,,138.0,M,,M,,*44
$GPRMC,115304.000,A,5312.9449,N,00135.6503,W,0.000,0.00,251112,,A*64
$GPGGA,115319.000,5312.9510,N,00135.6494,W,1,0,,138.0,M,,M,,*4A
$GPRMC,115319.000,A,5312.9510,N,00135.6494,W,0.000,0.00,251112,,A*6A
$GPGGA,115334.000,5312.9595,N,00135.6474,W,1,0,,138.0,M,,M,,*46
$GPRMC,115334.000,A,5312.9595,N,00135.6474,W,0.000,0.00,251112,,A*66
$GPGGA,115350.000,5312.9652,N,00135.6437,W,1,0,,138.0,M,,M,,*4B
$GPRMC,115350.000,A,5312.9652,N,00135.6437,W,0.000,0.00,251112,,A*6B
$GPGGA,115417.000,5312.9794,N,00135.6493,W,1,0,,138.0,M,,M,,*4A
$GPRMC,115417.000,A,5312.9794,N,00135.6493,W,0.000,0.00,251112,,A*6A
$GPGGA,115432.000,5312.9833,N,00135.6496,W,1,0,,137.0,M,,M,,*45
$GPRMC,115432.000,A,5312.9833,N,00135.6496,W,0.000,0.00,251112,,A*6A
$GPGGA,115448.000,5312.9897,N,00135.6479,W,1,0,,137.0,M,,M,,*47
$GPRMC,115448.000,A,5312.9897,N,00135.6479,W,0.000,0.00,251112,,A*68
$GPGGA,115503.000,5313.0009,N,00135.6573,W,1,0,,138.0,M,,M,,*4A
$GPRMC,115503.000,A,5313.0009,N,00135.6573,W,0.000,0.00,251112,,A*6A
$GPGGA,115518.000,5313.0055,N,00135.6566,W,1,0,,138.0,M,,M,,*4D
$GPRMC,115518.000,A,5313.0055,N,00135.6566,W,0.000,0.00,251112,,A*6D
$GPGGA,115534.000,5313.0145,N,00135.6575,W,1,0,,139.0,M,,M,,*40
$GPRMC,115534.000,A,5313.0145,N,00135.6575,W,0.000,0.00,251112,,A*61
$GPGGA,115549.000,5313.0238,N,00135.6686,W,1,0,,139.0,M,,M,,*4C
$GPRMC,115549.000,A,5313.0238,N,00135.6686,W,0.000,0.00,251112,,A*6D
$GPGGA,115604.000,5313.0243,N,00135.6646,W,1,0,,139.0,M,,M,,*46
$GPRMC,115604.000,A,5313.0243,N,00135.6646,W,0.000,0.00,251112,,A*67
$GPGGA,115619.000,5313.0330,N,00135.6736,W,1,0,,139.0,M,,M,,*49
$GPRMC,115619.000,A,5313.0330,N,00135.6736,W,0.000,0.00,251112,,A*68
$GPGGA,115635.000,5313.0401,N,00135.6766,W,1,0,,139.0,M,,M,,*47
$GPRMC,115635.000,A,5313.0401,N,00135.6766,W,0.000,0.00,251112,,A*66
$GPGGA,115650.000,5313.0380,N,00135.6787,W,1,0,,140.0,M,,M,,*4B
$GPRMC,115650.000,A,5313.0380,N,00135.6787,W,0.000,0.00,251112,,A*64
$GPGGA,115705.000,5313.0314,N,00135.6808,W,1,0,,140.0,M,,M,,*4F
$GPRMC,115705.000,A,5313.0314,N,00135.6808,W,0.000,0.00,251112,,A*60
$GPGGA,115720.000,5313.0435,N,00135.6783,W,1,0,,139.0,M,,M,,*4E
$GPRMC,115720.000,A,5313.0435,N,00135.6783,W,0.000,0.00,251112,,A*6F
$GPGGA,115735.000,5313.0506,N,00135.6920,W,1,0,,141.0,M,,M,,*43
$GPRMC,115735.000,A,5313.0506,N,00135.6920,W,0.000,0.00,251112,,A*6D
$GPGGA,115750.000,5313.0552,N,00135.6976,W,1,0,,141.0,M,,M,,*42
$GPRMC,115750.000,A,5313.0552,N,00135.6976,W,0.000,0.00,251112,,A*6C
$GPGGA,115805.000,5313.0543,N,00135.7147,W,1,0,,141.0,M,,M,,*46
$GPRMC,115805.000,A,5313.0543,N,00135.7147,W,0.000,0.00,251112,,A*68
$GPGGA,115820.000,5313.0536,N,00135.7113,W,1,0,,142.0,M,,M,,*41
$GPRMC,115820.000,A,5313.0536,N,00135.7113,W,0.000,0.00,251112,,A*6C
$GPGGA,115836.000,5313.0579,N,00135.7041,W,1,0,,142.0,M,,M,,*4B
$GPRMC,115836.000,A,5313.0579,N,00135.7041,W,0.000,0.00,251112,,A*66
$GPGGA,115851.000,5313.0556,N,00135.6927,W,1,0,,142.0,M,,M,,*4F
$GPRMC,115851.000,A,5313.0556,N,00135.6927,W,0.000,0.00,251112,,A*62
$GPGGA,115918.000,5313.0593,N,00135.6780,W,1,0,,143.0,M,,M,,*48
$GPRMC,115918.000,A,5313.0593,N,00135.6780,W,0.000,0.00,251112,,A*64
$GPGGA,115934.000,5313.0575,N,00135.6669,W,1,0,,143.0,M,,M,,*48
$GPRMC,115934.000,A,5313.0575,N,00135.6669,W,0.000,0.00,251112,,A*64
$GPGGA,115949.000,5313.0522,N,00135.6622,W,1,0,,144.0,M,,M,,*48
$GPRMC,115949.000,A,5313.0522,N,00135.6622,W,0.000,0.00,251112,,A*63
$GPGGA,120004.000,5313.0470,N,00135.6615,W,1,0,,144.0,M,,M,,*4C
$GPRMC,120004.000,A,5313.0470,N,00135.6615,W,0.000,0.00,251112,,A*67
$GPGGA,120019.000,5313.0394,N,00135.6713,W,1,0,,144.0,M,,M,,*4A
$GPRMC,120019.000,A,5313.0394,N,00135.6713,W,0.000,0.00,251112,,A*61
$GPGGA,120038.000,5313.0245,N,00135.6324,W,1,0,,145.0,M,,M,,*45
$GPRMC,120038.000,A,5313.0245,N,00135.6324,W,0.000,0.00,251112,,A*6F
$GPGGA,120053.000,5313.0213,N,00135.6254,W,1,0,,145.0,M,,M,,*4D
$GPRMC,120053.000,A,5313.0213,N,00135.6254,W,0.000,0.00,251112,,A*67
$GPGGA,120108.000,5313.0204,N,00135.6238,W,1,0,,145.0,M,,M,,*4E
$GPRMC,120108.000,A,5313.0204,N,00135.6238,W,0.000,0.00,251112,,A*64
$GPGGA,120124.000,5313.0106,N,00135.6022,W,1,0,,146.0,M,,M,,*4B
$GPRMC,120124.000,A,5313.0106,N,00135.6022,W,0.000,0.00,251112,,A*62
$GPGGA,120139.000,5313.0023,N,00135.5904,W,1,0,,146.0,M,,M,,*4F
$GPRMC,120139.000,A,5313.0023,N,00135.5904,W,0.000,0.00,251112,,A*66
$GPGGA,120154.000,5313.0009,N,00135.5879,W,1,0,,146.0,M,,M,,*47
$GPRMC,120154.000,A,5313.0009,N,00135.5879,W,0.000,0.00,251112,,A*6E
$GPGGA,120210.000,5313.0062,N,00135.5964,W,1,0,,146.0,M,,M,,*44
$GPRMC,120210.000,A,5313.0062,N,00135.5964,W,0.000,0.00,251112,,A*6D
$GPGGA,120225.000,5312.9973,N,00135.5874,W,1,0,,147.0,M,,M,,*42
$GPRMC,120225.000,A,5312.9973,N,00135.5874,W,0.000,0.00,251112,,A*6A
$GPGGA,120240.000,5312.9904,N,00135.5753,W,1,0,,147.0,M,,M,,*4B
$GPRMC,120240.000,A,5312.9904,N,00135.5753,W,0.000,0.00,251112,,A*63
$GPGGA,120255.000,5312.9847,N,00135.5692,W,1,0,,147.0,M,,M,,*45
$GPRMC,120255.000,A,5312.9847,N,00135.5692,W,0.000,0.00,251112,,A*6D
$GPGGA,120311.000,5312.9776,N,00135.5599,W,1,0,,148.0,M,,M,,*4E
$GPRMC,120311.000,A,5312.9776,N,00135.5599,W,0.000,0.00,251112,,A*69
$GPGGA,120327.000,5312.9684,N,00135.5489,W,1,0,,148.0,M,,M,,*47
$GPRMC,120327.000,A,5312.9684,N,00135.5489,W,0.000,0.00,251112,,A*60
$GPGGA,120342.000,5312.9623,N,00135.5347,W,1,0,,148.0,M,,M,,*4C
$GPRMC,120342.000,A,5312.9623,N,00135.5347,W,0.000,0.00,251112,,A*6B
$GPGGA,120357.000,5312.9552,N,00135.5219,W,1,0,,148.0,M,,M,,*47
$GPRMC,120357.000,A,5312.9552,N,00135.5219,W,0.000,0.00,251112,,A*60
$GPGGA,120424.000,5312.9270,N,00135.4592,W,1,0,,148.0,M,,M,,*46
$GPRMC,120424.000,A,5312.9270,N,00135.4592,W,0.000,0.00,251112,,A*61
$GPGGA,120439.000,5312.9218,N,00135.4472,W,1,0,,148.0,M,,M,,*4B
$GPRMC,120439.000,A,5312.9218,N,00135.4472,W,0.000,0.00,251112,,A*6C
$GPGGA,120454.000,5312.9282,N,00135.4419,W,1,0,,148.0,M,,M,,*4E
$GPRMC,120454.000,A,5312.9282,N,00135.4419,W,0.000,0.00,251112,,A*69
$GPGGA,120509.000,5312.9307,N,00135.4323,W,1,0,,148.0,M,,M,,*45
$GPRMC,120509.000,A,5312.9307,N,00135.4323,W,0.000,0.00,251112,,A*62
$GPGGA,120524.000,5312.9284,N,00135.4211,W,1,0,,149.0,M,,M,,*41
$GPRMC,120524.000,A,5312.9284,N,00135.4211,W,0.000,0.00,251112,,A*67
$GPGGA,120539.000,5312.9236,N,00135.4061,W,1,0,,149.0,M,,M,,*41
$GPRMC,120539.000,A,5312.9236,N,00135.4061,W,0.000,0.00,251112,,A*67
$GPGGA,120554.000,5312.9142,N,00135.3848,W,1,0,,149.0,M,,M,,*4E
$GPRMC,120554.000,A,5312.9142,N,00135.3848,W,0.000,0.00,251112,,A*68
$GPGGA,120610.000,5312.9076,N,00135.3691,W,1,0,,150.0,M,,M,,*49
$GPRMC,120610.000,A,5312.9076,N,00135.3691,W,0.000,0.00,251112,,A*67
$GPGGA,120625.000,5312.9005,N,00135.3637,W,1,0,,150.0,M,,M,,*47
$GPRMC,120625.000,A,5312.9005,N,00135.3637,W,0.000,0.00,251112,,A*69
$GPGGA,120640.000,5312.8941,N,00135.3623,W,1,0,,150.0,M,,M,,*49
$GPRMC,120640.000,A,5312.8941,N,00135.3623,W,0.000,0.00,251112,,A*67
$GPGGA,120656.000,5312.8847,N,00135.3731,W,1,0,,150.0,M,,M,,*4B
$GPRMC,120656.000,A,5312.8847,N,00135.3731,W,0.000,0.00,251112,,A*65
$GPGGA,120711.000,5312.8810,N,00135.3603,W,1,0,,150.0,M,,M,,*4B
$GPRMC,120711.000,A,5312.8810,N,00135.3603,W,0.000,0.00,251112,,A*65
$GPGGA,120726.000,5312.8773,N,00135.3576,W,1,0,,150.0,M,,M,,*44
$GPRMC,120726.000,A,5312.8773,N,00135.3576,W,0.000,0.00,251112,,A*6A
$GPGGA,120741.000,5312.8725,N,00135.3355,W,1,0,,150.0,M,,M,,*41
$GPRMC,120741.000,A,5312.8725,N,00135.3355,W,0.000,0.00,251112,,A*6F
$GPGGA,120759.000,5312.8648,N,00135.3192,W,1,0,,150.0,M,,M,,*4B
$GPRMC,120759.000,A,5312.8648,N,00135.3192,W,0.000,0.00,251112,,A*65
$GPGGA,120815.000,5312.8551,N,00135.3023,W,1,0,,151.0,M,,M,,*4D
$GPRMC,120815.000,A,5312.8551,N,00135.3023,W,0.000,0.00,251112,,A*62
$GPGGA,120830.000,5312.8561,N,00135.2979,W,1,0,,151.0,M,,M,,*4E
$GPRMC,120830.000,A,5312.8561,N,00135.2979,W,0.000,0.00,251112,,A*61
$GPGGA,120846.000,5312.8524,N,00135.2898,W,1,0,,151.0,M,,M,,*40
$GPRMC,120846.000,A,5312.8524,N,00135.2898,W,0.000,0.00,251112,,A*6F
$GPGGA,120901.000,5312.8277,N,00135.2853,W,1,0,,151.0,M,,M,,*44
$GPRMC,120901.000,A,5312.8277,N,00135.2853,W,0.000,0.00,251112,,A*6B
$GPGGA,120916.000,5312.8277,N,00135.2775,W,1,0,,151.0,M,,M,,*49
$GPRMC,120916.000,A,5312.8277,N,00135.2775,W,0.000,0.00,251112,,A*66
$GPGGA,120931.000,5312.8220,N,00135.2674,W,1,0,,151.0,M,,M,,*4E
$GPRMC,120931.000,A,5312.8220,N,00135.2674,W,0.000,0.00,251112,,A*61
$GPGGA,120947.000,5312.8151,N,00135.2538,W,1,0,,151.0,M,,M,,*41
$GPRMC,120947.000,A,5312.8151,N,00135.2538,W,0.000,0.00,251112,,A*6E
$GPGGA,121002.000,5312.8128,N,00135.2474,W,1,0,,152.0,M,,M,,*4C
$GPRMC,121002.000,A,5312.8128,N,00135.2474,W,0.000,0.00,251112,,A*60
$GPGGA,121018.000,5312.8117,N,00135.2192,W,1,0,,152.0,M,,M,,*46
$GPRMC,121018.000,A,5312.8117,N,00135.2192,W,0.000,0.00,251112,,A*6A
$GPGGA,121033.000,5312.8075,N,00135.2071,W,1,0,,152.0,M,,M,,*46
$GPRMC,121033.000,A,5312.8075,N,00135.2071,W,0.000,0.00,251112,,A*6A
$GPGGA,121048.000,5312.8016,N,00135.2028,W,1,0,,152.0,M,,M,,*43
$GPRMC,121048.000,A,5312.8016,N,00135.2028,W,0.000,0.00,251112,,A*6F
$GPGGA,121103.000,5312.8020,N,00135.1929,W,1,0,,152.0,M,,M,,*43
$GPRMC,121103.000,A,5312.8020,N,00135.1929,W,0.000,0.00,251112,,A*6F
$GPGGA,121118.000,5312.7849,N,00135.1606,W,1,0,,152.0,M,,M,,*43
$GPRMC,121118.000,A,5312.7849,N,00135.1606,W,0.000,0.00,251112,,A*6F
$GPGGA,121134.000,5312.7785,N,00135.1428,W,1,0,,152.0,M,,M,,*4C
$GPRMC,121134.000,A,5312.7785,N,00135.1428,W,0.000,0.00,251112,,A*60
$GPGGA,121149.000,5312.7876,N,00135.1359,W,1,0,,153.0,M,,M,,*45
$GPRMC,121149.000,A,5312.7876,N,00135.1359,W,0.000,0.00,251112,,A*68
$GPGGA,121204.000,5312.7711,N,00134.9997,W,1,0,,153.0,M,,M,,*40
$GPRMC,121204.000,A,5312.7711,N,00134.9997,W,0.000,0.00,251112,,A*6D
$GPGGA,121220.000,5312.7634,N,00134.9882,W,1,0,,153.0,M,,M,,*45
$GPRMC,121220.000,A,5312.7634,N,00134.9882,W,0.000,0.00,251112,,A*68
$GPGGA,121235.000,5312.7654,N,00134.9694,W,1,0,,154.0,M,,M,,*49
$GPRMC,121235.000,A,5312.7654,N,00134.9694,W,0.000,0.00,251112,,A*63
$GPGGA,121250.000,5312.7652,N,00134.9612,W,1,0,,154.0,M,,M,,*42
$GPRMC,121250.000,A,5312.7652,N,00134.9612,W,0.000,0.00,251112,,A*68
$GPGGA,121305.000,5312.7682,N,00134.9507,W,1,0,,154.0,M,,M,,*49
$GPRMC,121305.000,A,5312.7682,N,00134.9507,W,0.000,0.00,251112,,A*63
$GPGGA,121320.000,5312.7737,N,00134.9436,W,1,0,,154.0,M,,M,,*42
$GPRMC,121320.000,A,5312.7737,N,00134.9436,W,0.000,0.00,251112,,A*68
$GPGGA,121336.000,5312.7856,N,00134.9237,W,1,0,,154.0,M,,M,,*4A
$GPRMC,121336.000,A,5312.7856,N,00134.9237,W,0.000,0.00,251112,,A*60
$GPGGA,121351.000,5312.7856,N,00134.9138,W,1,0,,154.0,M,,M,,*47
$GPRMC,121351.000,A,5312.7856,N,00134.9138,W,0.000,0.00,251112,,A*6D
$GPGGA,121406.000,5312.7874,N,00134.9050,W,1,0,,154.0,M,,M,,*4D
$GPRMC,121406.000,A,5312.7874,N,00134.9050,W,0.000,0.00,251112,,A*67
$GPGGA,121421.000,5312.7924,N,00134.8952,W,1,0,,154.0,M,,M,,*46
$GPRMC,121421.000,A,5312.7924,N,00134.8952,W,0.000,0.00,251112,,A*6C
$GPGGA,121440.000,5312.8009,N,00134.8781,W,1,0,,154.0,M,,M,,*48
$GPRMC,121440.000,A,5312.8009,N,00134.8781,W,0.000,0.00,251112,,A*62
$GPGGA,121456.000,5312.8110,N,00134.8732,W,1,0,,154.0,M,,M,,*4E
$GPRMC,121456.000,A,5312.8110,N,00134.8732,W,0.000,0.00,251112,,A*64
$GPGGA,121511.000,5312.8197,N,00134.8505,W,1,0,,155.0,M,,M,,*44
$GPRMC,121511.000,A,5312.8197,N,00134.8505,W,0.000,0.00,251112,,A*6F
$GPGGA,121526.000,5312.8222,N,00134.8355,W,1,0,,155.0,M,,M,,*4E
$GPRMC,121526.000,A,5312.8222,N,00134.8355,W,0.000,0.00,251112,,A*65
$GPGGA,121543.000,5312.8288,N,00134.8270,W,1,0,,155.0,M,,M,,*4B
$GPRMC,121543.000,A,5312.8288,N,00134.8270,W,0.000,0.00,251112,,A*60
$GPGGA,121558.000,5312.8336,N,00134.8164,W,1,0,,155.0,M,,M,,*43
$GPRMC,121558.000,A,5312.8336,N,00134.8164,W,0.000,0.00,251112,,A*68
$GPGGA,121614.000,5312.8423,N,00134.7936,W,1,0,,155.0,M,,M,,*4B
$GPRMC,121614.000,A,5312.8423,N,00134.7936,W,0.000,0.00,251112,,A*60
$GPGGA,121630.000,5312.8476,N,00134.7792,W,1,0,,155.0,M,,M,,*4D
$GPRMC,121630.000,A,5312.8476,N,00134.7792,W,0.000,0.00,251112,,A*66
$GPGGA,121645.000,5312.8526,N,00134.7639,W,1,0,,155.0,M,,M,,*4B
$GPRMC,121645.000,A,5312.8526,N,00134.7639,W,0.000,0.00,251112,,A*60
$GPGGA,121701.000,5312.8579,N,00134.7536,W,1,0,,155.0,M,,M,,*4C
$GPRMC,121701.000,A,5312.8579,N,00134.7536,W,0.000,0.00,251112,,A*67
$GPGGA,121716.000,5312.8671,N,00134.7403,W,1,0,,155.0,M,,M,,*46
$GPRMC,121716.000,A,5312.8671,N,00134.7403,W,0.000,0.00,251112,,A*6D
$GPGGA,121732.000,5312.8748,N,00134.7249,W,1,0,,155.0,M,,M,,*43
$GPRMC,121732.000,A,5312.8748,N,00134.7249,W,0.000,0.00,251112,,A*68
$GPGGA,121747.000,5312.8773,N,00134.7173,W,1,0,,155.0,M,,M,,*43
$GPRMC,121747.000,A,5312.8773,N,00134.7173,W,0.000,0.00,251112,,A*68
$GPGGA,121803.000,5312.8886,N,00134.7052,W,1,0,,155.0,M,,M,,*4B
$GPRMC,121803.000,A,5312.8886,N,00134.7052,W,0.000,0.00,251112,,A*60
$GPGGA,121818.000,5312.8966,N,00134.6930,W,1,0,,155.0,M,,M,,*42
$GPRMC,121818.000,A,5312.8966,N,00134.6930,W,0.000,0.00,251112,,A*69
$GPGGA,121833.000,5312.9014,N,00134.6808,W,1,0,,155.0,M,,M,,*4C
$GPRMC,121833.000,A,5312.9014,N,00134.6808,W,0.000,0.00,251112,,A*67
$GPGGA,121849.000,5312.9133,N,00134.6779,W,1,0,,155.0,M,,M,,*4C
$GPRMC,121849.000,A,5312.9133,N,00134.6779,W,0.000,0.00,251112,,A*67
$GPGGA,121904.000,5312.9460,N,00134.6837,W,1,0,,155.0,M,,M,,*42
$GPRMC,121904.000,A,5312.9460,N,00134.6837,W,0.000,0.00,251112,,A*69
$GPGGA,121920.000,5312.9595,N,00134.6902,W,1,0,,155.0,M,,M,,*48
$GPRMC,121920.000,A,5312.9595,N,00134.6902,W,0.000,0.00,251112,,A*63
$GPGGA,121936.000,5312.9616,N,00134.6838,W,1,0,,156.0,M,,M,,*4C
$GPRMC,121936.000,A,5312.9616,N,00134.6838,W,0.000,0.00,251112,,A*64
$GPGGA,121951.000,5312.9643,N,00134.6741,W,1,0,,156.0,M,,M,,*4C
$GPRMC,121951.000,A,5312.9643,N,00134.6741,W,0.000,0.00,251112,,A*64
$GPGGA,122006.000,5312.9662,N,00134.6641,W,1,0,,156.0,M,,M,,*46
$GPRMC,122006.000,A,5312.9662,N,00134.6641,W,0.000,0.00,251112,,A*6E
$GPGGA,122021.000,5312.9684,N,00134.6467,W,1,0,,156.0,M,,M,,*4D
$GPRMC,122021.000,A,5312.9684,N,00134.6467,W,0.000,0.00,251112,,A*65
$GPGGA,122036.000,5312.9785,N,00134.6238,W,1,0,,156.0,M,,M,,*47
$GPRMC,122036.000,A,5312.9785,N,00134.6238,W,0.000,0.00,251112,,A*6F
$GPGGA,122053.000,5312.9781,N,00134.6089,W,1,0,,157.0,M,,M,,*49
$GPRMC,122053.000,A,5312.9781,N,00134.6089,W,0.000,0.00,251112,,A*60
$GPGGA,122108.000,5312.9870,N,00134.6000,W,1,0,,157.0,M,,M,,*46
$GPRMC,122108.000,A,5312.9870,N,00134.6000,W,0.000,0.00,251112,,A*6F
$GPGGA,122131.000,5312.9890,N,00134.5831,W,1,0,,158.0,M,,M,,*44
$GPRMC,122131.000,A,5312.9890,N,00134.5831,W,0.000,0.00,251112,,A*62
$GPGGA,122147.000,5312.9945,N,00134.5654,W,1,0,,158.0,M,,M,,*41
$GPRMC,122147.000,A,5312.9945,N,00134.5654,W,0.000,0.00,251112,,A*67
$GPGGA,122202.000,5312.9911,N,00134.5479,W,1,0,,158.0,M,,M,,*4F
$GPRMC,122202.000,A,5312.9911,N,00134.5479,W,0.000,0.00,251112,,A*69
$GPGGA,122217.000,5312.9975,N,00134.5383,W,1,0,,158.0,M,,M,,*4B
$GPRMC,122217.000,A,5312.9975,N,00134.5383,W,0.000,0.00,251112,,A*6D
$GPGGA,122232.000,5313.0019,N,00134.5170,W,1,0,,158.0,M,,M,,*49
$GPRMC,122232.000,A,5313.0019,N,00134.5170,W,0.000,0.00,251112,,A*6F
$GPGGA,122248.000,5313.0170,N,00134.5155,W,1,0,,158.0,M,,M,,*4D
$GPRMC,122248.000,A,5313.0170,N,00134.5155,W,0.000,0.00,251112,,A*6B
$GPGGA,122303.000,5313.0300,N,00134.5049,W,1,0,,158.0,M,,M,,*4A
$GPRMC,122303.000,A,5313.0300,N,00134.5049,W,0.000,0.00,251112,,A*6C
$GPGGA,122319.000,5313.0323,N,00134.4948,W,1,0,,158.0,M,,M,,*49
$GPRMC,122319.000,A,5313.0323,N,00134.4948,W,0.000,0.00,251112,,A*6F
$GPGGA,122334.000,5313.0492,N,00134.4852,W,1,0,,158.0,M,,M,,*41
$GPRMC,122334.000,A,5313.0492,N,00134.4852,W,0.000,0.00,251112,,A*67
$GPGGA,122349.000,5313.0458,N,00134.4729,W,1,0,,158.0,M,,M,,*4E
$GPRMC,122349.000,A,5313.0458,N,00134.4729,W,0.000,0.00,251112,,A*68
$GPGGA,122404.000,5313.0499,N,00134.4639,W,1,0,,158.0,M,,M,,*4D
$GPRMC,122404.000,A,5313.0499,N,00134.4639,W,0.000,0.00,251112,,A*6B
$GPGGA,122419.000,5313.0440,N,00134.4490,W,1,0,,159.0,M,,M,,*45
$GPRMC,122419.000,A,5313.0440,N,00134.4490,W,0.000,0.00,251112,,A*62
$GPGGA,122435.000,5313.0474,N,00134.4402,W,1,0,,159.0,M,,M,,*47
$GPRMC,122435.000,A,5313.0474,N,00134.4402,W,0.000,0.00,251112,,A*60
$GPGGA,122450.000,5313.0470,N,00134.4349,W,1,0,,159.0,M,,M,,*48
$GPRMC,122450.000,A,5313.0470,N,00134.4349,W,0.000,0.00,251112,,A*6F
$GPGGA,122506.000,5313.0424,N,00134.4189,W,1,0,,159.0,M,,M,,*45
$GPRMC,122506.000,A,5313.0424,N,00134.4189,W,0.000,0.00,251112,,A*62
$GPGGA,122522.000,5313.0399,N,00134.4095,W,1,0,,159.0,M,,M,,*4E
$GPRMC,122522.000,A,5313.0399,N,00134.4095,W,0.000,0.00,251112,,A*69
$GPGGA,122537.000,5313.0387,N,00134.4065,W,1,0,,159.0,M,,M,,*4A
$GPRMC,122537.000,A,5313.0387,N,00134.4065,W,0.000,0.00,251112,,A*6D
$GPGGA,122552.000,5313.0360,N,00134.4128,W,1,0,,159.0,M,,M,,*48
$GPRMC,122552.000,A,5313.0360,N,00134.4128,W,0.000,0.00,251112,,A*6F
$GPGGA,122607.000,5313.0387,N,00134.4076,W,1,0,,159.0,M,,M,,*48
$GPRMC,122607.000,A,5313.0387,N,00134.4076,W,0.000,0.00,251112,,A*6F
$GPGGA,122623.000,5313.0307,N,00134.3982,W,1,0,,159.0,M,,M,,*43
$GPRMC,122623.000,A,5313.0307,N,00134.3982,W,0.000,0.00,251112,,A*64
$GPGGA,122638.000,5313.0440,N,00134.3917,W,1,0,,159.0,M,,M,,*41
$GPRMC,122638.000,A,5313.0440,N,00134.3917,W,0.000,0.00,251112,,A*66
$GPGGA,122653.000,5313.0554,N,00134.3960,W,1,0,,159.0,M,,M,,*48
$GPRMC,122653.000,A,5313.0554,N,00134.3960,W,0.000,0.00,251112,,A*6F
$GPGGA,122709.000,5313.0582,N,00134.3894,W,1,0,,159.0,M,,M,,*47
$GPRMC,122709.000,A,5313.0582,N,00134.3894,W,0.000,0.00,251112,,A*60
$GPGGA,122732.000,5313.0618,N,00134.3835,W,1,0,,160.0,M,,M,,*4E
$GPRMC,122732.000,A,5313.0618,N,00134.3835,W,0.000,0.00,251112,,A*63
$GPGGA,122748.000,5313.0717,N,00134.3837,W,1,0,,160.0,M,,M,,*4F
$GPRMC,122748.000,A,5313.0717,N,00134.3837,W,0.000,0.00,251112,,A*62
$GPGGA,122803.000,5313.0815,N,00134.3805,W,1,0,,160.0,M,,M,,*43
$GPRMC,122803.000,A,5313.0815,N,00134.3805,W,0.000,0.00,251112,,A*6E
$GPGGA,122818.000,5313.0975,N,00134.3659,W,1,0,,160.0,M,,M,,*49
$GPRMC,122818.000,A,5313.0975,N,00134.3659,W,0.000,0.00,251112,,A*64
$GPGGA,122835.000,5313.0930,N,00134.3471,W,1,0,,160.0,M,,M,,*4F
$GPRMC,122835.000,A,5313.0930,N,00134.3471,W,0.000,0.00,251112,,A*62
$GPGGA,122851.000,5313.1026,N,00134.3532,W,1,0,,160.0,M,,M,,*44
$GPRMC,122851.000,A,5313.1026,N,00134.3532,W,0.000,0.00,251112,,A*69
$GPGGA,122907.000,5313.1087,N,00134.3502,W,1,0,,160.0,M,,M,,*4E
$GPRMC,122907.000,A,5313.1087,N,00134.3502,W,0.000,0.00,251112,,A*63
$GPGGA,122922.000,5313.1122,N,00134.3477,W,1,0,,160.0,M,,M,,*44
$GPRMC,122922.000,A,5313.1122,N,00134.3477,W,0.000,0.00,251112,,A*69
$GPGGA,122937.000,5313.1104,N,00134.3403,W,1,0,,160.0,M,,M,,*47
$GPRMC,122937.000,A,5313.1104,N,00134.3403,W,0.000,0.00,251112,,A*6A
$GPGGA,122952.000,5313.1152,N,00134.3296,W,1,0,,161.0,M,,M,,*4C
$GPRMC,122952.000,A,5313.1152,N,00134.3296,W,0.000,0.00,251112,,A*60
$GPGGA,123007.000,5313.1138,N,00134.3160,W,1,0,,161.0,M,,M,,*42
$GPRMC,123007.000,A,5313.1138,N,00134.3160,W,0.000,0.00,251112,,A*6E
$GPGGA,123022.000,5313.1124,N,00134.3047,W,1,0,,161.0,M,,M,,*4C
$GPRMC,123022.000,A,5313.1124,N,00134.3047,W,0.000,0.00,251112,,A*60
$GPGGA,123037.000,5313.1154,N,00134.2909,W,1,0,,161.0,M,,M,,*4D
$GPRMC,123037.000,A,5313.1154,N,00134.2909,W,0.000,0.00,251112,,A*61
$GPGGA,123052.000,5313.1190,N,00134.2803,W,1,0,,162.0,M,,M,,*4E
$GPRMC,123052.000,A,5313.1190,N,00134.2803,W,0.000,0.00,251112,,A*61
$GPGGA,123113.000,5313.1316,N,00134.2711,W,1,0,,162.0,M,,M,,*4A
$GPRMC,123113.000,A,5313.1316,N,00134.2711,W,0.000,0.00,251112,,A*65
$GPGGA,123142.000,5313.1419,N,00134.2737,W,1,0,,162.0,M,,M,,*42
$GPRMC,123142.000,A,5313.1419,N,00134.2737,W,0.000,0.00,251112,,A*6D
$GPGGA,123158.000,5313.1410,N,00134.2732,W,1,0,,162.0,M,,M,,*45
$GPRMC,123158.000,A,5313.1410,N,00134.2732,W,0.000,0.00,251112,,A*6A
$GPGGA,123213.000,5313.1346,N,00134.2744,W,1,0,,162.0,M,,M,,*4C
$GPRMC,123213.000,A,5313.1346,N,00134.2744,W,0.000,0.00,251112,,A*63
$GPGGA,123228.000,5313.1385,N,00134.2809,W,1,0,,162.0,M,,M,,*4D
$GPRMC,123228.000,A,5313.1385,N,00134.2809,W,0.000,0.00,251112,,A*62
$GPGGA,123256.000,5313.1266,N,00134.2666,W,1,0,,162.0,M,,M,,*4F
$GPRMC,123256.000,A,5313.1266,N,00134.2666,W,0.000,0.00,251112,,A*60
$GPGGA,123311.000,5313.1250,N,00134.2674,W,1,0,,162.0,M,,M,,*4B
$GPRMC,123311.000,A,5313.1250,N,00134.2674,W,0.000,0.00,251112,,A*64
$GPGGA,123327.000,5313.1229,N,00134.2639,W,1,0,,162.0,M,,M,,*49
$GPRMC,123327.000,A,5313.1229,N,00134.2639,W,0.000,0.00,251112,,A*66
$GPGGA,123342.000,5313.1152,N,00134.2622,W,1,0,,162.0,M,,M,,*4F
$GPRMC,123342.000,A,5313.1152,N,00134.2622,W,0.000,0.00,251112,,A*60
$GPGGA,123357.000,5313.1271,N,00134.2655,W,1,0,,162.0,M,,M,,*49
$GPRMC,123357.000,A,5313.1271,N,00134.2655,W,0.000,0.00,251112,,A*66
$GPGGA,123413.000,5313.1181,N,00134.2630,W,1,0,,162.0,M,,M,,*41
$GPRMC,123413.000,A,5313.1181,N,00134.2630,W,0.000,0.00,251112,,A*6E
$GPGGA,123428.000,5313.1158,N,00134.2632,W,1,0,,162.0,M,,M,,*4F
$GPRMC,123428.000,A,5313.1158,N,00134.2632,W,0.000,0.00,251112,,A*60
$GPGGA,123443.000,5313.1142,N,00134.2627,W,1,0,,162.0,M,,M,,*4D
$GPRMC,123443.000,A,5313.1142,N,00134.2627,W,0.000,0.00,251112,,A*62
$GPGGA,123503.000,5313.1195,N,00134.2509,W,1,0,,163.0,M,,M,,*4C
$GPRMC,123503.000,A,5313.1195,N,00134.2509,W,0.000,0.00,251112,,A*62
$GPGGA,123518.000,5313.1715,N,00134.2925,W,1,0,,161.0,M,,M,,*48
$GPRMC,123518.000,A,5313.1715,N,00134.2925,W,0.000,0.00,251112,,A*64
$GPGGA,123533.000,5313.1664,N,00134.2863,W,1,0,,163.0,M,,M,,*47
$GPRMC,123533.000,A,5313.1664,N,00134.2863,W,0.000,0.00,251112,,A*69
$GPGGA,123548.000,5313.1671,N,00134.2884,W,1,0,,163.0,M,,M,,*46
$GPRMC,123548.000,A,5313.1671,N,00134.2884,W,0.000,0.00,251112,,A*68
$GPGGA,123603.000,5313.1598,N,00134.2873,W,1,0,,163.0,M,,M,,*46
$GPRMC,123603.000,A,5313.1598,N,00134.2873,W,0.000,0.00,251112,,A*68
$GPGGA,123618.000,5313.1625,N,00134.3001,W,1,0,,164.0,M,,M,,*42
$GPRMC,123618.000,A,5313.1625,N,00134.3001,W,0.000,0.00,251112,,A*6B
$GPGGA,123639.000,5313.1687,N,00134.3147,W,1,0,,164.0,M,,M,,*4A
$GPRMC,123639.000,A,5313.1687,N,00134.3147,W,0.000,0.00,251112,,A*63
$GPGGA,123654.000,5313.1692,N,00134.3263,W,1,0,,164.0,M,,M,,*40
$GPRMC,123654.000,A,5313.1692,N,00134.3263,W,0.000,0.00,251112,,A*69
$GPGGA,123709.000,5313.1767,N,00134.3407,W,1,0,,165.0,M,,M,,*47
$GPRMC,123709.000,A,5313.1767,N,00134.3407,W,0.000,0.00,251112,,A*6F
$GPGGA,123724.000,5313.1568,N,00134.3776,W,1,0,,165.0,M,,M,,*40
$GPRMC,123724.000,A,5313.1568,N,00134.3776,W,0.000,0.00,251112,,A*68
$GPGGA,123740.000,5313.1829,N,00134.3807,W,1,0,,165.0,M,,M,,*43
$GPRMC,123740.000,A,5313.1829,N,00134.3807,W,0.000,0.00,251112,,A*6B
$GPGGA,123755.000,5313.1824,N,00134.3954,W,1,0,,165.0,M,,M,,*4D
$GPRMC,123755.000,A,5313.1824,N,00134.3954,W,0.000,0.00,251112,,A*65
$GPGGA,123810.000,5313.1799,N,00134.3952,W,1,0,,165.0,M,,M,,*4C
$GPRMC,123810.000,A,5313.1799,N,00134.3952,W,0.000,0.00,251112,,A*64
$GPGGA,123825.000,5313.1724,N,00134.4039,W,1,0,,165.0,M,,M,,*4F
$GPRMC,123825.000,A,5313.1724,N,00134.4039,W,0.000,0.00,251112,,A*67
$GPGGA,123841.000,5313.1618,N,00134.4001,W,1,0,,165.0,M,,M,,*48
$GPRMC,123841.000,A,5313.1618,N,00134.4001,W,0.000,0.00,251112,,A*60
$GPGGA,123856.000,5313.1557,N,00134.4103,W,1,0,,165.0,M,,M,,*45
$GPRMC,123856.000,A,5313.1557,N,00134.4103,W,0.000,0.00,251112,,A*6D
$GPGGA,123912.000,5313.1422,N,00134.4367,W,1,0,,166.0,M,,M,,*44
$GPRMC,123912.000,A,5313.1422,N,00134.4367,W,0.000,0.00,251112,,A*6F
$GPGGA,123927.000,5313.1342,N,00134.4446,W,1,0,,166.0,M,,M,,*47
$GPRMC,123927.000,A,5313.1342,N,00134.4446,W,0.000,0.00,251112,,A*6C
$GPGGA,123942.000,5313.1229,N,00134.4373,W,1,0,,166.0,M,,M,,*49
$GPRMC,123942.000,A,5313.1229,N,00134.4373,W,0.000,0.00,251112,,A*62
$GPGGA,123958.000,5313.1113,N,00134.4376,W,1,0,,166.0,M,,M,,*4D
$GPRMC,123958.000,A,5313.1113,N,00134.4376,W,0.000,0.00,251112,,A*66
$GPGGA,124013.000,5313.1019,N,00134.4399,W,1,0,,166.0,M,,M,,*46
$GPRMC,124013.000,A,5313.1019,N,00134.4399,W,0.000,0.00,251112,,A*6D
$GPGGA,124028.000,5313.0968,N,00134.4468,W,1,0,,167.0,M,,M,,*48
$GPRMC,124028.000,A,5313.0968,N,00134.4468,W,0.000,0.00,251112,,A*62
$GPGGA,124043.000,5313.0909,N,00134.4508,W,1,0,,167.0,M,,M,,*45
$GPRMC,124043.000,A,5313.0909,N,00134.4508,W,0.000,0.00,251112,,A*6F
$GPGGA,124058.000,5313.0877,N,00134.4524,W,1,0,,167.0,M,,M,,*49
$GPRMC,124058.000,A,5313.0877,N,00134.4524,W,0.000,0.00,251112,,A*63
$GPGGA,124114.000,5313.0696,N,00134.4590,W,1,0,,167.0,M,,M,,*4E
$GPRMC,124114.000,A,5313.0696,N,00134.4590,W,0.000,0.00,251112,,A*64
$GPGGA,124129.000,5313.0600,N,00134.4582,W,1,0,,167.0,M,,M,,*4C
$GPRMC,124129.000,A,5313.0600,N,00134.4582,W,0.000,0.00,251112,,A*66
$GPGGA,124145.000,5313.0403,N,00134.4666,W,1,0,,168.0,M,,M,,*41
$GPRMC,124145.000,A,5313.0403,N,00134.4666,W,0.000,0.00,251112,,A*64
$GPGGA,124200.000,5313.0394,N,00134.4742,W,1,0,,168.0,M,,M,,*4D
$GPRMC,124200.000,A,5313.0394,N,00134.4742,W,0.000,0.00,251112,,A*68
$GPGGA,124215.000,5313.0360,N,00134.4864,W,1,0,,168.0,M,,M,,*49
$GPRMC,124215.000,A,5313.0360,N,00134.4864,W,0.000,0.00,251112,,A*6C
$GPGGA,124230.000,5313.0309,N,00134.4955,W,1,0,,169.0,M,,M,,*43
$GPRMC,124230.000,A,5313.0309,N,00134.4955,W,0.000,0.00,251112,,A*67
$GPGGA,124246.000,5313.0179,N,00134.5053,W,1,0,,169.0,M,,M,,*49
$GPRMC,124246.000,A,5313.0179,N,00134.5053,W,0.000,0.00,251112,,A*6D
$GPGGA,124301.000,5313.0147,N,00134.5160,W,1,0,,170.0,M,,M,,*4F
$GPRMC,124301.000,A,5313.0147,N,00134.5160,W,0.000,0.00,251112,,A*63
$GPGGA,124316.000,5313.0023,N,00134.5099,W,1,0,,170.0,M,,M,,*4D
$GPRMC,124316.000,A,5313.0023,N,00134.5099,W,0.000,0.00,251112,,A*61
$GPGGA,124331.000,5313.0003,N,00134.5301,W,1,0,,170.0,M,,M,,*48
$GPRMC,124331.000,A,5313.0003,N,00134.5301,W,0.000,0.00,251112,,A*64
$GPGGA,124347.000,5312.9922,N,00134.5277,W,1,0,,171.0,M,,M,,*4A
$GPRMC,124347.000,A,5312.9922,N,00134.5277,W,0.000,0.00,251112,,A*67
$GPGGA,124402.000,5312.9854,N,00134.5316,W,1,0,,172.0,M,,M,,*49
$GPRMC,124402.000,A,5312.9854,N,00134.5316,W,0.000,0.00,251112,,A*67
$GPGGA,124417.000,5312.9879,N,00134.5445,W,1,0,,172.0,M,,M,,*43
$GPRMC,124417.000,A,5312.9879,N,00134.5445,W,0.000,0.00,251112,,A*6D
$GPGGA,124433.000,5312.9872,N,00134.5652,W,1,0,,172.0,M,,M,,*4A
$GPRMC,124433.000,A,5312.9872,N,00134.5652,W,0.000,0.00,251112,,A*64
$GPGGA,124448.000,5312.9858,N,00134.5797,W,1,0,,173.0,M,,M,,*47
$GPRMC,124448.000,A,5312.9858,N,00134.5797,W,0.000,0.00,251112,,A*68
$GPGGA,124503.000,5312.9858,N,00134.5840,W,1,0,,173.0,M,,M,,*4C
$GPRMC,124503.000,A,5312.9858,N,00134.5840,W,0.000,0.00,251112,,A*63
$GPGGA,124518.000,5312.9897,N,00134.5930,W,1,0,,173.0,M,,M,,*43
$GPRMC,124518.000,A,5312.9897,N,00134.5930,W,0.000,0.00,251112,,A*6C
$GPGGA,124533.000,5312.9989,N,00134.5973,W,1,0,,173.0,M,,M,,*43
$GPRMC,124533.000,A,5312.9989,N,00134.5973,W,0.000,0.00,251112,,A*6C
$GPGGA,124549.000,5312.9936,N,00134.6157,W,1,0,,173.0,M,,M,,*47
$GPRMC,124549.000,A,5312.9936,N,00134.6157,W,0.000,0.00,251112,,A*68
$GPGGA,124604.000,5312.9968,N,00134.6221,W,1,0,,173.0,M,,M,,*44
$GPRMC,124604.000,A,5312.9968,N,00134.6221,W,0.000,0.00,251112,,A*6B
$GPGGA,124619.000,5312.9973,N,00134.6347,W,1,0,,173.0,M,,M,,*43
$GPRMC,124619.000,A,5312.9973,N,00134.6347,W,0.000,0.00,251112,,A*6C
$GPGGA,124634.000,5312.9943,N,00134.6471,W,1,0,,173.0,M,,M,,*4D
$GPRMC,124634.000,A,5312.9943,N,00134.6471,W,0.000,0.00,251112,,A*62
$GPGGA,124650.000,5312.9826,N,00134.6392,W,1,0,,174.0,M,,M,,*40
$GPRMC,124650.000,A,5312.9826,N,00134.6392,W,0.000,0.00,251112,,A*68
$GPGGA,124706.000,5312.9826,N,00134.6466,W,1,0,,174.0,M,,M,,*4E
$GPRMC,124706.000,A,5312.9826,N,00134.6466,W,0.000,0.00,251112,,A*66
$GPGGA,124721.000,5312.9799,N,00134.6607,W,1,0,,173.0,M,,M,,*42
$GPRMC,124721.000,A,5312.9799,N,00134.6607,W,0.000,0.00,251112,,A*6D
$GPGGA,124736.000,5312.9781,N,00134.6718,W,1,0,,173.0,M,,M,,*42
$GPRMC,124736.000,A,5312.9781,N,00134.6718,W,0.000,0.00,251112,,A*6D
$GPGGA,124751.000,5312.9783,N,00134.6814,W,1,0,,174.0,M,,M,,*45
$GPRMC,124751.000,A,5312.9783,N,00134.6814,W,0.000,0.00,251112,,A*6D
$GPGGA,124806.000,5312.9858,N,00134.7044,W,1,0,,174.0,M,,M,,*4D
$GPRMC,124806.000,A,5312.9858,N,00134.7044,W,0.000,0.00,251112,,A*65
$GPGGA,124821.000,5312.9744,N,00134.7076,W,1,0,,174.0,M,,M,,*4B
$GPRMC,124821.000,A,5312.9744,N,00134.7076,W,0.000,0.00,251112,,A*63
$GPGGA,124839.000,5312.9476,N,00134.7265,W,1,0,,175.0,M,,M,,*41
$GPRMC,124839.000,A,5312.9476,N,00134.7265,W,0.000,0.00,251112,,A*68
$GPGGA,124855.000,5312.9245,N,00134.7312,W,1,0,,175.0,M,,M,,*4C
$GPRMC,124855.000,A,5312.9245,N,00134.7312,W,0.000,0.00,251112,,A*65
$GPGGA,124911.000,5312.9002,N,00134.7592,W,1,0,,175.0,M,,M,,*42
$GPRMC,124911.000,A,5312.9002,N,00134.7592,W,0.000,0.00,251112,,A*6B
$GPGGA,124926.000,5312.8895,N,00134.7681,W,1,0,,175.0,M,,M,,*40
$GPRMC,124926.000,A,5312.8895,N,00134.7681,W,0.000,0.00,251112,,A*69
$GPGGA,124941.000,5312.8812,N,00134.7730,W,1,0,,176.0,M,,M,,*46
$GPRMC,124941.000,A,5312.8812,N,00134.7730,W,0.000,0.00,251112,,A*6C
$GPGGA,124956.000,5312.8746,N,00134.7678,W,1,0,,176.0,M,,M,,*43
$GPRMC,124956.000,A,5312.8746,N,00134.7678,W,0.000,0.00,251112,,A*69
$GPGGA,125011.000,5312.8659,N,00134.7580,W,1,0,,176.0,M,,M,,*43
$GPRMC,125011.000,A,5312.8659,N,00134.7580,W,0.000,0.00,251112,,A*69
$GPGGA,125026.000,5312.8577,N,00134.7516,W,1,0,,176.0,M,,M,,*47
$GPRMC,125026.000,A,5312.8577,N,00134.7516,W,0.000,0.00,251112,,A*6D
$GPGGA,125042.000,5312.8389,N,00134.7365,W,1,0,,177.0,M,,M,,*41
$GPRMC,125042.000,A,5312.8389,N,00134.7365,W,0.000,0.00,251112,,A*6A
$GPGGA,125057.000,5312.8313,N,00134.7309,W,1,0,,177.0,M,,M,,*4C
$GPRMC,125057.000,A,5312.8313,N,00134.7309,W,0.000,0.00,251112,,A*67
$GPGGA,125113.000,5312.8208,N,00134.7264,W,1,0,,177.0,M,,M,,*4C
$GPRMC,125113.000,A,5312.8208,N,00134.7264,W,0.000,0.00,251112,,A*67
$GPGGA,125128.000,5312.8156,N,00134.7163,W,1,0,,178.0,M,,M,,*47
$GPRMC,125128.000,A,5312.8156,N,00134.7163,W,0.000,0.00,251112,,A*63
$GPGGA,125143.000,5312.8064,N,00134.7092,W,1,0,,178.0,M,,M,,*45
$GPRMC,125143.000,A,5312.8064,N,00134.7092,W,0.000,0.00,251112,,A*61
$GPGGA,125159.000,5312.7972,N,00134.7054,W,1,0,,179.0,M,,M,,*44
$GPRMC,125159.000,A,5312.7972,N,00134.7054,W,0.000,0.00,251112,,A*61
$GPGGA,125214.000,5312.7853,N,00134.6960,W,1,0,,180.0,M,,M,,*45
$GPRMC,125214.000,A,5312.7853,N,00134.6960,W,0.000,0.00,251112,,A*66
$GPGGA,125229.000,5312.7764,N,00134.6902,W,1,0,,181.0,M,,M,,*45
$GPRMC,125229.000,A,5312.7764,N,00134.6902,W,0.000,0.00,251112,,A*67
$GPGGA,125245.000,5312.7661,N,00134.6799,W,1,0,,181.0,M,,M,,*47
$GPRMC,125245.000,A,5312.7661,N,00134.6799,W,0.000,0.00,251112,,A*65
$GPGGA,125300.000,5312.7606,N,00134.6759,W,1,0,,182.0,M,,M,,*49
$GPRMC,125300.000,A,5312.7606,N,00134.6759,W,0.000,0.00,251112,,A*68
$GPGGA,125315.000,5312.7549,N,00134.6762,W,1,0,,182.0,M,,M,,*4D
$GPRMC,125315.000,A,5312.7549,N,00134.6762,W,0.000,0.00,251112,,A*6C
$GPGGA,125331.000,5312.7471,N,00134.6717,W,1,0,,183.0,M,,M,,*42
$GPRMC,125331.000,A,5312.7471,N,00134.6717,W,0.000,0.00,251112,,A*62
$GPGGA,125346.000,5312.7421,N,00134.6625,W,1,0,,184.0,M,,M,,*40
$GPRMC,125346.000,A,5312.7421,N,00134.6625,W,0.000,0.00,251112,,A*67
$GPGGA,125401.000,5312.7332,N,00134.6651,W,1,0,,184.0,M,,M,,*42
$GPRMC,125401.000,A,5312.7332,N,00134.6651,W,0.000,0.00,251112,,A*65
$GPGGA,125417.000,5312.7229,N,00134.6713,W,1,0,,185.0,M,,M,,*48
$GPRMC,125417.000,A,5312.7229,N,00134.6713,W,0.000,0.00,251112,,A*6E
$GPGGA,125432.000,5312.7206,N,00134.6705,W,1,0,,185.0,M,,M,,*45
$GPRMC,125432.000,A,5312.7206,N,00134.6705,W,0.000,0.00,251112,,A*63
$GPGGA,125447.000,5312.7162,N,00134.6689,W,1,0,,185.0,M,,M,,*43
$GPRMC,125447.000,A,5312.7162,N,00134.6689,W,0.000,0.00,251112,,A*65
$GPGGA,125502.000,5312.7089,N,00134.6449,W,1,0,,185.0,M,,M,,*49
$GPRMC,125502.000,A,5312.7089,N,00134.6449,W,0.000,0.00,251112,,A*6F
$GPGGA,125518.000,5312.7016,N,00134.6259,W,1,0,,185.0,M,,M,,*43
$GPRMC,125518.000,A,5312.7016,N,00134.6259,W,0.000,0.00,251112,,A*65
$GPGGA,125533.000,5312.7052,N,00134.6197,W,1,0,,186.0,M,,M,,*48
$GPRMC,125533.000,A,5312.7052,N,00134.6197,W,0.000,0.00,251112,,A*6D
$GPGGA,125548.000,5312.7039,N,00134.6219,W,1,0,,186.0,M,,M,,*4C
$GPRMC,125548.000,A,5312.7039,N,00134.6219,W,0.000,0.00,251112,,A*69
$GPGGA,125603.000,5312.6961,N,00134.6221,W,1,0,,187.0,M,,M,,*4F
$GPRMC,125603.000,A,5312.6961,N,00134.6221,W,0.000,0.00,251112,,A*6B
$GPGGA,125619.000,5312.6929,N,00134.6261,W,1,0,,187.0,M,,M,,*4C
$GPRMC,125619.000,A,5312.6929,N,00134.6261,W,0.000,0.00,251112,,A*68
$GPGGA,125635.000,5312.6894,N,00134.6177,W,1,0,,187.0,M,,M,,*41
$GPRMC,125635.000,A,5312.6894,N,00134.6177,W,0.000,0.00,251112,,A*65
$GPGGA,125650.000,5312.6766,N,00134.6235,W,1,0,,187.0,M,,M,,*45
$GPRMC,125650.000,A,5312.6766,N,00134.6235,W,0.000,0.00,251112,,A*61
$GPGGA,125706.000,5312.6579,N,00134.6202,W,1,0,,187.0,M,,M,,*4F
$GPRMC,125706.000,A,5312.6579,N,00134.6202,W,0.000,0.00,251112,,A*6B
$GPGGA,125721.000,5312.6569,N,00134.6128,W,1,0,,187.0,M,,M,,*40
$GPRMC,125721.000,A,5312.6569,N,00134.6128,W,0.000,0.00,251112,,A*64
$GPGGA,125736.000,5312.6505,N,00134.6106,W,1,0,,188.0,M,,M,,*4F
$GPRMC,125736.000,A,5312.6505,N,00134.6106,W,0.000,0.00,251112,,A*64
$GPGGA,125752.000,5312.6473,N,00134.6041,W,1,0,,188.0,M,,M,,*4F
$GPRMC,125752.000,A,5312.6473,N,00134.6041,W,0.000,0.00,251112,,A*64
$GPGGA,125807.000,5312.6663,N,00134.5753,W,1,0,,188.0,M,,M,,*44
$GPRMC,125807.000,A,5312.6663,N,00134.5753,W,0.000,0.00,251112,,A*6F
$GPGGA,125822.000,5312.6590,N,00134.5700,W,1,0,,188.0,M,,M,,*4A
$GPRMC,125822.000,A,5312.6590,N,00134.5700,W,0.000,0.00,251112,,A*61
$GPGGA,125837.000,5312.6574,N,00134.5686,W,1,0,,189.0,M,,M,,*4A
$GPRMC,125837.000,A,5312.6574,N,00134.5686,W,0.000,0.00,251112,,A*60
$GPGGA,125853.000,5312.6487,N,00134.5582,W,1,0,,189.0,M,,M,,*42
$GPRMC,125853.000,A,5312.6487,N,00134.5582,W,0.000,0.00,251112,,A*68
$GPGGA,125908.000,5312.6400,N,00134.5534,W,1,0,,189.0,M,,M,,*4F
$GPRMC,125908.000,A,5312.6400,N,00134.5534,W,0.000,0.00,251112,,A*65
$GPGGA,125923.000,5312.6308,N,00134.5478,W,1,0,,189.0,M,,M,,*40
$GPRMC,125923.000,A,5312.6308,N,00134.5478,W,0.000,0.00,251112,,A*6A
$GPGGA,125939.000,5312.6219,N,00134.5238,W,1,0,,189.0,M,,M,,*48
$GPRMC,125939.000,A,5312.6219,N,00134.5238,W,0.000,0.00,251112,,A*62
$GPGGA,125954.000,5312.6201,N,00134.5221,W,1,0,,189.0,M,,M,,*42
$GPRMC,125954.000,A,5312.6201,N,00134.5221,W,0.000,0.00,251112,,A*68
$GPGGA,130009.000,5312.5949,N,00134.5382,W,1,0,,189.0,M,,M,,*4B
$GPRMC,130009.000,A,5312.5949,N,00134.5382,W,0.000,0.00,251112,,A*61
$GPGGA,130024.000,5312.5924,N,00134.5316,W,1,0,,189.0,M,,M,,*42
$GPRMC,130024.000,A,5312.5924,N,00134.5316,W,0.000,0.00,251112,,A*68
$GPGGA,130040.000,5312.5864,N,00134.5239,W,1,0,,189.0,M,,M,,*49
$GPRMC,130040.000,A,5312.5864,N,00134.5239,W,0.000,0.00,251112,,A*63
$GPGGA,130055.000,5312.5867,N,00134.4972,W,1,0,,189.0,M,,M,,*4B
$GPRMC,130055.000,A,5312.5867,N,00134.4972,W,0.000,0.00,251112,,A*61
$GPGGA,130110.000,5312.5869,N,00134.4884,W,1,0,,189.0,M,,M,,*4D
$GPRMC,130110.000,A,5312.5869,N,00134.4884,W,0.000,0.00,251112,,A*67
$GPGGA,130126.000,5312.5844,N,00134.4772,W,1,0,,189.0,M,,M,,*41
$GPRMC,130126.000,A,5312.5844,N,00134.4772,W,0.000,0.00,251112,,A*6B
$GPGGA,130141.000,5312.5903,N,00134.4401,W,1,0,,189.0,M,,M,,*45
$GPRMC,130141.000,A,5312.5903,N,00134.4401,W,0.000,0.00,251112,,A*6F
$GPGGA,130156.000,5312.5974,N,00134.4134,W,1,0,,190.0,M,,M,,*48
$GPRMC,130156.000,A,5312.5974,N,00134.4134,W,0.000,0.00,251112,,A*6A
$GPGGA,130211.000,5312.5926,N,00134.4153,W,1,0,,190.0,M,,M,,*4E
$GPRMC,130211.000,A,5312.5926,N,00134.4153,W,0.000,0.00,251112,,A*6C
$GPGGA,130227.000,5312.5839,N,00134.4081,W,1,0,,190.0,M,,M,,*4A
$GPRMC,130227.000,A,5312.5839,N,00134.4081,W,0.000,0.00,251112,,A*68
$GPGGA,130242.000,5312.5839,N,00134.4067,W,1,0,,190.0,M,,M,,*41
$GPRMC,130242.000,A,5312.5839,N,00134.4067,W,0.000,0.00,251112,,A*63
$GPGGA,130257.000,5312.5848,N,00134.4066,W,1,0,,190.0,M,,M,,*42
$GPRMC,130257.000,A,5312.5848,N,00134.4066,W,0.000,0.00,251112,,A*60
$GPGGA,130313.000,5312.5814,N,00134.4010,W,1,0,,190.0,M,,M,,*4B
$GPRMC,130313.000,A,5312.5814,N,00134.4010,W,0.000,0.00,251112,,A*69
$GPGGA,130328.000,5312.5768,N,00134.3914,W,1,0,,190.0,M,,M,,*4D
$GPRMC,130328.000,A,5312.5768,N,00134.3914,W,0.000,0.00,251112,,A*6F
$GPGGA,130343.000,5312.5720,N,00134.3931,W,1,0,,190.0,M,,M,,*4B
$GPRMC,130343.000,A,5312.5720,N,00134.3931,W,0.000,0.00,251112,,A*69
$GPGGA,130358.000,5312.5624,N,00134.3838,W,1,0,,191.0,M,,M,,*4D
$GPRMC,130358.000,A,5312.5624,N,00134.3838,W,0.000,0.00,251112,,A*6E
$GPGGA,130414.000,5312.5601,N,00134.3846,W,1,0,,191.0,M,,M,,*4C
$GPRMC,130414.000,A,5312.5601,N,00134.3846,W,0.000,0.00,251112,,A*6F
$GPGGA,130429.000,5312.5505,N,00134.3899,W,1,0,,190.0,M,,M,,*46
$GPRMC,130429.000,A,5312.5505,N,00134.3899,W,0.000,0.00,251112,,A*64
$GPGGA,130444.000,5312.5455,N,00134.3994,W,1,0,,190.0,M,,M,,*45
$GPRMC,130444.000,A,5312.5455,N,00134.3994,W,0.000,0.00,251112,,A*67
$GPGGA,130500.000,5312.5420,N,00134.4057,W,1,0,,190.0,M,,M,,*47
$GPRMC,130500.000,A,5312.5420,N,00134.4057,W,0.000,0.00,251112,,A*65
$GPGGA,130515.000,5312.5324,N,00134.4040,W,1,0,,190.0,M,,M,,*46
$GPRMC,130515.000,A,5312.5324,N,00134.4040,W,0.000,0.00,251112,,A*64
$GPGGA,130530.000,5312.5159,N,00134.4251,W,1,0,,190.0,M,,M,,*4B
$GPRMC,130530.000,A,5312.5159,N,00134.4251,W,0.000,0.00,251112,,A*69
$GPGGA,130545.000,5312.5116,N,00134.4331,W,1,0,,190.0,M,,M,,*45
$GPRMC,130545.000,A,5312.5116,N,00134.4331,W,0.000,0.00,251112,,A*67
$GPGGA,130601.000,5312.5089,N,00134.4347,W,1,0,,190.0,M,,M,,*40
$GPRMC,130601.000,A,5312.5089,N,00134.4347,W,0.000,0.00,251112,,A*62
$GPGGA,130616.000,5312.5027,N,00134.4449,W,1,0,,190.0,M,,M,,*4B
$GPRMC,130616.000,A,5312.5027,N,00134.4449,W,0.000,0.00,251112,,A*69
$GPGGA,130631.000,5312.5004,N,00134.4514,W,1,0,,189.0,M,,M,,*4E
$GPRMC,130631.000,A,5312.5004,N,00134.4514,W,0.000,0.00,251112,,A*64
$GPGGA,130653.000,5312.4953,N,00134.4573,W,1,0,,189.0,M,,M,,*41
$GPRMC,130653.000,A,5312.4953,N,00134.4573,W,0.000,0.00,251112,,A*6B
$GPGGA,130710.000,5312.4862,N,00134.4817,W,1,0,,189.0,M,,M,,*4B
$GPRMC,130710.000,A,5312.4862,N,00134.4817,W,0.000,0.00,251112,,A*61
$GPGGA,130726.000,5312.4823,N,00134.4852,W,1,0,,189.0,M,,M,,*4A
$GPRMC,130726.000,A,5312.4823,N,00134.4852,W,0.000,0.00,251112,,A*60
$GPGGA,130741.000,5312.4763,N,00134.4922,W,1,0,,189.0,M,,M,,*46
$GPRMC,130741.000,A,5312.4763,N,00134.4922,W,0.000,0.00,251112,,A*6C
$GPGGA,130756.000,5312.4734,N,00134.4963,W,1,0,,189.0,M,,M,,*47
$GPRMC,130756.000,A,5312.4734,N,00134.4963,W,0.000,0.00,251112,,A*6D
$GPGGA,130811.000,5312.4681,N,00134.5111,W,1,0,,189.0,M,,M,,*48
$GPRMC,130811.000,A,5312.4681,N,00134.5111,W,0.000,0.00,251112,,A*62
$GPGGA,130827.000,5312.4576,N,00134.5366,W,1,0,,189.0,M,,M,,*44
$GPRMC,130827.000,A,5312.4576,N,00134.5366,W,0.000,0.00,251112,,A*6E
$GPGGA,130842.000,5312.4551,N,00134.5353,W,1,0,,189.0,M,,M,,*44
$GPRMC,130842.000,A,5312.4551,N,00134.5353,W,0.000,0.00,251112,,A*6E
$GPGGA,130858.000,5312.4553,N,00134.5345,W,1,0,,189.0,M,,M,,*4A
$GPRMC,130858.000,A,5312.4553,N,00134.5345,W,0.000,0.00,251112,,A*60
$GPGGA,130927.000,5312.4418,N,00134.5375,W,1,0,,189.0,M,,M,,*4E
$GPRMC,130927.000,A,5312.4418,N,00134.5375,W,0.000,0.00,251112,,A*64
$GPGGA,130942.000,5312.4331,N,00134.5531,W,1,0,,189.0,M,,M,,*47
$GPRMC,130942.000,A,5312.4331,N,00134.5531,W,0.000,0.00,251112,,A*6D
$GPGGA,130957.000,5312.4315,N,00134.5564,W,1,0,,189.0,M,,M,,*45
$GPRMC,130957.000,A,5312.4315,N,00134.5564,W,0.000,0.00,251112,,A*6F
$GPGGA,131012.000,5312.4290,N,00134.5569,W,1,0,,189.0,M,,M,,*4D
$GPRMC,131012.000,A,5312.4290,N,00134.5569,W,0.000,0.00,251112,,A*67
$GPGGA,131027.000,5312.4226,N,00134.5568,W,1,0,,189.0,M,,M,,*47
$GPRMC,131027.000,A,5312.4226,N,00134.5568,W,0.000,0.00,251112,,A*6D
$GPGGA,131042.000,5312.4157,N,00134.5554,W,1,0,,189.0,M,,M,,*4E
$GPRMC,131042.000,A,5312.4157,N,00134.5554,W,0.000,0.00,251112,,A*64
$GPGGA,131058.000,5312.4068,N,00134.5534,W,1,0,,189.0,M,,M,,*4E
$GPRMC,131058.000,A,5312.4068,N,00134.5534,W,0.000,0.00,251112,,A*64
$GPGGA,131113.000,5312.4059,N,00134.5538,W,1,0,,189.0,M,,M,,*4E
$GPRMC,131113.000,A,5312.4059,N,00134.5538,W,0.000,0.00,251112,,A*64
$GPGGA,131128.000,5312.3944,N,00134.5629,W,1,0,,189.0,M,,M,,*47
$GPRMC,131128.000,A,5312.3944,N,00134.5629,W,0.000,0.00,251112,,A*6D
$GPGGA,131143.000,5312.3940,N,00134.5691,W,1,0,,189.0,M,,M,,*4D
$GPRMC,131143.000,A,5312.3940,N,00134.5691,W,0.000,0.00,251112,,A*67
$GPGGA,131158.000,5312.3832,N,00134.5751,W,1,0,,189.0,M,,M,,*4E
$GPRMC,131158.000,A,5312.3832,N,00134.5751,W,0.000,0.00,251112,,A*64
$GPGGA,131213.000,5312.3809,N,00134.5767,W,1,0,,189.0,M,,M,,*4F
$GPRMC,131213.000,A,5312.3809,N,00134.5767,W,0.000,0.00,251112,,A*65
$GPGGA,131228.000,5312.3665,N,00134.5792,W,1,0,,189.0,M,,M,,*49
$GPRMC,131228.000,A,5312.3665,N,00134.5792,W,0.000,0.00,251112,,A*63
$GPGGA,131244.000,5312.3644,N,00134.5832,W,1,0,,189.0,M,,M,,*45
$GPRMC,131244.000,A,5312.3644,N,00134.5832,W,0.000,0.00,251112,,A*6F
$GPGGA,131259.000,5312.3601,N,00134.5851,W,1,0,,189.0,M,,M,,*4D
$GPRMC,131259.000,A,5312.3601,N,00134.5851,W,0.000,0.00,251112,,A*67
$GPGGA,131314.000,5312.3585,N,00134.5873,W,1,0,,189.0,M,,M,,*4A
$GPRMC,131314.000,A,5312.3585,N,00134.5873,W,0.000,0.00,251112,,A*60
$GPGGA,131329.000,5312.3502,N,00134.5982,W,1,0,,189.0,M,,M,,*44
$GPRMC,131329.000,A,5312.3502,N,00134.5982,W,0.000,0.00,251112,,A*6E
$GPGGA,131346.000,5312.3452,N,00134.6040,W,1,0,,190.0,M,,M,,*45
$GPRMC,131346.000,A,5312.3452,N,00134.6040,W,0.000,0.00,251112,,A*67
$GPGGA,131401.000,5312.3411,N,00134.5931,W,1,0,,190.0,M,,M,,*4A
$GPRMC,131401.000,A,5312.3411,N,00134.5931,W,0.000,0.00,251112,,A*68
$GPGGA,131416.000,5312.3427,N,00134.5948,W,1,0,,189.0,M,,M,,*4F
$GPRMC,131416.000,A,5312.3427,N,00134.5948,W,0.000,0.00,251112,,A*65
$GPGGA,131431.000,5312.3466,N,00134.6010,W,1,0,,189.0,M,,M,,*48
$GPRMC,131431.000,A,5312.3466,N,00134.6010,W,0.000,0.00,251112,,A*62
$GPGGA,131446.000,5312.3422,N,00134.6090,W,1,0,,189.0,M,,M,,*40
$GPRMC,131446.000,A,5312.3422,N,00134.6090,W,0.000,0.00,251112,,A*6A
$GPGGA,131501.000,5312.3372,N,00134.6188,W,1,0,,190.0,M,,M,,*40
$GPRMC,131501.000,A,5312.3372,N,00134.6188,W,0.000,0.00,251112,,A*62
$GPGGA,131517.000,5312.3239,N,00134.6247,W,1,0,,189.0,M,,M,,*41
$GPRMC,131517.000,A,5312.3239,N,00134.6247,W,0.000,0.00,251112,,A*6B
$GPGGA,131532.000,5312.3164,N,00134.6394,W,1,0,,190.0,M,,M,,*4A
$GPRMC,131532.000,A,5312.3164,N,00134.6394,W,0.000,0.00,251112,,A*68
$GPGGA,131548.000,5312.3111,N,00134.6499,W,1,0,,190.0,M,,M,,*4F
$GPRMC,131548.000,A,5312.3111,N,00134.6499,W,0.000,0.00,251112,,A*6D
$GPGGA,131603.000,5312.3003,N,00134.6635,W,1,0,,190.0,M,,M,,*45
$GPRMC,131603.000,A,5312.3003,N,00134.6635,W,0.000,0.00,251112,,A*67
$GPGGA,131619.000,5312.2944,N,00134.6674,W,1,0,,190.0,M,,M,,*40
$GPRMC,131619.000,A,5312.2944,N,00134.6674,W,0.000,0.00,251112,,A*62
$GPGGA,131634.000,5312.2919,N,00134.6821,W,1,0,,190.0,M,,M,,*49
$GPRMC,131634.000,A,5312.2919,N,00134.6821,W,0.000,0.00,251112,,A*6B
$GPGGA,131649.000,5312.2825,N,00134.6795,W,1,0,,190.0,M,,M,,*4D
$GPRMC,131649.000,A,5312.2825,N,00134.6795,W,0.000,0.00,251112,,A*6F
$GPGGA,131704.000,5312.2784,N,00134.6905,W,1,0,,190.0,M,,M,,*46
$GPRMC,131704.000,A,5312.2784,N,00134.6905,W,0.000,0.00,251112,,A*64
$GPGGA,131720.000,5312.2765,N,00134.7037,W,1,0,,190.0,M,,M,,*46
$GPRMC,131720.000,A,5312.2765,N,00134.7037,W,0.000,0.00,251112,,A*64
$GPGGA,131735.000,5312.2690,N,00134.7128,W,1,0,,191.0,M,,M,,*47
$GPRMC,131735.000,A,5312.2690,N,00134.7128,W,0.000,0.00,251112,,A*64
$GPGGA,131750.000,5312.2637,N,00134.7168,W,1,0,,191.0,M,,M,,*4D
$GPRMC,131750.000,A,5312.2637,N,00134.7168,W,0.000,0.00,251112,,A*6E
$GPGGA,131805.000,5312.2587,N,00134.7197,W,1,0,,191.0,M,,M,,*4A
$GPRMC,131805.000,A,5312.2587,N,00134.7197,W,0.000,0.00,251112,,A*69
$GPGGA,131821.000,5312.2596,N,00134.7264,W,1,0,,191.0,M,,M,,*43
$GPRMC,131821.000,A,5312.2596,N,00134.7264,W,0.000,0.00,251112,,A*60
$GPGGA,131836.000,5312.2589,N,00134.7317,W,1,0,,191.0,M,,M,,*4E
$GPRMC,131836.000,A,5312.2589,N,00134.7317,W,0.000,0.00,251112,,A*6D
$GPGGA,131851.000,5312.2536,N,00134.7401,W,1,0,,191.0,M,,M,,*4B
$GPRMC,131851.000,A,5312.2536,N,00134.7401,W,0.000,0.00,251112,,A*68
$GPGGA,131906.000,5312.2559,N,00134.7449,W,1,0,,191.0,M,,M,,*4D
$GPRMC,131906.000,A,5312.2559,N,00134.7449,W,0.000,0.00,251112,,A*6E
$GPGGA,131922.000,5312.2502,N,00134.7572,W,1,0,,191.0,M,,M,,*4C
$GPRMC,131922.000,A,5312.2502,N,00134.7572,W,0.000,0.00,251112,,A*6F
$GPGGA,131937.000,5312.2482,N,00134.7644,W,1,0,,191.0,M,,M,,*47
$GPRMC,131937.000,A,5312.2482,N,00134.7644,W,0.000,0.00,251112,,A*64
$GPGGA,131952.000,5312.2486,N,00134.7696,W,1,0,,191.0,M,,M,,*4F
$GPRMC,131952.000,A,5312.2486,N,00134.7696,W,0.000,0.00,251112,,A*6C
$GPGGA,132008.000,5312.2429,N,00134.7840,W,1,0,,192.0,M,,M,,*49
$GPRMC,132008.000,A,5312.2429,N,00134.7840,W,0.000,0.00,251112,,A*69
$GPGGA,132023.000,5312.2395,N,00134.7960,W,1,0,,192.0,M,,M,,*43
$GPRMC,132023.000,A,5312.2395,N,00134.7960,W,0.000,0.00,251112,,A*63
$GPGGA,132038.000,5312.2449,N,00134.7985,W,1,0,,192.0,M,,M,,*44
$GPRMC,132038.000,A,5312.2449,N,00134.7985,W,0.000,0.00,251112,,A*64
$GPGGA,132054.000,5312.2447,N,00134.8080,W,1,0,,192.0,M,,M,,*43
$GPRMC,132054.000,A,5312.2447,N,00134.8080,W,0.000,0.00,251112,,A*63
$GPGGA,132109.000,5312.2445,N,00134.8110,W,1,0,,192.0,M,,M,,*40
$GPRMC,132109.000,A,5312.2445,N,00134.8110,W,0.000,0.00,251112,,A*60
$GPGGA,132124.000,5312.2427,N,00134.8156,W,1,0,,192.0,M,,M,,*49
$GPRMC,132124.000,A,5312.2427,N,00134.8156,W,0.000,0.00,251112,,A*69
$GPGGA,132140.000,5312.2525,N,00134.8361,W,1,0,,192.0,M,,M,,*4E
$GPRMC,132140.000,A,5312.2525,N,00134.8361,W,0.000,0.00,251112,,A*6E
$GPGGA,132155.000,5312.2564,N,00134.8512,W,1,0,,192.0,M,,M,,*4D
$GPRMC,132155.000,A,5312.2564,N,00134.8512,W,0.000,0.00,251112,,A*6D
$GPGGA,132210.000,5312.2527,N,00134.8575,W,1,0,,192.0,M,,M,,*49
$GPRMC,132210.000,A,5312.2527,N,00134.8575,W,0.000,0.00,251112,,A*69
$GPGGA,132226.000,5312.2498,N,00134.8637,W,1,0,,192.0,M,,M,,*4C
$GPRMC,132226.000,A,5312.2498,N,00134.8637,W,0.000,0.00,251112,,A*6C
$GPGGA,132242.000,5312.2504,N,00134.8676,W,1,0,,192.0,M,,M,,*4F
$GPRMC,132242.000,A,5312.2504,N,00134.8676,W,0.000,0.00,251112,,A*6F
$GPGGA,132258.000,5312.2514,N,00134.8654,W,1,0,,192.0,M,,M,,*45
$GPRMC,132258.000,A,5312.2514,N,00134.8654,W,0.000,0.00,251112,,A*65
$GPGGA,132313.000,5312.2569,N,00134.8690,W,1,0,,192.0,M,,M,,*49
$GPRMC,132313.000,A,5312.2569,N,00134.8690,W,0.000,0.00,251112,,A*69
$GPGGA,132328.000,5312.2557,N,00134.8768,W,1,0,,192.0,M,,M,,*4A
