@Sonygps/ver3.0/wgs-84/
$GPGGA,111056.000,5316.1565,N,00136.3497,W,1,0,,313.0,M,,M,,*46
$GPRMC,111056.000,A,5316.1565,N,00136.3497,W,0.000,0.00,211012,,A*68
$GPGGA,111304.000,5316.1948,N,00136.2598,W,1,0,,312.0,M,,M,,*4F
$GPRMC,111304.000,A,5316.1948,N,00136.2598,W,0.000,0.00,211012,,A*60
$GPGGA,111319.000,5316.2035,N,00136.2409,W,1,0,,313.0,M,,M,,*4B
$GPRMC,111319.000,A,5316.2035,N,00136.2409,W,0.000,0.00,211012,,A*65
$GPGGA,111339.000,5316.2138,N,00136.2339,W,1,0,,313.0,M,,M,,*41
$GPRMC,111339.000,A,5316.2138,N,00136.2339,W,0.000,0.00,211012,,A*6F
$GPGGA,111354.000,5316.2250,N,00136.2281,W,1,0,,313.0,M,,M,,*45
$GPRMC,111354.000,A,5316.2250,N,00136.2281,W,0.000,0.00,211012,,A*6B
$GPGGA,111409.000,5316.2328,N,00136.2194,W,1,0,,313.0,M,,M,,*43
$GPRMC,111409.000,A,5316.2328,N,00136.2194,W,0.000,0.00,211012,,A*6D
$GPGGA,111424.000,5316.2373,N,00136.2104,W,1,0,,313.0,M,,M,,*4B
$GPRMC,111424.000,A,5316.2373,N,00136.2104,W,0.000,0.00,211012,,A*65
$GPGGA,111439.000,5316.2451,N,00136.2021,W,1,0,,313.0,M,,M,,*46
$GPRMC,111439.000,A,5316.2451,N,00136.2021,W,0.000,0.00,211012,,A*68
$GPGGA,111457.000,5316.2582,N,00136.1760,W,1,0,,312.0,M,,M,,*41
$GPRMC,111457.000,A,5316.2582,N,00136.1760,W,0.000,0.00,211012,,A*6E
$GPGGA,111513.000,5316.2627,N,00136.1568,W,1,0,,312.0,M,,M,,*46
$GPRMC,111513.000,A,5316.2627,N,00136.1568,W,0.000,0.00,211012,,A*69
$GPGGA,111528.000,5316.2691,N,00136.1493,W,1,0,,312.0,M,,M,,*46
$GPRMC,111528.000,A,5316.2691,N,00136.1493,W,0.000,0.00,211012,,A*69
$GPGGA,111543.000,5316.2744,N,00136.1433,W,1,0,,311.0,M,,M,,*4B
$GPRMC,111543.000,A,5316.2744,N,00136.1433,W,0.000,0.00,211012,,A*67
$GPGGA,111558.000,5316.2840,N,00136.1305,W,1,0,,311.0,M,,M,,*48
$GPRMC,111558.000,A,5316.2840,N,00136.1305,W,0.000,0.00,211012,,A*64
$GPGGA,111613.000,5316.2849,N,00136.1263,W,1,0,,311.0,M,,M,,*4C
$GPRMC,111613.000,A,5316.2849,N,00136.1263,W,0.000,0.00,211012,,A*60
$GPGGA,111630.000,5316.2875,N,00136.1206,W,1,0,,311.0,M,,M,,*41
$GPRMC,111630.000,A,5316.2875,N,00136.1206,W,0.000,0.00,211012,,A*6D
$GPGGA,111652.000,5316.2948,N,00136.1090,W,1,0,,311.0,M,,M,,*47
$GPRMC,111652.000,A,5316.2948,N,00136.1090,W,0.000,0.00,211012,,A*6B
$GPGGA,111708.000,5316.3019,N,00136.0915,W,1,0,,311.0,M,,M,,*40
$GPRMC,111708.000,A,5316.3019,N,00136.0915,W,0.000,0.00,211012,,A*6C
$GPGGA,111724.000,5316.3028,N,00136.0833,W,1,0,,311.0,M,,M,,*49
$GPRMC,111724.000,A,5316.3028,N,00136.0833,W,0.000,0.00,211012,,A*65
$GPGGA,111740.000,5316.3060,N,00136.0731,W,1,0,,311.0,M,,M,,*4A
$GPRMC,111740.000,A,5316.3060,N,00136.0731,W,0.000,0.00,211012,,A*66
$GPGGA,111755.000,5316.3069,N,00136.0611,W,1,0,,311.0,M,,M,,*44
$GPRMC,111755.000,A,5316.3069,N,00136.0611,W,0.000,0.00,211012,,A*68
$GPGGA,111810.000,5316.3122,N,00136.0505,W,1,0,,311.0,M,,M,,*42
$GPRMC,111810.000,A,5316.3122,N,00136.0505,W,0.000,0.00,211012,,A*6E
$GPGGA,111825.000,5316.3206,N,00136.0292,W,1,0,,311.0,M,,M,,*48
$GPRMC,111825.000,A,5316.3206,N,00136.0292,W,0.000,0.00,211012,,A*64
$GPGGA,111840.000,5316.3243,N,00136.0260,W,1,0,,311.0,M,,M,,*47
$GPRMC,111840.000,A,5316.3243,N,00136.0260,W,0.000,0.00,211012,,A*6B
$GPGGA,111856.000,5316.3289,N,00136.0149,W,1,0,,311.0,M,,M,,*4E
$GPRMC,111856.000,A,5316.3289,N,00136.0149,W,0.000,0.00,211012,,A*62
$GPGGA,111912.000,5316.3337,N,00136.0058,W,1,0,,312.0,M,,M,,*49
$GPRMC,111912.000,A,5316.3337,N,00136.0058,W,0.000,0.00,211012,,A*66
$GPGGA,111927.000,5316.3376,N,00136.0068,W,1,0,,312.0,M,,M,,*49
$GPRMC,111927.000,A,5316.3376,N,00136.0068,W,0.000,0.00,211012,,A*66
$GPGGA,111942.000,5316.3451,N,00136.0088,W,1,0,,312.0,M,,M,,*46
$GPRMC,111942.000,A,5316.3451,N,00136.0088,W,0.000,0.00,211012,,A*69
$GPGGA,111958.000,5316.3527,N,00136.0188,W,1,0,,312.0,M,,M,,*4C
$GPRMC,111958.000,A,5316.3527,N,00136.0188,W,0.000,0.00,211012,,A*63
$GPGGA,112013.000,5316.3564,N,00136.0207,W,1,0,,312.0,M,,M,,*4A
$GPRMC,112013.000,A,5316.3564,N,00136.0207,W,0.000,0.00,211012,,A*65
$GPGGA,112028.000,5316.3628,N,00136.0243,W,1,0,,313.0,M,,M,,*48
$GPRMC,112028.000,A,5316.3628,N,00136.0243,W,0.000,0.00,211012,,A*66
$GPGGA,112043.000,5316.3701,N,00136.0269,W,1,0,,313.0,M,,M,,*47
$GPRMC,112043.000,A,5316.3701,N,00136.0269,W,0.000,0.00,211012,,A*69
$GPGGA,112058.000,5316.3742,N,00136.0262,W,1,0,,318.0,M,,M,,*4A
$GPRMC,112058.000,A,5316.3742,N,00136.0262,W,0.000,0.00,211012,,A*6F
$GPGGA,112113.000,5316.3728,N,00136.0290,W,1,0,,314.0,M,,M,,*49
$GPRMC,112113.000,A,5316.3728,N,00136.0290,W,0.000,0.00,211012,,A*60
$GPGGA,112131.000,5316.3774,N,00136.0339,W,1,0,,313.0,M,,M,,*45
$GPRMC,112131.000,A,5316.3774,N,00136.0339,W,0.000,0.00,211012,,A*6B
$GPGGA,112147.000,5316.3850,N,00136.0421,W,1,0,,313.0,M,,M,,*43
$GPRMC,112147.000,A,5316.3850,N,00136.0421,W,0.000,0.00,211012,,A*6D
$GPGGA,112206.000,5316.3960,N,00136.0475,W,1,0,,313.0,M,,M,,*46
$GPRMC,112206.000,A,5316.3960,N,00136.0475,W,0.000,0.00,211012,,A*68
$GPGGA,112221.000,5316.4053,N,00136.0603,W,1,0,,314.0,M,,M,,*49
$GPRMC,112221.000,A,5316.4053,N,00136.0603,W,0.000,0.00,211012,,A*60
$GPGGA,112236.000,5316.4127,N,00136.0692,W,1,0,,314.0,M,,M,,*45
$GPRMC,112236.000,A,5316.4127,N,00136.0692,W,0.000,0.00,211012,,A*6C
$GPGGA,112252.000,5316.4214,N,00136.0767,W,1,0,,315.0,M,,M,,*4E
$GPRMC,112252.000,A,5316.4214,N,00136.0767,W,0.000,0.00,211012,,A*66
$GPGGA,112307.000,5316.4303,N,00136.0846,W,1,0,,315.0,M,,M,,*44
$GPRMC,112307.000,A,5316.4303,N,00136.0846,W,0.000,0.00,211012,,A*6C
$GPGGA,112322.000,5316.4385,N,00136.1006,W,1,0,,315.0,M,,M,,*40
$GPRMC,112322.000,A,5316.4385,N,00136.1006,W,0.000,0.00,211012,,A*68
$GPGGA,112337.000,5316.4392,N,00136.1131,W,1,0,,315.0,M,,M,,*47
$GPRMC,112337.000,A,5316.4392,N,00136.1131,W,0.000,0.00,211012,,A*6F
$GPGGA,112400.000,5316.4509,N,00136.1313,W,1,0,,314.0,M,,M,,*43
$GPRMC,112400.000,A,5316.4509,N,00136.1313,W,0.000,0.00,211012,,A*6A
$GPGGA,112418.000,5316.4632,N,00136.1529,W,1,0,,314.0,M,,M,,*4E
$GPRMC,112418.000,A,5316.4632,N,00136.1529,W,0.000,0.00,211012,,A*67
$GPGGA,112433.000,5316.4639,N,00136.1615,W,1,0,,314.0,M,,M,,*40
$GPRMC,112433.000,A,5316.4639,N,00136.1615,W,0.000,0.00,211012,,A*69
$GPGGA,112448.000,5316.4683,N,00136.1687,W,1,0,,314.0,M,,M,,*46
$GPRMC,112448.000,A,5316.4683,N,00136.1687,W,0.000,0.00,211012,,A*6F
$GPGGA,112503.000,5316.4756,N,00136.1777,W,1,0,,315.0,M,,M,,*4E
$GPRMC,112503.000,A,5316.4756,N,00136.1777,W,0.000,0.00,211012,,A*66
$GPGGA,112519.000,5316.4845,N,00136.1850,W,1,0,,315.0,M,,M,,*42
$GPRMC,112519.000,A,5316.4845,N,00136.1850,W,0.000,0.00,211012,,A*6A
$GPGGA,112534.000,5316.4914,N,00136.1937,W,1,0,,315.0,M,,M,,*48
$GPRMC,112534.000,A,5316.4914,N,00136.1937,W,0.000,0.00,211012,,A*60
$GPGGA,112550.000,5316.5017,N,00136.2010,W,1,0,,316.0,M,,M,,*4D
$GPRMC,112550.000,A,5316.5017,N,00136.2010,W,0.000,0.00,211012,,A*66
$GPGGA,112605.000,5316.5102,N,00136.2046,W,1,0,,316.0,M,,M,,*48
$GPRMC,112605.000,A,5316.5102,N,00136.2046,W,0.000,0.00,211012,,A*63
$GPGGA,112624.000,5316.5184,N,00136.2186,W,1,0,,316.0,M,,M,,*48
$GPRMC,112624.000,A,5316.5184,N,00136.2186,W,0.000,0.00,211012,,A*63
$GPGGA,112639.000,5316.5273,N,00136.2241,W,1,0,,317.0,M,,M,,*46
$GPRMC,112639.000,A,5316.5273,N,00136.2241,W,0.000,0.00,211012,,A*6C
$GPGGA,112654.000,5316.5367,N,00136.2326,W,1,0,,316.0,M,,M,,*48
$GPRMC,112654.000,A,5316.5367,N,00136.2326,W,0.000,0.00,211012,,A*63
$GPGGA,112710.000,5316.5472,N,00136.2359,W,1,0,,317.0,M,,M,,*43
$GPRMC,112710.000,A,5316.5472,N,00136.2359,W,0.000,0.00,211012,,A*69
$GPGGA,112725.000,5316.5580,N,00136.2367,W,1,0,,317.0,M,,M,,*44
$GPRMC,112725.000,A,5316.5580,N,00136.2367,W,0.000,0.00,211012,,A*6E
$GPGGA,112740.000,5316.5644,N,00136.2398,W,1,0,,318.0,M,,M,,*43
$GPRMC,112740.000,A,5316.5644,N,00136.2398,W,0.000,0.00,211012,,A*66
$GPGGA,112755.000,5316.5692,N,00136.2574,W,1,0,,317.0,M,,M,,*47
$GPRMC,112755.000,A,5316.5692,N,00136.2574,W,0.000,0.00,211012,,A*6D
$GPGGA,112811.000,5316.5864,N,00136.2546,W,1,0,,317.0,M,,M,,*4E
$GPRMC,112811.000,A,5316.5864,N,00136.2546,W,0.000,0.00,211012,,A*64
$GPGGA,112826.000,5316.5974,N,00136.2578,W,1,0,,317.0,M,,M,,*47
$GPRMC,112826.000,A,5316.5974,N,00136.2578,W,0.000,0.00,211012,,A*6D
$GPGGA,112841.000,5316.6074,N,00136.2768,W,1,0,,317.0,M,,M,,*4F
$GPRMC,112841.000,A,5316.6074,N,00136.2768,W,0.000,0.00,211012,,A*65
$GPGGA,112856.000,5316.6065,N,00136.2819,W,1,0,,317.0,M,,M,,*40
$GPRMC,112856.000,A,5316.6065,N,00136.2819,W,0.000,0.00,211012,,A*6A
$GPGGA,112911.000,5316.6141,N,00136.2891,W,1,0,,318.0,M,,M,,*4A
$GPRMC,112911.000,A,5316.6141,N,00136.2891,W,0.000,0.00,211012,,A*6F
$GPGGA,112927.000,5316.6168,N,00136.2995,W,1,0,,318.0,M,,M,,*41
$GPRMC,112927.000,A,5316.6168,N,00136.2995,W,0.000,0.00,211012,,A*64
$GPGGA,112943.000,5316.6315,N,00136.2951,W,1,0,,318.0,M,,M,,*43
$GPRMC,112943.000,A,5316.6315,N,00136.2951,W,0.000,0.00,211012,,A*66
$GPGGA,112958.000,5316.6420,N,00136.2997,W,1,0,,318.0,M,,M,,*42
$GPRMC,112958.000,A,5316.6420,N,00136.2997,W,0.000,0.00,211012,,A*67
$GPGGA,113022.000,5316.6566,N,00136.3146,W,1,0,,319.0,M,,M,,*40
$GPRMC,113022.000,A,5316.6566,N,00136.3146,W,0.000,0.00,211012,,A*64
$GPGGA,113037.000,5316.6599,N,00136.3329,W,1,0,,319.0,M,,M,,*4F
$GPRMC,113037.000,A,5316.6599,N,00136.3329,W,0.000,0.00,211012,,A*6B
$GPGGA,113052.000,5316.6681,N,00136.3360,W,1,0,,318.0,M,,M,,*4A
$GPRMC,113052.000,A,5316.6681,N,00136.3360,W,0.000,0.00,211012,,A*6F
$GPGGA,113107.000,5316.6663,N,00136.3510,W,1,0,,318.0,M,,M,,*46
$GPRMC,113107.000,A,5316.6663,N,00136.3510,W,0.000,0.00,211012,,A*63
$GPGGA,113122.000,5316.6743,N,00136.3639,W,1,0,,318.0,M,,M,,*4A
$GPRMC,113122.000,A,5316.6743,N,00136.3639,W,0.000,0.00,211012,,A*6F
$GPGGA,113137.000,5316.6873,N,00136.3667,W,1,0,,318.0,M,,M,,*49
$GPRMC,113137.000,A,5316.6873,N,00136.3667,W,0.000,0.00,211012,,A*6C
$GPGGA,113153.000,5316.6917,N,00136.3823,W,1,0,,318.0,M,,M,,*46
$GPRMC,113153.000,A,5316.6917,N,00136.3823,W,0.000,0.00,211012,,A*63
$GPGGA,113209.000,5316.6997,N,00136.3922,W,1,0,,318.0,M,,M,,*42
$GPRMC,113209.000,A,5316.6997,N,00136.3922,W,0.000,0.00,211012,,A*67
$GPGGA,113224.000,5316.7111,N,00136.3910,W,1,0,,317.0,M,,M,,*44
$GPRMC,113224.000,A,5316.7111,N,00136.3910,W,0.000,0.00,211012,,A*6E
$GPGGA,113239.000,5316.7157,N,00136.3938,W,1,0,,318.0,M,,M,,*4F
$GPRMC,113239.000,A,5316.7157,N,00136.3938,W,0.000,0.00,211012,,A*6A
$GPGGA,113254.000,5316.7274,N,00136.4088,W,1,0,,318.0,M,,M,,*43
$GPRMC,113254.000,A,5316.7274,N,00136.4088,W,0.000,0.00,211012,,A*66
$GPGGA,113309.000,5316.7356,N,00136.4014,W,1,0,,318.0,M,,M,,*4E
$GPRMC,113309.000,A,5316.7356,N,00136.4014,W,0.000,0.00,211012,,A*6B
$GPGGA,113325.000,5316.7578,N,00136.4072,W,1,0,,318.0,M,,M,,*4A
$GPRMC,113325.000,A,5316.7578,N,00136.4072,W,0.000,0.00,211012,,A*6F
$GPGGA,113342.000,5316.7603,N,00136.4103,W,1,0,,318.0,M,,M,,*43
$GPRMC,113342.000,A,5316.7603,N,00136.4103,W,0.000,0.00,211012,,A*66
$GPGGA,113358.000,5316.7704,N,00136.4135,W,1,0,,318.0,M,,M,,*4B
$GPRMC,113358.000,A,5316.7704,N,00136.4135,W,0.000,0.00,211012,,A*6E
$GPGGA,113413.000,5316.7867,N,00136.4155,W,1,0,,318.0,M,,M,,*4F
$GPRMC,113413.000,A,5316.7867,N,00136.4155,W,0.000,0.00,211012,,A*6A
$GPGGA,113429.000,5316.7935,N,00136.4184,W,1,0,,318.0,M,,M,,*4C
$GPRMC,113429.000,A,5316.7935,N,00136.4184,W,0.000,0.00,211012,,A*69
$GPGGA,113444.000,5316.8056,N,00136.4204,W,1,0,,318.0,M,,M,,*4F
$GPRMC,113444.000,A,5316.8056,N,00136.4204,W,0.000,0.00,211012,,A*6A
$GPGGA,113459.000,5316.8109,N,00136.4227,W,1,0,,318.0,M,,M,,*49
$GPRMC,113459.000,A,5316.8109,N,00136.4227,W,0.000,0.00,211012,,A*6C
$GPGGA,113514.000,5316.8235,N,00136.4214,W,1,0,,318.0,M,,M,,*4D
$GPRMC,113514.000,A,5316.8235,N,00136.4214,W,0.000,0.00,211012,,A*68
$GPGGA,113530.000,5316.8363,N,00136.4200,W,1,0,,318.0,M,,M,,*4C
$GPRMC,113530.000,A,5316.8363,N,00136.4200,W,0.000,0.00,211012,,A*69
$GPGGA,113545.000,5316.8423,N,00136.4283,W,1,0,,318.0,M,,M,,*46
$GPRMC,113545.000,A,5316.8423,N,00136.4283,W,0.000,0.00,211012,,A*63
$GPGGA,113600.000,5316.8542,N,00136.4459,W,1,0,,318.0,M,,M,,*43
$GPRMC,113600.000,A,5316.8542,N,00136.4459,W,0.000,0.00,211012,,A*66
$GPGGA,113616.000,5316.8615,N,00136.4444,W,1,0,,318.0,M,,M,,*49
$GPRMC,113616.000,A,5316.8615,N,00136.4444,W,0.000,0.00,211012,,A*6C
$GPGGA,113631.000,5316.8707,N,00136.4536,W,1,0,,318.0,M,,M,,*4A
$GPRMC,113631.000,A,5316.8707,N,00136.4536,W,0.000,0.00,211012,,A*6F
$GPGGA,113646.000,5316.8787,N,00136.4587,W,1,0,,318.0,M,,M,,*48
$GPRMC,113646.000,A,5316.8787,N,00136.4587,W,0.000,0.00,211012,,A*6D
$GPGGA,113702.000,5316.8837,N,00136.4638,W,1,0,,318.0,M,,M,,*4A
$GPRMC,113702.000,A,5316.8837,N,00136.4638,W,0.000,0.00,211012,,A*6F
$GPGGA,113717.000,5316.8956,N,00136.4749,W,1,0,,318.0,M,,M,,*4F
$GPRMC,113717.000,A,5316.8956,N,00136.4749,W,0.000,0.00,211012,,A*6A
$GPGGA,113732.000,5316.8981,N,00136.4797,W,1,0,,318.0,M,,M,,*41
$GPRMC,113732.000,A,5316.8981,N,00136.4797,W,0.000,0.00,211012,,A*64
$GPGGA,113748.000,5316.9016,N,00136.4911,W,1,0,,318.0,M,,M,,*4A
$GPRMC,113748.000,A,5316.9016,N,00136.4911,W,0.000,0.00,211012,,A*6F
$GPGGA,113803.000,5316.9132,N,00136.5028,W,1,0,,318.0,M,,M,,*4F
$GPRMC,113803.000,A,5316.9132,N,00136.5028,W,0.000,0.00,211012,,A*6A
$GPGGA,113818.000,5316.9226,N,00136.5068,W,1,0,,318.0,M,,M,,*47
$GPRMC,113818.000,A,5316.9226,N,00136.5068,W,0.000,0.00,211012,,A*62
$GPGGA,113834.000,5316.9279,N,00136.5179,W,1,0,,318.0,M,,M,,*42
$GPRMC,113834.000,A,5316.9279,N,00136.5179,W,0.000,0.00,211012,,A*67
$GPGGA,113849.000,5316.9359,N,00136.5261,W,1,0,,318.0,M,,M,,*41
$GPRMC,113849.000,A,5316.9359,N,00136.5261,W,0.000,0.00,211012,,A*64
$GPGGA,113904.000,5316.9425,N,00136.5317,W,1,0,,318.0,M,,M,,*45
$GPRMC,113904.000,A,5316.9425,N,00136.5317,W,0.000,0.00,211012,,A*60
$GPGGA,113919.000,5316.9473,N,00136.5511,W,1,0,,319.0,M,,M,,*4B
$GPRMC,113919.000,A,5316.9473,N,00136.5511,W,0.000,0.00,211012,,A*6F
$GPGGA,113934.000,5316.9519,N,00136.5629,W,1,0,,319.0,M,,M,,*41
$GPRMC,113934.000,A,5316.9519,N,00136.5629,W,0.000,0.00,211012,,A*65
$GPGGA,113949.000,5316.9569,N,00136.5745,W,1,0,,319.0,M,,M,,*47
$GPRMC,113949.000,A,5316.9569,N,00136.5745,W,0.000,0.00,211012,,A*63
$GPGGA,114004.000,5316.9661,N,00136.5923,W,1,0,,320.0,M,,M,,*4F
$GPRMC,114004.000,A,5316.9661,N,00136.5923,W,0.000,0.00,211012,,A*61
$GPGGA,114020.000,5316.9730,N,00136.5934,W,1,0,,320.0,M,,M,,*4A
$GPRMC,114020.000,A,5316.9730,N,00136.5934,W,0.000,0.00,211012,,A*64
$GPGGA,114035.000,5316.9753,N,00136.6140,W,1,0,,318.0,M,,M,,*48
$GPRMC,114035.000,A,5316.9753,N,00136.6140,W,0.000,0.00,211012,,A*6D
$GPGGA,114050.000,5316.9855,N,00136.6157,W,1,0,,318.0,M,,M,,*44
$GPRMC,114050.000,A,5316.9855,N,00136.6157,W,0.000,0.00,211012,,A*61
$GPGGA,114106.000,5316.9906,N,00136.6332,W,1,0,,318.0,M,,M,,*40
$GPRMC,114106.000,A,5316.9906,N,00136.6332,W,0.000,0.00,211012,,A*65
$GPGGA,114121.000,5317.0023,N,00136.6409,W,1,0,,318.0,M,,M,,*4C
$GPRMC,114121.000,A,5317.0023,N,00136.6409,W,0.000,0.00,211012,,A*69
$GPGGA,114137.000,5317.0151,N,00136.6572,W,1,0,,318.0,M,,M,,*42
$GPRMC,114137.000,A,5317.0151,N,00136.6572,W,0.000,0.00,211012,,A*67
$GPGGA,114152.000,5317.0164,N,00136.6572,W,1,0,,319.0,M,,M,,*46
$GPRMC,114152.000,A,5317.0164,N,00136.6572,W,0.000,0.00,211012,,A*62
$GPGGA,114207.000,5317.0267,N,00136.6602,W,1,0,,318.0,M,,M,,*40
$GPRMC,114207.000,A,5317.0267,N,00136.6602,W,0.000,0.00,211012,,A*65
$GPGGA,114222.000,5317.0416,N,00136.6628,W,1,0,,318.0,M,,M,,*4F
$GPRMC,114222.000,A,5317.0416,N,00136.6628,W,0.000,0.00,211012,,A*6A
$GPGGA,114237.000,5317.0478,N,00136.6647,W,1,0,,319.0,M,,M,,*4B
$GPRMC,114237.000,A,5317.0478,N,00136.6647,W,0.000,0.00,211012,,A*6F
$GPGGA,114253.000,5317.0638,N,00136.6833,W,1,0,,319.0,M,,M,,*42
$GPRMC,114253.000,A,5317.0638,N,00136.6833,W,0.000,0.00,211012,,A*66
$GPGGA,114308.000,5317.0643,N,00136.6867,W,1,0,,319.0,M,,M,,*40
$GPRMC,114308.000,A,5317.0643,N,00136.6867,W,0.000,0.00,211012,,A*64
$GPGGA,114323.000,5317.0725,N,00136.6868,W,1,0,,319.0,M,,M,,*47
$GPRMC,114323.000,A,5317.0725,N,00136.6868,W,0.000,0.00,211012,,A*63
$GPGGA,114342.000,5317.0899,N,00136.6903,W,1,0,,319.0,M,,M,,*44
$GPRMC,114342.000,A,5317.0899,N,00136.6903,W,0.000,0.00,211012,,A*60
$GPGGA,114357.000,5317.0977,N,00136.6957,W,1,0,,319.0,M,,M,,*40
$GPRMC,114357.000,A,5317.0977,N,00136.6957,W,0.000,0.00,211012,,A*64
$GPGGA,114412.000,5317.1062,N,00136.6954,W,1,0,,319.0,M,,M,,*49
$GPRMC,114412.000,A,5317.1062,N,00136.6954,W,0.000,0.00,211012,,A*6D
$GPGGA,114427.000,5317.1126,N,00136.6923,W,1,0,,319.0,M,,M,,*4E
$GPRMC,114427.000,A,5317.1126,N,00136.6923,W,0.000,0.00,211012,,A*6A
$GPGGA,114443.000,5317.1217,N,00136.6941,W,1,0,,319.0,M,,M,,*49
$GPRMC,114443.000,A,5317.1217,N,00136.6941,W,0.000,0.00,211012,,A*6D
$GPGGA,114458.000,5317.1288,N,00136.6925,W,1,0,,319.0,M,,M,,*47
$GPRMC,114458.000,A,5317.1288,N,00136.6925,W,0.000,0.00,211012,,A*63
$GPGGA,114523.000,5317.1366,N,00136.6834,W,1,0,,319.0,M,,M,,*4A
$GPRMC,114523.000,A,5317.1366,N,00136.6834,W,0.000,0.00,211012,,A*6E
$GPGGA,114538.000,5317.1471,N,00136.6748,W,1,0,,319.0,M,,M,,*45
$GPRMC,114538.000,A,5317.1471,N,00136.6748,W,0.000,0.00,211012,,A*61
$GPGGA,114553.000,5317.1552,N,00136.6672,W,1,0,,319.0,M,,M,,*40
$GPRMC,114553.000,A,5317.1552,N,00136.6672,W,0.000,0.00,211012,,A*64
$GPGGA,114609.000,5317.1648,N,00136.6538,W,1,0,,319.0,M,,M,,*49
$GPRMC,114609.000,A,5317.1648,N,00136.6538,W,0.000,0.00,211012,,A*6D
$GPGGA,114624.000,5317.1753,N,00136.6466,W,1,0,,319.0,M,,M,,*47
$GPRMC,114624.000,A,5317.1753,N,00136.6466,W,0.000,0.00,211012,,A*63
$GPGGA,114639.000,5317.1799,N,00136.6397,W,1,0,,319.0,M,,M,,*44
$GPRMC,114639.000,A,5317.1799,N,00136.6397,W,0.000,0.00,211012,,A*60
$GPGGA,114655.000,5317.1874,N,00136.6305,W,1,0,,319.0,M,,M,,*49
$GPRMC,114655.000,A,5317.1874,N,00136.6305,W,0.000,0.00,211012,,A*6D
$GPGGA,114715.000,5317.2007,N,00136.6145,W,1,0,,318.0,M,,M,,*44
$GPRMC,114715.000,A,5317.2007,N,00136.6145,W,0.000,0.00,211012,,A*61
$GPGGA,114730.000,5317.2048,N,00136.6088,W,1,0,,318.0,M,,M,,*48
$GPRMC,114730.000,A,5317.2048,N,00136.6088,W,0.000,0.00,211012,,A*6D
$GPGGA,114745.000,5317.2236,N,00136.5935,W,1,0,,319.0,M,,M,,*4C
$GPRMC,114745.000,A,5317.2236,N,00136.5935,W,0.000,0.00,211012,,A*68
$GPGGA,114800.000,5317.2263,N,00136.5900,W,1,0,,318.0,M,,M,,*45
$GPRMC,114800.000,A,5317.2263,N,00136.5900,W,0.000,0.00,211012,,A*60
$GPGGA,114815.000,5317.2332,N,00136.5872,W,1,0,,319.0,M,,M,,*41
$GPRMC,114815.000,A,5317.2332,N,00136.5872,W,0.000,0.00,211012,,A*65
$GPGGA,114830.000,5317.2389,N,00136.5817,W,1,0,,318.0,M,,M,,*44
$GPRMC,114830.000,A,5317.2389,N,00136.5817,W,0.000,0.00,211012,,A*61
$GPGGA,114846.000,5317.2522,N,00136.5747,W,1,0,,318.0,M,,M,,*48
$GPRMC,114846.000,A,5317.2522,N,00136.5747,W,0.000,0.00,211012,,A*6D
$GPGGA,114901.000,5317.2604,N,00136.5775,W,1,0,,318.0,M,,M,,*4C
$GPRMC,114901.000,A,5317.2604,N,00136.5775,W,0.000,0.00,211012,,A*69
$GPGGA,114916.000,5317.2680,N,00136.5799,W,1,0,,318.0,M,,M,,*44
$GPRMC,114916.000,A,5317.2680,N,00136.5799,W,0.000,0.00,211012,,A*61
$GPGGA,114933.000,5317.2753,N,00136.5803,W,1,0,,317.0,M,,M,,*4F
$GPRMC,114933.000,A,5317.2753,N,00136.5803,W,0.000,0.00,211012,,A*65
$GPGGA,114948.000,5317.2833,N,00136.5783,W,1,0,,317.0,M,,M,,*4D
$GPRMC,114948.000,A,5317.2833,N,00136.5783,W,0.000,0.00,211012,,A*67
$GPGGA,115003.000,5317.3026,N,00136.5793,W,1,0,,317.0,M,,M,,*46
$GPRMC,115003.000,A,5317.3026,N,00136.5793,W,0.000,0.00,211012,,A*6C
$GPGGA,115018.000,5317.3064,N,00136.5778,W,1,0,,317.0,M,,M,,*4F
$GPRMC,115018.000,A,5317.3064,N,00136.5778,W,0.000,0.00,211012,,A*65
$GPGGA,115033.000,5317.3197,N,00136.5747,W,1,0,,317.0,M,,M,,*47
$GPRMC,115033.000,A,5317.3197,N,00136.5747,W,0.000,0.00,211012,,A*6D
$GPGGA,115048.000,5317.3273,N,00136.5646,W,1,0,,317.0,M,,M,,*42
$GPRMC,115048.000,A,5317.3273,N,00136.5646,W,0.000,0.00,211012,,A*68
$GPGGA,115103.000,5317.3330,N,00136.5553,W,1,0,,317.0,M,,M,,*4D
$GPRMC,115103.000,A,5317.3330,N,00136.5553,W,0.000,0.00,211012,,A*67
$GPGGA,115118.000,5317.3353,N,00136.5412,W,1,0,,317.0,M,,M,,*46
$GPRMC,115118.000,A,5317.3353,N,00136.5412,W,0.000,0.00,211012,,A*6C
$GPGGA,115133.000,5317.3440,N,00136.5437,W,1,0,,317.0,M,,M,,*4D
$GPRMC,115133.000,A,5317.3440,N,00136.5437,W,0.000,0.00,211012,,A*67
$GPGGA,115148.000,5317.3492,N,00136.5423,W,1,0,,317.0,M,,M,,*4B
$GPRMC,115148.000,A,5317.3492,N,00136.5423,W,0.000,0.00,211012,,A*61
$GPGGA,115204.000,5317.3598,N,00136.5363,W,1,0,,317.0,M,,M,,*48
$GPRMC,115204.000,A,5317.3598,N,00136.5363,W,0.000,0.00,211012,,A*62
$GPGGA,115219.000,5317.3625,N,00136.5335,W,1,0,,317.0,M,,M,,*42
$GPRMC,115219.000,A,5317.3625,N,00136.5335,W,0.000,0.00,211012,,A*68
$GPGGA,115234.000,5317.3680,N,00136.5261,W,1,0,,317.0,M,,M,,*42
$GPRMC,115234.000,A,5317.3680,N,00136.5261,W,0.000,0.00,211012,,A*68
$GPGGA,115249.000,5317.3712,N,00136.5170,W,1,0,,317.0,M,,M,,*41
$GPRMC,115249.000,A,5317.3712,N,00136.5170,W,0.000,0.00,211012,,A*6B
$GPGGA,115305.000,5317.3788,N,00136.5077,W,1,0,,317.0,M,,M,,*4D
$GPRMC,115305.000,A,5317.3788,N,00136.5077,W,0.000,0.00,211012,,A*67
$GPGGA,115320.000,5317.3863,N,00136.5023,W,1,0,,317.0,M,,M,,*41
$GPRMC,115320.000,A,5317.3863,N,00136.5023,W,0.000,0.00,211012,,A*6B
$GPGGA,115335.000,5317.3946,N,00136.4901,W,1,0,,316.0,M,,M,,*4A
$GPRMC,115335.000,A,5317.3946,N,00136.4901,W,0.000,0.00,211012,,A*61
$GPGGA,115350.000,5317.4042,N,00136.4777,W,1,0,,316.0,M,,M,,*4C
$GPRMC,115350.000,A,5317.4042,N,00136.4777,W,0.000,0.00,211012,,A*67
$GPGGA,115405.000,5317.4078,N,00136.4702,W,1,0,,316.0,M,,M,,*40
$GPRMC,115405.000,A,5317.4078,N,00136.4702,W,0.000,0.00,211012,,A*6B
$GPGGA,115421.000,5317.4129,N,00136.4574,W,1,0,,316.0,M,,M,,*40
$GPRMC,115421.000,A,5317.4129,N,00136.4574,W,0.000,0.00,211012,,A*6B
$GPGGA,115437.000,5317.4257,N,00136.4512,W,1,0,,316.0,M,,M,,*4D
$GPRMC,115437.000,A,5317.4257,N,00136.4512,W,0.000,0.00,211012,,A*66
$GPGGA,115452.000,5317.4284,N,00136.4472,W,1,0,,315.0,M,,M,,*44
$GPRMC,115452.000,A,5317.4284,N,00136.4472,W,0.000,0.00,211012,,A*6C
$GPGGA,115508.000,5317.4369,N,00136.4399,W,1,0,,315.0,M,,M,,*4A
$GPRMC,115508.000,A,5317.4369,N,00136.4399,W,0.000,0.00,211012,,A*62
$GPGGA,115523.000,5317.4417,N,00136.4253,W,1,0,,315.0,M,,M,,*4A
$GPRMC,115523.000,A,5317.4417,N,00136.4253,W,0.000,0.00,211012,,A*62
$GPGGA,115538.000,5317.4479,N,00136.4179,W,1,0,,315.0,M,,M,,*43
$GPRMC,115538.000,A,5317.4479,N,00136.4179,W,0.000,0.00,211012,,A*6B
$GPGGA,115553.000,5317.4607,N,00136.4077,W,1,0,,315.0,M,,M,,*4A
$GPRMC,115553.000,A,5317.4607,N,00136.4077,W,0.000,0.00,211012,,A*62
$GPGGA,115608.000,5317.4651,N,00136.4049,W,1,0,,315.0,M,,M,,*49
$GPRMC,115608.000,A,5317.4651,N,00136.4049,W,0.000,0.00,211012,,A*61
$GPGGA,115624.000,5317.4678,N,00136.3986,W,1,0,,315.0,M,,M,,*41
$GPRMC,115624.000,A,5317.4678,N,00136.3986,W,0.000,0.00,211012,,A*69
$GPGGA,115639.000,5317.4731,N,00136.3900,W,1,0,,316.0,M,,M,,*4C
$GPRMC,115639.000,A,5317.4731,N,00136.3900,W,0.000,0.00,211012,,A*67
$GPGGA,115655.000,5317.4845,N,00136.3790,W,1,0,,315.0,M,,M,,*4E
$GPRMC,115655.000,A,5317.4845,N,00136.3790,W,0.000,0.00,211012,,A*66
$GPGGA,115710.000,5317.4854,N,00136.3728,W,1,0,,316.0,M,,M,,*4E
$GPRMC,115710.000,A,5317.4854,N,00136.3728,W,0.000,0.00,211012,,A*65
$GPGGA,115725.000,5317.4930,N,00136.3666,W,1,0,,316.0,M,,M,,*40
$GPRMC,115725.000,A,5317.4930,N,00136.3666,W,0.000,0.00,211012,,A*6B
$GPGGA,115740.000,5317.4998,N,00136.3552,W,1,0,,316.0,M,,M,,*45
$GPRMC,115740.000,A,5317.4998,N,00136.3552,W,0.000,0.00,211012,,A*6E
$GPGGA,115755.000,5317.5090,N,00136.3432,W,1,0,,316.0,M,,M,,*46
$GPRMC,115755.000,A,5317.5090,N,00136.3432,W,0.000,0.00,211012,,A*6D
$GPGGA,115810.000,5317.5216,N,00136.3389,W,1,0,,316.0,M,,M,,*43
$GPRMC,115810.000,A,5317.5216,N,00136.3389,W,0.000,0.00,211012,,A*68
$GPGGA,115825.000,5317.5250,N,00136.3344,W,1,0,,316.0,M,,M,,*46
$GPRMC,115825.000,A,5317.5250,N,00136.3344,W,0.000,0.00,211012,,A*6D
$GPGGA,115840.000,5317.5319,N,00136.3275,W,1,0,,316.0,M,,M,,*4A
$GPRMC,115840.000,A,5317.5319,N,00136.3275,W,0.000,0.00,211012,,A*61
$GPGGA,115856.000,5317.5438,N,00136.3255,W,1,0,,316.0,M,,M,,*4B
$GPRMC,115856.000,A,5317.5438,N,00136.3255,W,0.000,0.00,211012,,A*60
$GPGGA,115911.000,5317.5513,N,00136.3196,W,1,0,,316.0,M,,M,,*4D
$GPRMC,115911.000,A,5317.5513,N,00136.3196,W,0.000,0.00,211012,,A*66
$GPGGA,115926.000,5317.5623,N,00136.3120,W,1,0,,316.0,M,,M,,*44
$GPRMC,115926.000,A,5317.5623,N,00136.3120,W,0.000,0.00,211012,,A*6F
$GPGGA,115941.000,5317.5685,N,00136.3083,W,1,0,,316.0,M,,M,,*41
$GPRMC,115941.000,A,5317.5685,N,00136.3083,W,0.000,0.00,211012,,A*6A
$GPGGA,115957.000,5317.5804,N,00136.3019,W,1,0,,316.0,M,,M,,*42
$GPRMC,115957.000,A,5317.5804,N,00136.3019,W,0.000,0.00,211012,,A*69
$GPGGA,120012.000,5317.5848,N,00136.2955,W,1,0,,316.0,M,,M,,*44
$GPRMC,120012.000,A,5317.5848,N,00136.2955,W,0.000,0.00,211012,,A*6F
$GPGGA,120027.000,5317.5914,N,00136.2922,W,1,0,,316.0,M,,M,,*4A
$GPRMC,120027.000,A,5317.5914,N,00136.2922,W,0.000,0.00,211012,,A*61
$GPGGA,120043.000,5317.5964,N,00136.2828,W,1,0,,316.0,M,,M,,*44
$GPRMC,120043.000,A,5317.5964,N,00136.2828,W,0.000,0.00,211012,,A*6F
$GPGGA,120058.000,5317.6047,N,00136.2788,W,1,0,,316.0,M,,M,,*40
$GPRMC,120058.000,A,5317.6047,N,00136.2788,W,0.000,0.00,211012,,A*6B
$GPGGA,120118.000,5317.6143,N,00136.2718,W,1,0,,316.0,M,,M,,*49
$GPRMC,120118.000,A,5317.6143,N,00136.2718,W,0.000,0.00,211012,,A*62
$GPGGA,120133.000,5317.6234,N,00136.2726,W,1,0,,317.0,M,,M,,*4F
$GPRMC,120133.000,A,5317.6234,N,00136.2726,W,0.000,0.00,211012,,A*65
$GPGGA,120148.000,5317.6273,N,00136.2708,W,1,0,,317.0,M,,M,,*4C
$GPRMC,120148.000,A,5317.6273,N,00136.2708,W,0.000,0.00,211012,,A*66
$GPGGA,120204.000,5317.6353,N,00136.2645,W,1,0,,317.0,M,,M,,*4C
$GPRMC,120204.000,A,5317.6353,N,00136.2645,W,0.000,0.00,211012,,A*66
$GPGGA,120219.000,5317.6424,N,00136.2604,W,1,0,,317.0,M,,M,,*42
$GPRMC,120219.000,A,5317.6424,N,00136.2604,W,0.000,0.00,211012,,A*68
$GPGGA,120234.000,5317.6530,N,00136.2564,W,1,0,,317.0,M,,M,,*4C
$GPRMC,120234.000,A,5317.6530,N,00136.2564,W,0.000,0.00,211012,,A*66
$GPGGA,120250.000,5317.6598,N,00136.2477,W,1,0,,317.0,M,,M,,*4F
$GPRMC,120250.000,A,5317.6598,N,00136.2477,W,0.000,0.00,211012,,A*65
$GPGGA,120306.000,5317.6681,N,00136.2386,W,1,0,,318.0,M,,M,,*40
$GPRMC,120306.000,A,5317.6681,N,00136.2386,W,0.000,0.00,211012,,A*65
$GPGGA,120322.000,5317.6738,N,00136.2317,W,1,0,,318.0,M,,M,,*4D
$GPRMC,120322.000,A,5317.6738,N,00136.2317,W,0.000,0.00,211012,,A*68
$GPGGA,120337.000,5317.6816,N,00136.2292,W,1,0,,318.0,M,,M,,*46
$GPRMC,120337.000,A,5317.6816,N,00136.2292,W,0.000,0.00,211012,,A*63
$GPGGA,120353.000,5317.6917,N,00136.2231,W,1,0,,318.0,M,,M,,*4D
$GPRMC,120353.000,A,5317.6917,N,00136.2231,W,0.000,0.00,211012,,A*68
$GPGGA,120408.000,5317.6967,N,00136.2158,W,1,0,,318.0,M,,M,,*4F
$GPRMC,120408.000,A,5317.6967,N,00136.2158,W,0.000,0.00,211012,,A*6A
$GPGGA,120423.000,5317.7061,N,00136.2061,W,1,0,,318.0,M,,M,,*43
$GPRMC,120423.000,A,5317.7061,N,00136.2061,W,0.000,0.00,211012,,A*66
$GPGGA,120438.000,5317.7134,N,00136.2003,W,1,0,,318.0,M,,M,,*4C
$GPRMC,120438.000,A,5317.7134,N,00136.2003,W,0.000,0.00,211012,,A*69
$GPGGA,120453.000,5317.7180,N,00136.1872,W,1,0,,319.0,M,,M,,*42
$GPRMC,120453.000,A,5317.7180,N,00136.1872,W,0.000,0.00,211012,,A*66
$GPGGA,120509.000,5317.7246,N,00136.1805,W,1,0,,319.0,M,,M,,*45
$GPRMC,120509.000,A,5317.7246,N,00136.1805,W,0.000,0.00,211012,,A*61
$GPGGA,120524.000,5317.7379,N,00136.1757,W,1,0,,319.0,M,,M,,*4F
$GPRMC,120524.000,A,5317.7379,N,00136.1757,W,0.000,0.00,211012,,A*6B
$GPGGA,120540.000,5317.7443,N,00136.1644,W,1,0,,319.0,M,,M,,*40
$GPRMC,120540.000,A,5317.7443,N,00136.1644,W,0.000,0.00,211012,,A*64
$GPGGA,120555.000,5317.7498,N,00136.1562,W,1,0,,319.0,M,,M,,*45
$GPRMC,120555.000,A,5317.7498,N,00136.1562,W,0.000,0.00,211012,,A*61
$GPGGA,120610.000,5317.7548,N,00136.1427,W,1,0,,319.0,M,,M,,*4B
$GPRMC,120610.000,A,5317.7548,N,00136.1427,W,0.000,0.00,211012,,A*6F
$GPGGA,120625.000,5317.7601,N,00136.1383,W,1,0,,319.0,M,,M,,*4A
$GPRMC,120625.000,A,5317.7601,N,00136.1383,W,0.000,0.00,211012,,A*6E
$GPGGA,120641.000,5317.7708,N,00136.1200,W,1,0,,319.0,M,,M,,*4A
$GPRMC,120641.000,A,5317.7708,N,00136.1200,W,0.000,0.00,211012,,A*6E
$GPGGA,120657.000,5317.7864,N,00136.1148,W,1,0,,319.0,M,,M,,*47
$GPRMC,120657.000,A,5317.7864,N,00136.1148,W,0.000,0.00,211012,,A*63
$GPGGA,120712.000,5317.8017,N,00136.1159,W,1,0,,320.0,M,,M,,*4E
$GPRMC,120712.000,A,5317.8017,N,00136.1159,W,0.000,0.00,211012,,A*60
$GPGGA,120727.000,5317.8043,N,00136.1289,W,1,0,,321.0,M,,M,,*46
$GPRMC,120727.000,A,5317.8043,N,00136.1289,W,0.000,0.00,211012,,A*69
$GPGGA,120745.000,5317.8027,N,00136.1404,W,1,0,,320.0,M,,M,,*42
$GPRMC,120745.000,A,5317.8027,N,00136.1404,W,0.000,0.00,211012,,A*6C
$GPGGA,120800.000,5317.8148,N,00136.1635,W,1,0,,321.0,M,,M,,*45
$GPRMC,120800.000,A,5317.8148,N,00136.1635,W,0.000,0.00,211012,,A*6A
$GPGGA,120815.000,5317.8079,N,00136.1675,W,1,0,,323.0,M,,M,,*44
$GPRMC,120815.000,A,5317.8079,N,00136.1675,W,0.000,0.00,211012,,A*69
$GPGGA,120830.000,5317.8228,N,00136.1830,W,1,0,,325.0,M,,M,,*4C
$GPRMC,120830.000,A,5317.8228,N,00136.1830,W,0.000,0.00,211012,,A*67
$GPGGA,120845.000,5317.8175,N,00136.1865,W,1,0,,323.0,M,,M,,*43
$GPRMC,120845.000,A,5317.8175,N,00136.1865,W,0.000,0.00,211012,,A*6E
$GPGGA,120900.000,5317.8242,N,00136.2026,W,1,0,,322.0,M,,M,,*49
$GPRMC,120900.000,A,5317.8242,N,00136.2026,W,0.000,0.00,211012,,A*65
$GPGGA,120915.000,5317.8276,N,00136.2160,W,1,0,,322.0,M,,M,,*49
$GPRMC,120915.000,A,5317.8276,N,00136.2160,W,0.000,0.00,211012,,A*65
$GPGGA,120930.000,5317.8290,N,00136.2237,W,1,0,,322.0,M,,M,,*47
$GPRMC,120930.000,A,5317.8290,N,00136.2237,W,0.000,0.00,211012,,A*6B
$GPGGA,120945.000,5317.8292,N,00136.2243,W,1,0,,322.0,M,,M,,*44
$GPRMC,120945.000,A,5317.8292,N,00136.2243,W,0.000,0.00,211012,,A*68
$GPGGA,121003.000,5317.8285,N,00136.2292,W,1,0,,322.0,M,,M,,*44
$GPRMC,121003.000,A,5317.8285,N,00136.2292,W,0.000,0.00,211012,,A*68
$GPGGA,121018.000,5317.8306,N,00136.2501,W,1,0,,322.0,M,,M,,*49
$GPRMC,121018.000,A,5317.8306,N,00136.2501,W,0.000,0.00,211012,,A*65
$GPGGA,121033.000,5317.8384,N,00136.2655,W,1,0,,322.0,M,,M,,*48
$GPRMC,121033.000,A,5317.8384,N,00136.2655,W,0.000,0.00,211012,,A*64
$GPGGA,121048.000,5317.8407,N,00136.2792,W,1,0,,322.0,M,,M,,*42
$GPRMC,121048.000,A,5317.8407,N,00136.2792,W,0.000,0.00,211012,,A*6E
$GPGGA,121104.000,5317.8455,N,00136.3013,W,1,0,,322.0,M,,M,,*43
$GPRMC,121104.000,A,5317.8455,N,00136.3013,W,0.000,0.00,211012,,A*6F
$GPGGA,121119.000,5317.8496,N,00136.3114,W,1,0,,323.0,M,,M,,*47
$GPRMC,121119.000,A,5317.8496,N,00136.3114,W,0.000,0.00,211012,,A*6A
$GPGGA,121135.000,5317.8526,N,00136.3297,W,1,0,,323.0,M,,M,,*4B
$GPRMC,121135.000,A,5317.8526,N,00136.3297,W,0.000,0.00,211012,,A*66
$GPGGA,121150.000,5317.8542,N,00136.3448,W,1,0,,323.0,M,,M,,*4E
$GPRMC,121150.000,A,5317.8542,N,00136.3448,W,0.000,0.00,211012,,A*63
$GPGGA,121205.000,5317.8555,N,00136.3570,W,1,0,,323.0,M,,M,,*41
$GPRMC,121205.000,A,5317.8555,N,00136.3570,W,0.000,0.00,211012,,A*6C
$GPGGA,121220.000,5317.8619,N,00136.3707,W,1,0,,323.0,M,,M,,*4F
$GPRMC,121220.000,A,5317.8619,N,00136.3707,W,0.000,0.00,211012,,A*62
$GPGGA,121236.000,5317.8613,N,00136.3918,W,1,0,,323.0,M,,M,,*42
$GPRMC,121236.000,A,5317.8613,N,00136.3918,W,0.000,0.00,211012,,A*6F
$GPGGA,121251.000,5317.8665,N,00136.4040,W,1,0,,323.0,M,,M,,*41
$GPRMC,121251.000,A,5317.8665,N,00136.4040,W,0.000,0.00,211012,,A*6C
$GPGGA,121306.000,5317.8697,N,00136.4112,W,1,0,,323.0,M,,M,,*49
$GPRMC,121306.000,A,5317.8697,N,00136.4112,W,0.000,0.00,211012,,A*64
$GPGGA,121322.000,5317.8757,N,00136.4225,W,1,0,,324.0,M,,M,,*42
$GPRMC,121322.000,A,5317.8757,N,00136.4225,W,0.000,0.00,211012,,A*68
$GPGGA,121337.000,5317.8773,N,00136.4262,W,1,0,,323.0,M,,M,,*44
$GPRMC,121337.000,A,5317.8773,N,00136.4262,W,0.000,0.00,211012,,A*69
$GPGGA,121352.000,5317.8793,N,00136.4316,W,1,0,,324.0,M,,M,,*4C
$GPRMC,121352.000,A,5317.8793,N,00136.4316,W,0.000,0.00,211012,,A*66
$GPGGA,121408.000,5317.8830,N,00136.4356,W,1,0,,323.0,M,,M,,*41
$GPRMC,121408.000,A,5317.8830,N,00136.4356,W,0.000,0.00,211012,,A*6C
$GPGGA,121425.000,5317.8864,N,00136.4593,W,1,0,,324.0,M,,M,,*47
$GPRMC,121425.000,A,5317.8864,N,00136.4593,W,0.000,0.00,211012,,A*6D
$GPGGA,121441.000,5317.8901,N,00136.4676,W,1,0,,323.0,M,,M,,*48
$GPRMC,121441.000,A,5317.8901,N,00136.4676,W,0.000,0.00,211012,,A*65
$GPGGA,121457.000,5317.8878,N,00136.4773,W,1,0,,323.0,M,,M,,*44
$GPRMC,121457.000,A,5317.8878,N,00136.4773,W,0.000,0.00,211012,,A*69
$GPGGA,121512.000,5317.8910,N,00136.4862,W,1,0,,323.0,M,,M,,*44
$GPRMC,121512.000,A,5317.8910,N,00136.4862,W,0.000,0.00,211012,,A*69
$GPGGA,121527.000,5317.8960,N,00136.4932,W,1,0,,323.0,M,,M,,*41
$GPRMC,121527.000,A,5317.8960,N,00136.4932,W,0.000,0.00,211012,,A*6C
$GPGGA,121542.000,5317.8928,N,00136.5128,W,1,0,,323.0,M,,M,,*4C
$GPRMC,121542.000,A,5317.8928,N,00136.5128,W,0.000,0.00,211012,,A*61
$GPGGA,121557.000,5317.8954,N,00136.5308,W,1,0,,323.0,M,,M,,*43
$GPRMC,121557.000,A,5317.8954,N,00136.5308,W,0.000,0.00,211012,,A*6E
$GPGGA,121613.000,5317.8954,N,00136.5375,W,1,0,,323.0,M,,M,,*4A
$GPRMC,121613.000,A,5317.8954,N,00136.5375,W,0.000,0.00,211012,,A*67
$GPGGA,121628.000,5317.8915,N,00136.5368,W,1,0,,323.0,M,,M,,*4B
$GPRMC,121628.000,A,5317.8915,N,00136.5368,W,0.000,0.00,211012,,A*66
$GPGGA,121644.000,5317.8935,N,00136.5473,W,1,0,,323.0,M,,M,,*4E
$GPRMC,121644.000,A,5317.8935,N,00136.5473,W,0.000,0.00,211012,,A*63
$GPGGA,121659.000,5317.8933,N,00136.5598,W,1,0,,323.0,M,,M,,*40
$GPRMC,121659.000,A,5317.8933,N,00136.5598,W,0.000,0.00,211012,,A*6D
$GPGGA,121714.000,5317.8940,N,00136.5750,W,1,0,,323.0,M,,M,,*4A
$GPRMC,121714.000,A,5317.8940,N,00136.5750,W,0.000,0.00,211012,,A*67
$GPGGA,121729.000,5317.8892,N,00136.5930,W,1,0,,323.0,M,,M,,*42
$GPRMC,121729.000,A,5317.8892,N,00136.5930,W,0.000,0.00,211012,,A*6F
$GPGGA,121744.000,5317.8889,N,00136.6133,W,1,0,,323.0,M,,M,,*4B
$GPRMC,121744.000,A,5317.8889,N,00136.6133,W,0.000,0.00,211012,,A*66
$GPGGA,121808.000,5317.8885,N,00136.6254,W,1,0,,323.0,M,,M,,*42
$GPRMC,121808.000,A,5317.8885,N,00136.6254,W,0.000,0.00,211012,,A*6F
$GPGGA,121823.000,5317.8814,N,00136.6449,W,1,0,,323.0,M,,M,,*49
$GPRMC,121823.000,A,5317.8814,N,00136.6449,W,0.000,0.00,211012,,A*64
$GPGGA,121839.000,5317.8812,N,00136.6673,W,1,0,,323.0,M,,M,,*4F
$GPRMC,121839.000,A,5317.8812,N,00136.6673,W,0.000,0.00,211012,,A*62
$GPGGA,121854.000,5317.8828,N,00136.6824,W,1,0,,323.0,M,,M,,*41
$GPRMC,121854.000,A,5317.8828,N,00136.6824,W,0.000,0.00,211012,,A*6C
$GPGGA,121909.000,5317.8796,N,00136.7072,W,1,0,,323.0,M,,M,,*48
$GPRMC,121909.000,A,5317.8796,N,00136.7072,W,0.000,0.00,211012,,A*65
$GPGGA,121924.000,5317.8800,N,00136.7203,W,1,0,,323.0,M,,M,,*43
$GPRMC,121924.000,A,5317.8800,N,00136.7203,W,0.000,0.00,211012,,A*6E
$GPGGA,121940.000,5317.8809,N,00136.7339,W,1,0,,323.0,M,,M,,*40
$GPRMC,121940.000,A,5317.8809,N,00136.7339,W,0.000,0.00,211012,,A*6D
$GPGGA,121955.000,5317.8784,N,00136.7466,W,1,0,,323.0,M,,M,,*43
$GPRMC,121955.000,A,5317.8784,N,00136.7466,W,0.000,0.00,211012,,A*6E
$GPGGA,122010.000,5317.8752,N,00136.7636,W,1,0,,323.0,M,,M,,*44
$GPRMC,122010.000,A,5317.8752,N,00136.7636,W,0.000,0.00,211012,,A*69
$GPGGA,122026.000,5317.8679,N,00136.7797,W,1,0,,323.0,M,,M,,*43
$GPRMC,122026.000,A,5317.8679,N,00136.7797,W,0.000,0.00,211012,,A*6E
$GPGGA,122052.000,5317.8576,N,00136.7989,W,1,0,,323.0,M,,M,,*4D
$GPRMC,122052.000,A,5317.8576,N,00136.7989,W,0.000,0.00,211012,,A*60
$GPGGA,122146.000,5317.8500,N,00136.8341,W,1,0,,323.0,M,,M,,*49
$GPRMC,122146.000,A,5317.8500,N,00136.8341,W,0.000,0.00,211012,,A*64
$GPGGA,122243.000,5317.8677,N,00136.8188,W,1,0,,323.0,M,,M,,*4B
$GPRMC,122243.000,A,5317.8677,N,00136.8188,W,0.000,0.00,211012,,A*66
$GPGGA,122306.000,5317.8562,N,00136.8234,W,1,0,,323.0,M,,M,,*48
$GPRMC,122306.000,A,5317.8562,N,00136.8234,W,0.000,0.00,211012,,A*65
$GPGGA,122342.000,5317.8617,N,00136.8269,W,1,0,,323.0,M,,M,,*41
$GPRMC,122342.000,A,5317.8617,N,00136.8269,W,0.000,0.00,211012,,A*6C
$GPGGA,122425.000,5317.8750,N,00136.7888,W,1,0,,323.0,M,,M,,*4F
$GPRMC,122425.000,A,5317.8750,N,00136.7888,W,0.000,0.00,211012,,A*62
$GPGGA,122504.000,5317.8754,N,00136.7840,W,1,0,,323.0,M,,M,,*4D
$GPRMC,122504.000,A,5317.8754,N,00136.7840,W,0.000,0.00,211012,,A*60
$GPGGA,122535.000,5317.8864,N,00136.7893,W,1,0,,323.0,M,,M,,*4D
$GPRMC,122535.000,A,5317.8864,N,00136.7893,W,0.000,0.00,211012,,A*60
$GPGGA,122610.000,5317.8596,N,00136.8240,W,1,0,,322.0,M,,M,,*43
$GPRMC,122610.000,A,5317.8596,N,00136.8240,W,0.000,0.00,211012,,A*6F
$GPGGA,122643.000,5317.8683,N,00136.8118,W,1,0,,322.0,M,,M,,*4C
$GPRMC,122643.000,A,5317.8683,N,00136.8118,W,0.000,0.00,211012,,A*60
$GPGGA,122716.000,5317.8688,N,00136.8149,W,1,0,,322.0,M,,M,,*42
$GPRMC,122716.000,A,5317.8688,N,00136.8149,W,0.000,0.00,211012,,A*6E
$GPGGA,122743.000,5317.8750,N,00136.7864,W,1,0,,322.0,M,,M,,*4F
$GPRMC,122743.000,A,5317.8750,N,00136.7864,W,0.000,0.00,211012,,A*63
$GPGGA,122811.000,5317.8558,N,00136.8223,W,1,0,,322.0,M,,M,,*4B
$GPRMC,122811.000,A,5317.8558,N,00136.8223,W,0.000,0.00,211012,,A*67
$GPGGA,122830.000,5317.8388,N,00136.8421,W,1,0,,322.0,M,,M,,*47
$GPRMC,122830.000,A,5317.8388,N,00136.8421,W,0.000,0.00,211012,,A*6B
$GPGGA,122857.000,5317.8617,N,00136.8151,W,1,0,,322.0,M,,M,,*47
$GPRMC,122857.000,A,5317.8617,N,00136.8151,W,0.000,0.00,211012,,A*6B
$GPGGA,122921.000,5317.8500,N,00136.8276,W,1,0,,322.0,M,,M,,*44
$GPRMC,122921.000,A,5317.8500,N,00136.8276,W,0.000,0.00,211012,,A*68
$GPGGA,122947.000,5317.8498,N,00136.8238,W,1,0,,322.0,M,,M,,*4E
$GPRMC,122947.000,A,5317.8498,N,00136.8238,W,0.000,0.00,211012,,A*62
$GPGGA,123016.000,5317.8336,N,00136.8444,W,1,0,,322.0,M,,M,,*4C
$GPRMC,123016.000,A,5317.8336,N,00136.8444,W,0.000,0.00,211012,,A*60
$GPGGA,123045.000,5317.8391,N,00136.8692,W,1,0,,322.0,M,,M,,*4E
$GPRMC,123045.000,A,5317.8391,N,00136.8692,W,0.000,0.00,211012,,A*62
$GPGGA,123103.000,5317.8496,N,00136.8438,W,1,0,,322.0,M,,M,,*4F
$GPRMC,123103.000,A,5317.8496,N,00136.8438,W,0.000,0.00,211012,,A*63
$GPGGA,123128.000,5317.8585,N,00136.8254,W,1,0,,322.0,M,,M,,*49
$GPRMC,123128.000,A,5317.8585,N,00136.8254,W,0.000,0.00,211012,,A*65
$GPGGA,123149.000,5317.8551,N,00136.8313,W,1,0,,322.0,M,,M,,*45
$GPRMC,123149.000,A,5317.8551,N,00136.8313,W,0.000,0.00,211012,,A*69
$GPGGA,123210.000,5317.8592,N,00136.8257,W,1,0,,322.0,M,,M,,*44
$GPRMC,123210.000,A,5317.8592,N,00136.8257,W,0.000,0.00,211012,,A*68
$GPGGA,123231.000,5317.8521,N,00136.8323,W,1,0,,322.0,M,,M,,*4D
$GPRMC,123231.000,A,5317.8521,N,00136.8323,W,0.000,0.00,211012,,A*61
$GPGGA,123252.000,5317.8583,N,00136.8319,W,1,0,,322.0,M,,M,,*49
$GPRMC,123252.000,A,5317.8583,N,00136.8319,W,0.000,0.00,211012,,A*65
$GPGGA,123309.000,5317.8613,N,00136.8197,W,1,0,,322.0,M,,M,,*48
$GPRMC,123309.000,A,5317.8613,N,00136.8197,W,0.000,0.00,211012,,A*64
$GPGGA,123329.000,5317.8617,N,00136.8176,W,1,0,,322.0,M,,M,,*41
$GPRMC,123329.000,A,5317.8617,N,00136.8176,W,0.000,0.00,211012,,A*6D
$GPGGA,123403.000,5317.8567,N,00136.8208,W,1,0,,322.0,M,,M,,*40
$GPRMC,123403.000,A,5317.8567,N,00136.8208,W,0.000,0.00,211012,,A*6C
$GPGGA,123419.000,5317.8596,N,00136.8174,W,1,0,,322.0,M,,M,,*4D
$GPRMC,123419.000,A,5317.8596,N,00136.8174,W,0.000,0.00,211012,,A*61
$GPGGA,123439.000,5317.8546,N,00136.8297,W,1,0,,322.0,M,,M,,*4C
$GPRMC,123439.000,A,5317.8546,N,00136.8297,W,0.000,0.00,211012,,A*60
$GPGGA,123455.000,5317.8629,N,00136.8134,W,1,0,,322.0,M,,M,,*46
$GPRMC,123455.000,A,5317.8629,N,00136.8134,W,0.000,0.00,211012,,A*6A
$GPGGA,123534.000,5317.8603,N,00136.8210,W,1,0,,323.0,M,,M,,*4C
$GPRMC,123534.000,A,5317.8603,N,00136.8210,W,0.000,0.00,211012,,A*61
$GPGGA,123550.000,5317.8631,N,00136.8140,W,1,0,,323.0,M,,M,,*49
$GPRMC,123550.000,A,5317.8631,N,00136.8140,W,0.000,0.00,211012,,A*64
$GPGGA,123632.000,5317.8642,N,00136.8151,W,1,0,,322.0,M,,M,,*4B
$GPRMC,123632.000,A,5317.8642,N,00136.8151,W,0.000,0.00,211012,,A*67
$GPGGA,123653.000,5317.8649,N,00136.8152,W,1,0,,322.0,M,,M,,*44
$GPRMC,123653.000,A,5317.8649,N,00136.8152,W,0.000,0.00,211012,,A*68
$GPGGA,123715.000,5317.8786,N,00136.8132,W,1,0,,322.0,M,,M,,*43
$GPRMC,123715.000,A,5317.8786,N,00136.8132,W,0.000,0.00,211012,,A*6F
$GPGGA,123742.000,5317.8894,N,00136.8113,W,1,0,,322.0,M,,M,,*4E
$GPRMC,123742.000,A,5317.8894,N,00136.8113,W,0.000,0.00,211012,,A*62
$GPGGA,123813.000,5317.8780,N,00136.8156,W,1,0,,322.0,M,,M,,*4E
$GPRMC,123813.000,A,5317.8780,N,00136.8156,W,0.000,0.00,211012,,A*62
$GPGGA,123856.000,5317.9091,N,00136.7881,W,1,0,,322.0,M,,M,,*45
$GPRMC,123856.000,A,5317.9091,N,00136.7881,W,0.000,0.00,211012,,A*69
$GPGGA,123921.000,5317.8883,N,00136.7990,W,1,0,,322.0,M,,M,,*4F
$GPRMC,123921.000,A,5317.8883,N,00136.7990,W,0.000,0.00,211012,,A*63
$GPGGA,123943.000,5317.8871,N,00136.7985,W,1,0,,322.0,M,,M,,*42
$GPRMC,123943.000,A,5317.8871,N,00136.7985,W,0.000,0.00,211012,,A*6E
$GPGGA,124003.000,5317.8837,N,00136.8041,W,1,0,,322.0,M,,M,,*44
$GPRMC,124003.000,A,5317.8837,N,00136.8041,W,0.000,0.00,211012,,A*68
$GPGGA,124022.000,5317.8702,N,00136.8182,W,1,0,,322.0,M,,M,,*40
$GPRMC,124022.000,A,5317.8702,N,00136.8182,W,0.000,0.00,211012,,A*6C
$GPGGA,124042.000,5317.8777,N,00136.8145,W,1,0,,322.0,M,,M,,*4F
$GPRMC,124042.000,A,5317.8777,N,00136.8145,W,0.000,0.00,211012,,A*63
$GPGGA,124113.000,5317.8544,N,00136.8280,W,1,0,,322.0,M,,M,,*42
$GPRMC,124113.000,A,5317.8544,N,00136.8280,W,0.000,0.00,211012,,A*6E
$GPGGA,124136.000,5317.8754,N,00136.7984,W,1,0,,322.0,M,,M,,*46
$GPRMC,124136.000,A,5317.8754,N,00136.7984,W,0.000,0.00,211012,,A*6A
$GPGGA,124158.000,5317.8633,N,00136.8084,W,1,0,,322.0,M,,M,,*48
$GPRMC,124158.000,A,5317.8633,N,00136.8084,W,0.000,0.00,211012,,A*64
$GPGGA,124220.000,5317.8548,N,00136.8109,W,1,0,,322.0,M,,M,,*4F
$GPRMC,124220.000,A,5317.8548,N,00136.8109,W,0.000,0.00,211012,,A*63
$GPGGA,124246.000,5317.8535,N,00136.8170,W,1,0,,322.0,M,,M,,*4B
$GPRMC,124246.000,A,5317.8535,N,00136.8170,W,0.000,0.00,211012,,A*67
$GPGGA,124313.000,5317.8459,N,00136.8262,W,1,0,,322.0,M,,M,,*41
$GPRMC,124313.000,A,5317.8459,N,00136.8262,W,0.000,0.00,211012,,A*6D
$GPGGA,124336.000,5317.8400,N,00136.8475,W,1,0,,322.0,M,,M,,*4A
$GPRMC,124336.000,A,5317.8400,N,00136.8475,W,0.000,0.00,211012,,A*66
$GPGGA,124354.000,5317.8400,N,00136.8539,W,1,0,,322.0,M,,M,,*47
$GPRMC,124354.000,A,5317.8400,N,00136.8539,W,0.000,0.00,211012,,A*6B
$GPGGA,124415.000,5317.8558,N,00136.8295,W,1,0,,322.0,M,,M,,*48
$GPRMC,124415.000,A,5317.8558,N,00136.8295,W,0.000,0.00,211012,,A*64
$GPGGA,124433.000,5317.8484,N,00136.8343,W,1,0,,322.0,M,,M,,*46
$GPRMC,124433.000,A,5317.8484,N,00136.8343,W,0.000,0.00,211012,,A*6A
$GPGGA,124457.000,5317.8725,N,00136.8129,W,1,0,,322.0,M,,M,,*42
$GPRMC,124457.000,A,5317.8725,N,00136.8129,W,0.000,0.00,211012,,A*6E
$GPGGA,124516.000,5317.8539,N,00136.8252,W,1,0,,322.0,M,,M,,*46
$GPRMC,124516.000,A,5317.8539,N,00136.8252,W,0.000,0.00,211012,,A*6A
$GPGGA,124534.000,5317.8507,N,00136.8273,W,1,0,,322.0,M,,M,,*48
$GPRMC,124534.000,A,5317.8507,N,00136.8273,W,0.000,0.00,211012,,A*64
$GPGGA,124601.000,5317.8567,N,00136.8359,W,1,0,,322.0,M,,M,,*42
$GPRMC,124601.000,A,5317.8567,N,00136.8359,W,0.000,0.00,211012,,A*6E
$GPGGA,124630.000,5317.8548,N,00136.8336,W,1,0,,322.0,M,,M,,*44
$GPRMC,124630.000,A,5317.8548,N,00136.8336,W,0.000,0.00,211012,,A*68
$GPGGA,124706.000,5317.8574,N,00136.8212,W,1,0,,322.0,M,,M,,*48
$GPRMC,124706.000,A,5317.8574,N,00136.8212,W,0.000,0.00,211012,,A*64
$GPGGA,124723.000,5317.8667,N,00136.8004,W,1,0,,322.0,M,,M,,*4B
$GPRMC,124723.000,A,5317.8667,N,00136.8004,W,0.000,0.00,211012,,A*67
$GPGGA,124741.000,5317.8722,N,00136.7940,W,1,0,,322.0,M,,M,,*49
$GPRMC,124741.000,A,5317.8722,N,00136.7940,W,0.000,0.00,211012,,A*65
$GPGGA,124809.000,5317.8622,N,00136.8145,W,1,0,,322.0,M,,M,,*49
$GPRMC,124809.000,A,5317.8622,N,00136.8145,W,0.000,0.00,211012,,A*65
$GPGGA,124856.000,5317.8553,N,00136.8222,W,1,0,,322.0,M,,M,,*44
$GPRMC,124856.000,A,5317.8553,N,00136.8222,W,0.000,0.00,211012,,A*68
$GPGGA,124944.000,5317.8427,N,00136.8324,W,1,0,,322.0,M,,M,,*43
$GPRMC,124944.000,A,5317.8427,N,00136.8324,W,0.000,0.00,211012,,A*6F
$GPGGA,130854.000,5317.8626,N,00136.8304,W,1,0,,296.0,M,,M,,*49
$GPRMC,130854.000,A,5317.8626,N,00136.8304,W,0.000,0.00,211012,,A*6B
$GPGGA,130915.000,5317.8558,N,00136.8156,W,1,0,,298.0,M,,M,,*4C
$GPRMC,130915.000,A,5317.8558,N,00136.8156,W,0.000,0.00,211012,,A*60
$GPGGA,130931.000,5317.8503,N,00136.8208,W,1,0,,298.0,M,,M,,*4C
$GPRMC,130931.000,A,5317.8503,N,00136.8208,W,0.000,0.00,211012,,A*60
$GPGGA,130946.000,5317.8427,N,00136.8326,W,1,0,,299.0,M,,M,,*47
$GPRMC,130946.000,A,5317.8427,N,00136.8326,W,0.000,0.00,211012,,A*6A
$GPGGA,131001.000,5317.8432,N,00136.8482,W,1,0,,298.0,M,,M,,*40
$GPRMC,131001.000,A,5317.8432,N,00136.8482,W,0.000,0.00,211012,,A*6C
$GPGGA,131017.000,5317.8402,N,00136.8643,W,1,0,,298.0,M,,M,,*4B
$GPRMC,131017.000,A,5317.8402,N,00136.8643,W,0.000,0.00,211012,,A*67
$GPGGA,131032.000,5317.8404,N,00136.8829,W,1,0,,298.0,M,,M,,*48
$GPRMC,131032.000,A,5317.8404,N,00136.8829,W,0.000,0.00,211012,,A*64
$GPGGA,131047.000,5317.8395,N,00136.9018,W,1,0,,298.0,M,,M,,*4E
$GPRMC,131047.000,A,5317.8395,N,00136.9018,W,0.000,0.00,211012,,A*62
$GPGGA,131103.000,5317.8397,N,00136.9220,W,1,0,,298.0,M,,M,,*44
$GPRMC,131103.000,A,5317.8397,N,00136.9220,W,0.000,0.00,211012,,A*68
$GPGGA,131118.000,5317.8411,N,00136.9422,W,1,0,,298.0,M,,M,,*43
$GPRMC,131118.000,A,5317.8411,N,00136.9422,W,0.000,0.00,211012,,A*6F
$GPGGA,131133.000,5317.8365,N,00136.9578,W,1,0,,298.0,M,,M,,*40
$GPRMC,131133.000,A,5317.8365,N,00136.9578,W,0.000,0.00,211012,,A*6C
$GPGGA,131149.000,5317.8368,N,00136.9820,W,1,0,,298.0,M,,M,,*40
$GPRMC,131149.000,A,5317.8368,N,00136.9820,W,0.000,0.00,211012,,A*6C
$GPGGA,131215.000,5317.8306,N,00137.0086,W,1,0,,298.0,M,,M,,*4E
$GPRMC,131215.000,A,5317.8306,N,00137.0086,W,0.000,0.00,211012,,A*62
$GPGGA,131232.000,5317.8283,N,00137.0283,W,1,0,,297.0,M,,M,,*4F
$GPRMC,131232.000,A,5317.8283,N,00137.0283,W,0.000,0.00,211012,,A*6C
$GPGGA,131247.000,5317.8246,N,00137.0414,W,1,0,,298.0,M,,M,,*43
$GPRMC,131247.000,A,5317.8246,N,00137.0414,W,0.000,0.00,211012,,A*6F
$GPGGA,131302.000,5317.8185,N,00137.0474,W,1,0,,298.0,M,,M,,*49
$GPRMC,131302.000,A,5317.8185,N,00137.0474,W,0.000,0.00,211012,,A*65
$GPGGA,131318.000,5317.8198,N,00137.0733,W,1,0,,298.0,M,,M,,*4E
$GPRMC,131318.000,A,5317.8198,N,00137.0733,W,0.000,0.00,211012,,A*62
$GPGGA,131334.000,5317.8150,N,00137.0801,W,1,0,,297.0,M,,M,,*45
$GPRMC,131334.000,A,5317.8150,N,00137.0801,W,0.000,0.00,211012,,A*66
$GPGGA,131349.000,5317.8045,N,00137.0778,W,1,0,,297.0,M,,M,,*4B
$GPRMC,131349.000,A,5317.8045,N,00137.0778,W,0.000,0.00,211012,,A*68
$GPGGA,131404.000,5317.7979,N,00137.0809,W,1,0,,297.0,M,,M,,*45
$GPRMC,131404.000,A,5317.7979,N,00137.0809,W,0.000,0.00,211012,,A*66
$GPGGA,131419.000,5317.7919,N,00137.0859,W,1,0,,297.0,M,,M,,*4A
$GPRMC,131419.000,A,5317.7919,N,00137.0859,W,0.000,0.00,211012,,A*69
$GPGGA,131434.000,5317.7837,N,00137.0845,W,1,0,,297.0,M,,M,,*45
$GPRMC,131434.000,A,5317.7837,N,00137.0845,W,0.000,0.00,211012,,A*66
$GPGGA,131451.000,5317.7619,N,00137.0919,W,1,0,,297.0,M,,M,,*4C
$GPRMC,131451.000,A,5317.7619,N,00137.0919,W,0.000,0.00,211012,,A*6F
$GPGGA,131506.000,5317.7599,N,00137.0934,W,1,0,,297.0,M,,M,,*4B
$GPRMC,131506.000,A,5317.7599,N,00137.0934,W,0.000,0.00,211012,,A*68
$GPGGA,131521.000,5317.7585,N,00137.0965,W,1,0,,297.0,M,,M,,*47
$GPRMC,131521.000,A,5317.7585,N,00137.0965,W,0.000,0.00,211012,,A*64
$GPGGA,131536.000,5317.7502,N,00137.0882,W,1,0,,297.0,M,,M,,*46
$GPRMC,131536.000,A,5317.7502,N,00137.0882,W,0.000,0.00,211012,,A*65
$GPGGA,131551.000,5317.7374,N,00137.0971,W,1,0,,297.0,M,,M,,*4D
$GPRMC,131551.000,A,5317.7374,N,00137.0971,W,0.000,0.00,211012,,A*6E
$GPGGA,131606.000,5317.7262,N,00137.0863,W,1,0,,297.0,M,,M,,*48
$GPRMC,131606.000,A,5317.7262,N,00137.0863,W,0.000,0.00,211012,,A*6B
$GPGGA,131622.000,5317.7203,N,00137.0874,W,1,0,,297.0,M,,M,,*4F
$GPRMC,131622.000,A,5317.7203,N,00137.0874,W,0.000,0.00,211012,,A*6C
$GPGGA,131637.000,5317.7127,N,00137.0932,W,1,0,,297.0,M,,M,,*4D
$GPRMC,131637.000,A,5317.7127,N,00137.0932,W,0.000,0.00,211012,,A*6E
$GPGGA,131652.000,5317.6997,N,00137.1080,W,1,0,,296.0,M,,M,,*4C
$GPRMC,131652.000,A,5317.6997,N,00137.1080,W,0.000,0.00,211012,,A*6E
$GPGGA,131708.000,5317.6905,N,00137.1169,W,1,0,,296.0,M,,M,,*4F
$GPRMC,131708.000,A,5317.6905,N,00137.1169,W,0.000,0.00,211012,,A*6D
$GPGGA,131723.000,5317.6882,N,00137.1131,W,1,0,,296.0,M,,M,,*45
$GPRMC,131723.000,A,5317.6882,N,00137.1131,W,0.000,0.00,211012,,A*67
$GPGGA,131738.000,5317.6857,N,00137.1112,W,1,0,,296.0,M,,M,,*46
$GPRMC,131738.000,A,5317.6857,N,00137.1112,W,0.000,0.00,211012,,A*64
$GPGGA,131754.000,5317.6802,N,00137.1141,W,1,0,,296.0,M,,M,,*4A
$GPRMC,131754.000,A,5317.6802,N,00137.1141,W,0.000,0.00,211012,,A*68
$GPGGA,131809.000,5317.6717,N,00137.1116,W,1,0,,296.0,M,,M,,*44
$GPRMC,131809.000,A,5317.6717,N,00137.1116,W,0.000,0.00,211012,,A*66
$GPGGA,131824.000,5317.6591,N,00137.1312,W,1,0,,296.0,M,,M,,*41
$GPRMC,131824.000,A,5317.6591,N,00137.1312,W,0.000,0.00,211012,,A*63
$GPGGA,131840.000,5317.6617,N,00137.1362,W,1,0,,296.0,M,,M,,*49
$GPRMC,131840.000,A,5317.6617,N,00137.1362,W,0.000,0.00,211012,,A*6B
$GPGGA,131855.000,5317.6594,N,00137.1621,W,1,0,,296.0,M,,M,,*47
$GPRMC,131855.000,A,5317.6594,N,00137.1621,W,0.000,0.00,211012,,A*65
$GPGGA,131911.000,5317.6649,N,00137.1697,W,1,0,,296.0,M,,M,,*48
$GPRMC,131911.000,A,5317.6649,N,00137.1697,W,0.000,0.00,211012,,A*6A
$GPGGA,131926.000,5317.6667,N,00137.1708,W,1,0,,296.0,M,,M,,*47
$GPRMC,131926.000,A,5317.6667,N,00137.1708,W,0.000,0.00,211012,,A*65
$GPGGA,131941.000,5317.6724,N,00137.1827,W,1,0,,295.0,M,,M,,*41
$GPRMC,131941.000,A,5317.6724,N,00137.1827,W,0.000,0.00,211012,,A*60
$GPGGA,131956.000,5317.6779,N,00137.1892,W,1,0,,295.0,M,,M,,*41
$GPRMC,131956.000,A,5317.6779,N,00137.1892,W,0.000,0.00,211012,,A*60
$GPGGA,132011.000,5317.6811,N,00137.2037,W,1,0,,295.0,M,,M,,*4D
$GPRMC,132011.000,A,5317.6811,N,00137.2037,W,0.000,0.00,211012,,A*6C
$GPGGA,132026.000,5317.6834,N,00137.2159,W,1,0,,295.0,M,,M,,*47
$GPRMC,132026.000,A,5317.6834,N,00137.2159,W,0.000,0.00,211012,,A*66
$GPGGA,132041.000,5317.6862,N,00137.2388,W,1,0,,295.0,M,,M,,*4B
$GPRMC,132041.000,A,5317.6862,N,00137.2388,W,0.000,0.00,211012,,A*6A
$GPGGA,132056.000,5317.6818,N,00137.2513,W,1,0,,295.0,M,,M,,*44
$GPRMC,132056.000,A,5317.6818,N,00137.2513,W,0.000,0.00,211012,,A*65
$GPGGA,132111.000,5317.6729,N,00137.2607,W,1,0,,295.0,M,,M,,*4D
$GPRMC,132111.000,A,5317.6729,N,00137.2607,W,0.000,0.00,211012,,A*6C
$GPGGA,132127.000,5317.6667,N,00137.2659,W,1,0,,295.0,M,,M,,*48
$GPRMC,132127.000,A,5317.6667,N,00137.2659,W,0.000,0.00,211012,,A*69
$GPGGA,132143.000,5317.6578,N,00137.2747,W,1,0,,295.0,M,,M,,*49
$GPRMC,132143.000,A,5317.6578,N,00137.2747,W,0.000,0.00,211012,,A*68
$GPGGA,132158.000,5317.6342,N,00137.2779,W,1,0,,294.0,M,,M,,*40
$GPRMC,132158.000,A,5317.6342,N,00137.2779,W,0.000,0.00,211012,,A*60
$GPGGA,132213.000,5317.6255,N,00137.2814,W,1,0,,294.0,M,,M,,*4F
$GPRMC,132213.000,A,5317.6255,N,00137.2814,W,0.000,0.00,211012,,A*6F
$GPGGA,132228.000,5317.6143,N,00137.2831,W,1,0,,293.0,M,,M,,*43
$GPRMC,132228.000,A,5317.6143,N,00137.2831,W,0.000,0.00,211012,,A*64
$GPGGA,132243.000,5317.6040,N,00137.2830,W,1,0,,293.0,M,,M,,*4D
$GPRMC,132243.000,A,5317.6040,N,00137.2830,W,0.000,0.00,211012,,A*6A
$GPGGA,132259.000,5317.5971,N,00137.2863,W,1,0,,294.0,M,,M,,*4F
$GPRMC,132259.000,A,5317.5971,N,00137.2863,W,0.000,0.00,211012,,A*6F
$GPGGA,132314.000,5317.5777,N,00137.2960,W,1,0,,293.0,M,,M,,*4A
$GPRMC,132314.000,A,5317.5777,N,00137.2960,W,0.000,0.00,211012,,A*6D
$GPGGA,132329.000,5317.5754,N,00137.3042,W,1,0,,294.0,M,,M,,*4A
$GPRMC,132329.000,A,5317.5754,N,00137.3042,W,0.000,0.00,211012,,A*6A
$GPGGA,132344.000,5317.5692,N,00137.3111,W,1,0,,294.0,M,,M,,*4D
$GPRMC,132344.000,A,5317.5692,N,00137.3111,W,0.000,0.00,211012,,A*6D
$GPGGA,132402.000,5317.5502,N,00137.3432,W,1,0,,293.0,M,,M,,*41
$GPRMC,132402.000,A,5317.5502,N,00137.3432,W,0.000,0.00,211012,,A*66
$GPGGA,132418.000,5317.5410,N,00137.3436,W,1,0,,293.0,M,,M,,*4C
$GPRMC,132418.000,A,5317.5410,N,00137.3436,W,0.000,0.00,211012,,A*6B
$GPGGA,132433.000,5317.5360,N,00137.3456,W,1,0,,293.0,M,,M,,*43
$GPRMC,132433.000,A,5317.5360,N,00137.3456,W,0.000,0.00,211012,,A*64
$GPGGA,132449.000,5317.5230,N,00137.3495,W,1,0,,293.0,M,,M,,*45
$GPRMC,132449.000,A,5317.5230,N,00137.3495,W,0.000,0.00,211012,,A*62
$GPGGA,132504.000,5317.5044,N,00137.3672,W,1,0,,293.0,M,,M,,*47
$GPRMC,132504.000,A,5317.5044,N,00137.3672,W,0.000,0.00,211012,,A*60
$GPGGA,132519.000,5317.5028,N,00137.3689,W,1,0,,293.0,M,,M,,*45
$GPRMC,132519.000,A,5317.5028,N,00137.3689,W,0.000,0.00,211012,,A*62
$GPGGA,132535.000,5317.4932,N,00137.3812,W,1,0,,293.0,M,,M,,*44
$GPRMC,132535.000,A,5317.4932,N,00137.3812,W,0.000,0.00,211012,,A*63
$GPGGA,132550.000,5317.4850,N,00137.4057,W,1,0,,293.0,M,,M,,*4C
$GPRMC,132550.000,A,5317.4850,N,00137.4057,W,0.000,0.00,211012,,A*6B
$GPGGA,132605.000,5317.4792,N,00137.4105,W,1,0,,293.0,M,,M,,*48
$GPRMC,132605.000,A,5317.4792,N,00137.4105,W,0.000,0.00,211012,,A*6F
$GPGGA,132621.000,5317.4740,N,00137.4242,W,1,0,,293.0,M,,M,,*41
$GPRMC,132621.000,A,5317.4740,N,00137.4242,W,0.000,0.00,211012,,A*66
$GPGGA,132636.000,5317.4641,N,00137.4350,W,1,0,,293.0,M,,M,,*45
$GPRMC,132636.000,A,5317.4641,N,00137.4350,W,0.000,0.00,211012,,A*62
$GPGGA,132652.000,5317.4511,N,00137.4610,W,1,0,,292.0,M,,M,,*41
$GPRMC,132652.000,A,5317.4511,N,00137.4610,W,0.000,0.00,211012,,A*67
$GPGGA,132708.000,5317.4380,N,00137.4780,W,1,0,,292.0,M,,M,,*49
$GPRMC,132708.000,A,5317.4380,N,00137.4780,W,0.000,0.00,211012,,A*6F
$GPGGA,132723.000,5317.4321,N,00137.4852,W,1,0,,292.0,M,,M,,*4B
$GPRMC,132723.000,A,5317.4321,N,00137.4852,W,0.000,0.00,211012,,A*6D
$GPGGA,132739.000,5317.4289,N,00137.5007,W,1,0,,292.0,M,,M,,*4A
$GPRMC,132739.000,A,5317.4289,N,00137.5007,W,0.000,0.00,211012,,A*6C
$GPGGA,132754.000,5317.4186,N,00137.5272,W,1,0,,292.0,M,,M,,*4D
$GPRMC,132754.000,A,5317.4186,N,00137.5272,W,0.000,0.00,211012,,A*6B
$GPGGA,132822.000,5317.4115,N,00137.5554,W,1,0,,292.0,M,,M,,*4A
$GPRMC,132822.000,A,5317.4115,N,00137.5554,W,0.000,0.00,211012,,A*6C
$GPGGA,132838.000,5317.4067,N,00137.5639,W,1,0,,292.0,M,,M,,*4D
$GPRMC,132838.000,A,5317.4067,N,00137.5639,W,0.000,0.00,211012,,A*6B
$GPGGA,132854.000,5317.3932,N,00137.5737,W,1,0,,292.0,M,,M,,*46
$GPRMC,132854.000,A,5317.3932,N,00137.5737,W,0.000,0.00,211012,,A*60
$GPGGA,132909.000,5317.3833,N,00137.5754,W,1,0,,292.0,M,,M,,*4A
$GPRMC,132909.000,A,5317.3833,N,00137.5754,W,0.000,0.00,211012,,A*6C
$GPGGA,132924.000,5317.3767,N,00137.5780,W,1,0,,292.0,M,,M,,*42
$GPRMC,132924.000,A,5317.3767,N,00137.5780,W,0.000,0.00,211012,,A*64
$GPGGA,132939.000,5317.3687,N,00137.5779,W,1,0,,291.0,M,,M,,*44
$GPRMC,132939.000,A,5317.3687,N,00137.5779,W,0.000,0.00,211012,,A*61
$GPGGA,132955.000,5317.3531,N,00137.5737,W,1,0,,291.0,M,,M,,*4A
$GPRMC,132955.000,A,5317.3531,N,00137.5737,W,0.000,0.00,211012,,A*6F
$GPGGA,133010.000,5317.3486,N,00137.5677,W,1,0,,291.0,M,,M,,*4B
$GPRMC,133010.000,A,5317.3486,N,00137.5677,W,0.000,0.00,211012,,A*6E
$GPGGA,133025.000,5317.3378,N,00137.5683,W,1,0,,291.0,M,,M,,*40
$GPRMC,133025.000,A,5317.3378,N,00137.5683,W,0.000,0.00,211012,,A*65
$GPGGA,133049.000,5317.3245,N,00137.5836,W,1,0,,291.0,M,,M,,*45
$GPRMC,133049.000,A,5317.3245,N,00137.5836,W,0.000,0.00,211012,,A*60
$GPGGA,133104.000,5317.3165,N,00137.5893,W,1,0,,291.0,M,,M,,*43
$GPRMC,133104.000,A,5317.3165,N,00137.5893,W,0.000,0.00,211012,,A*66
$GPGGA,133119.000,5317.3083,N,00137.6007,W,1,0,,290.0,M,,M,,*41
$GPRMC,133119.000,A,5317.3083,N,00137.6007,W,0.000,0.00,211012,,A*65
$GPGGA,133134.000,5317.2973,N,00137.6151,W,1,0,,290.0,M,,M,,*4B
$GPRMC,133134.000,A,5317.2973,N,00137.6151,W,0.000,0.00,211012,,A*6F
$GPGGA,133149.000,5317.2897,N,00137.6207,W,1,0,,290.0,M,,M,,*4A
$GPRMC,133149.000,A,5317.2897,N,00137.6207,W,0.000,0.00,211012,,A*6E
$GPGGA,133204.000,5317.2806,N,00137.6281,W,1,0,,290.0,M,,M,,*46
$GPRMC,133204.000,A,5317.2806,N,00137.6281,W,0.000,0.00,211012,,A*62
$GPGGA,133219.000,5317.2673,N,00137.6342,W,1,0,,290.0,M,,M,,*48
$GPRMC,133219.000,A,5317.2673,N,00137.6342,W,0.000,0.00,211012,,A*6C
$GPGGA,133234.000,5317.2499,N,00137.6525,W,1,0,,290.0,M,,M,,*46
$GPRMC,133234.000,A,5317.2499,N,00137.6525,W,0.000,0.00,211012,,A*62
$GPGGA,133249.000,5317.2392,N,00137.6598,W,1,0,,290.0,M,,M,,*46
$GPRMC,133249.000,A,5317.2392,N,00137.6598,W,0.000,0.00,211012,,A*62
$GPGGA,133305.000,5317.2330,N,00137.6614,W,1,0,,290.0,M,,M,,*40
$GPRMC,133305.000,A,5317.2330,N,00137.6614,W,0.000,0.00,211012,,A*64
$GPGGA,133320.000,5317.2211,N,00137.6613,W,1,0,,290.0,M,,M,,*42
$GPRMC,133320.000,A,5317.2211,N,00137.6613,W,0.000,0.00,211012,,A*66
$GPGGA,133335.000,5317.2101,N,00137.6647,W,1,0,,290.0,M,,M,,*45
$GPRMC,133335.000,A,5317.2101,N,00137.6647,W,0.000,0.00,211012,,A*61
$GPGGA,133350.000,5317.2009,N,00137.6798,W,1,0,,290.0,M,,M,,*4C
$GPRMC,133350.000,A,5317.2009,N,00137.6798,W,0.000,0.00,211012,,A*68
$GPGGA,133406.000,5317.1886,N,00137.6844,W,1,0,,290.0,M,,M,,*4A
$GPRMC,133406.000,A,5317.1886,N,00137.6844,W,0.000,0.00,211012,,A*6E
$GPGGA,133421.000,5317.1787,N,00137.6932,W,1,0,,290.0,M,,M,,*41
$GPRMC,133421.000,A,5317.1787,N,00137.6932,W,0.000,0.00,211012,,A*65
$GPGGA,133436.000,5317.1618,N,00137.7124,W,1,0,,290.0,M,,M,,*4E
$GPRMC,133436.000,A,5317.1618,N,00137.7124,W,0.000,0.00,211012,,A*6A
$GPGGA,133451.000,5317.1524,N,00137.7218,W,1,0,,289.0,M,,M,,*47
$GPRMC,133451.000,A,5317.1524,N,00137.7218,W,0.000,0.00,211012,,A*6B
$GPGGA,133510.000,5317.1467,N,00137.7224,W,1,0,,290.0,M,,M,,*42
$GPRMC,133510.000,A,5317.1467,N,00137.7224,W,0.000,0.00,211012,,A*66
$GPGGA,133525.000,5317.1339,N,00137.7117,W,1,0,,290.0,M,,M,,*4B
$GPRMC,133525.000,A,5317.1339,N,00137.7117,W,0.000,0.00,211012,,A*6F
$GPGGA,133540.000,5317.1238,N,00137.7064,W,1,0,,290.0,M,,M,,*4D
$GPRMC,133540.000,A,5317.1238,N,00137.7064,W,0.000,0.00,211012,,A*69
$GPGGA,133555.000,5317.1149,N,00137.6959,W,1,0,,290.0,M,,M,,*4A
$GPRMC,133555.000,A,5317.1149,N,00137.6959,W,0.000,0.00,211012,,A*6E
$GPGGA,133610.000,5317.1059,N,00137.6881,W,1,0,,291.0,M,,M,,*4D
$GPRMC,133610.000,A,5317.1059,N,00137.6881,W,0.000,0.00,211012,,A*68
$GPGGA,133625.000,5317.0975,N,00137.6784,W,1,0,,290.0,M,,M,,*46
$GPRMC,133625.000,A,5317.0975,N,00137.6784,W,0.000,0.00,211012,,A*62
$GPGGA,133641.000,5317.0748,N,00137.6601,W,1,0,,290.0,M,,M,,*48
$GPRMC,133641.000,A,5317.0748,N,00137.6601,W,0.000,0.00,211012,,A*6C
$GPGGA,133657.000,5317.0682,N,00137.6581,W,1,0,,291.0,M,,M,,*42
$GPRMC,133657.000,A,5317.0682,N,00137.6581,W,0.000,0.00,211012,,A*67
$GPGGA,133713.000,5317.0590,N,00137.6578,W,1,0,,291.0,M,,M,,*45
$GPRMC,133713.000,A,5317.0590,N,00137.6578,W,0.000,0.00,211012,,A*60
$GPGGA,133729.000,5317.0435,N,00137.6521,W,1,0,,290.0,M,,M,,*4F
$GPRMC,133729.000,A,5317.0435,N,00137.6521,W,0.000,0.00,211012,,A*6B
$GPGGA,133744.000,5317.0293,N,00137.6622,W,1,0,,291.0,M,,M,,*4F
$GPRMC,133744.000,A,5317.0293,N,00137.6622,W,0.000,0.00,211012,,A*6A
$GPGGA,133800.000,5317.0208,N,00137.6567,W,1,0,,291.0,M,,M,,*40
$GPRMC,133800.000,A,5317.0208,N,00137.6567,W,0.000,0.00,211012,,A*65
$GPGGA,133816.000,5317.0089,N,00137.6420,W,1,0,,291.0,M,,M,,*4E
$GPRMC,133816.000,A,5317.0089,N,00137.6420,W,0.000,0.00,211012,,A*6B
$GPGGA,133831.000,5316.9984,N,00137.6351,W,1,0,,291.0,M,,M,,*46
$GPRMC,133831.000,A,5316.9984,N,00137.6351,W,0.000,0.00,211012,,A*63
$GPGGA,133846.000,5316.9860,N,00137.6213,W,1,0,,291.0,M,,M,,*4A
$GPRMC,133846.000,A,5316.9860,N,00137.6213,W,0.000,0.00,211012,,A*6F
$GPGGA,133902.000,5316.9773,N,00137.6077,W,1,0,,290.0,M,,M,,*47
$GPRMC,133902.000,A,5316.9773,N,00137.6077,W,0.000,0.00,211012,,A*63
$GPGGA,133918.000,5316.9707,N,00137.6011,W,1,0,,290.0,M,,M,,*4F
$GPRMC,133918.000,A,5316.9707,N,00137.6011,W,0.000,0.00,211012,,A*6B
$GPGGA,133933.000,5316.9606,N,00137.5878,W,1,0,,290.0,M,,M,,*42
$GPRMC,133933.000,A,5316.9606,N,00137.5878,W,0.000,0.00,211012,,A*66
$GPGGA,133949.000,5316.9498,N,00137.5795,W,1,0,,290.0,M,,M,,*46
$GPRMC,133949.000,A,5316.9498,N,00137.5795,W,0.000,0.00,211012,,A*62
$GPGGA,134004.000,5316.9423,N,00137.5678,W,1,0,,290.0,M,,M,,*43
$GPRMC,134004.000,A,5316.9423,N,00137.5678,W,0.000,0.00,211012,,A*67
$GPGGA,134019.000,5316.9343,N,00137.5553,W,1,0,,290.0,M,,M,,*44
$GPRMC,134019.000,A,5316.9343,N,00137.5553,W,0.000,0.00,211012,,A*60
$GPGGA,134035.000,5316.9215,N,00137.5429,W,1,0,,290.0,M,,M,,*44
$GPRMC,134035.000,A,5316.9215,N,00137.5429,W,0.000,0.00,211012,,A*60
$GPGGA,134050.000,5316.9160,N,00137.5376,W,1,0,,290.0,M,,M,,*4B
$GPRMC,134050.000,A,5316.9160,N,00137.5376,W,0.000,0.00,211012,,A*6F
$GPGGA,134105.000,5316.9059,N,00137.5269,W,1,0,,291.0,M,,M,,*4F
$GPRMC,134105.000,A,5316.9059,N,00137.5269,W,0.000,0.00,211012,,A*6A
$GPGGA,134121.000,5316.8901,N,00137.5305,W,1,0,,291.0,M,,M,,*47
