@Sonygps/ver3.0/wgs-84/
$GPGGA,100752.000,5321.9777,N,00142.1862,W,1,0,,189.0,M,,M,,*4E
$GPRMC,100752.000,A,5321.9777,N,00142.1862,W,0.000,0.00,061012,,A*64
$GPGGA,100925.000,5321.9724,N,00142.2698,W,1,0,,188.0,M,,M,,*4F
$GPRMC,100925.000,A,5321.9724,N,00142.2698,W,0.000,0.00,061012,,A*64
$GPGGA,100940.000,5321.9681,N,00142.2649,W,1,0,,188.0,M,,M,,*4E
$GPRMC,100940.000,A,5321.9681,N,00142.2649,W,0.000,0.00,061012,,A*65
$GPGGA,100955.000,5321.9633,N,00142.2692,W,1,0,,188.0,M,,M,,*45
$GPRMC,100955.000,A,5321.9633,N,00142.2692,W,0.000,0.00,061012,,A*6E
$GPGGA,101010.000,5321.9521,N,00142.2735,W,1,0,,188.0,M,,M,,*40
$GPRMC,101010.000,A,5321.9521,N,00142.2735,W,0.000,0.00,061012,,A*6B
$GPGGA,101025.000,5321.9424,N,00142.2711,W,1,0,,188.0,M,,M,,*44
$GPRMC,101025.000,A,5321.9424,N,00142.2711,W,0.000,0.00,061012,,A*6F
$GPGGA,101040.000,5321.9303,N,00142.2710,W,1,0,,188.0,M,,M,,*44
$GPRMC,101040.000,A,5321.9303,N,00142.2710,W,0.000,0.00,061012,,A*6F
$GPGGA,101055.000,5321.9193,N,00142.2752,W,1,0,,187.0,M,,M,,*42
$GPRMC,101055.000,A,5321.9193,N,00142.2752,W,0.000,0.00,061012,,A*66
$GPGGA,101110.000,5321.9081,N,00142.2801,W,1,0,,183.0,M,,M,,*4D
$GPRMC,101110.000,A,5321.9081,N,00142.2801,W,0.000,0.00,061012,,A*6D
$GPGGA,101125.000,5321.8971,N,00142.2843,W,1,0,,177.0,M,,M,,*41
$GPRMC,101125.000,A,5321.8971,N,00142.2843,W,0.000,0.00,061012,,A*6A
$GPGGA,101140.000,5321.8873,N,00142.2910,W,1,0,,167.0,M,,M,,*47
$GPRMC,101140.000,A,5321.8873,N,00142.2910,W,0.000,0.00,061012,,A*6D
$GPGGA,101216.000,5321.8669,N,00142.2778,W,1,0,,163.0,M,,M,,*46
$GPRMC,101216.000,A,5321.8669,N,00142.2778,W,0.000,0.00,061012,,A*68
$GPGGA,101231.000,5321.8481,N,00142.2753,W,1,0,,163.0,M,,M,,*4E
$GPRMC,101231.000,A,5321.8481,N,00142.2753,W,0.000,0.00,061012,,A*60
$GPGGA,101246.000,5321.8360,N,00142.2734,W,1,0,,163.0,M,,M,,*47
$GPRMC,101246.000,A,5321.8360,N,00142.2734,W,0.000,0.00,061012,,A*69
$GPGGA,101301.000,5321.8278,N,00142.2745,W,1,0,,163.0,M,,M,,*4B
$GPRMC,101301.000,A,5321.8278,N,00142.2745,W,0.000,0.00,061012,,A*65
$GPGGA,101316.000,5321.8152,N,00142.2807,W,1,0,,163.0,M,,M,,*4F
$GPRMC,101316.000,A,5321.8152,N,00142.2807,W,0.000,0.00,061012,,A*61
$GPGGA,101331.000,5321.8035,N,00142.2846,W,1,0,,163.0,M,,M,,*4F
$GPRMC,101331.000,A,5321.8035,N,00142.2846,W,0.000,0.00,061012,,A*61
$GPGGA,101346.000,5321.7916,N,00142.2841,W,1,0,,163.0,M,,M,,*4F
$GPRMC,101346.000,A,5321.7916,N,00142.2841,W,0.000,0.00,061012,,A*61
$GPGGA,101401.000,5321.7815,N,00142.2854,W,1,0,,164.0,M,,M,,*4A
$GPRMC,101401.000,A,5321.7815,N,00142.2854,W,0.000,0.00,061012,,A*63
$GPGGA,101416.000,5321.7701,N,00142.2862,W,1,0,,166.0,M,,M,,*41
$GPRMC,101416.000,A,5321.7701,N,00142.2862,W,0.000,0.00,061012,,A*6A
$GPGGA,101431.000,5321.7561,N,00142.2879,W,1,0,,170.0,M,,M,,*4D
$GPRMC,101431.000,A,5321.7561,N,00142.2879,W,0.000,0.00,061012,,A*61
$GPGGA,101446.000,5321.7426,N,00142.2871,W,1,0,,178.0,M,,M,,*4F
$GPRMC,101446.000,A,5321.7426,N,00142.2871,W,0.000,0.00,061012,,A*6B
$GPGGA,101501.000,5321.7300,N,00142.2840,W,1,0,,189.0,M,,M,,*42
$GPRMC,101501.000,A,5321.7300,N,00142.2840,W,0.000,0.00,061012,,A*68
$GPGGA,101516.000,5321.7184,N,00142.2798,W,1,0,,203.0,M,,M,,*41
$GPRMC,101516.000,A,5321.7184,N,00142.2798,W,0.000,0.00,061012,,A*6A
$GPGGA,101531.000,5321.7159,N,00142.2817,W,1,0,,206.0,M,,M,,*49
$GPRMC,101531.000,A,5321.7159,N,00142.2817,W,0.000,0.00,061012,,A*67
$GPGGA,101546.000,5321.7101,N,00142.2961,W,1,0,,206.0,M,,M,,*44
$GPRMC,101546.000,A,5321.7101,N,00142.2961,W,0.000,0.00,061012,,A*6A
$GPGGA,101601.000,5321.7081,N,00142.3101,W,1,0,,206.0,M,,M,,*42
$GPRMC,101601.000,A,5321.7081,N,00142.3101,W,0.000,0.00,061012,,A*6C
$GPGGA,101616.000,5321.7072,N,00142.3244,W,1,0,,206.0,M,,M,,*4A
$GPRMC,101616.000,A,5321.7072,N,00142.3244,W,0.000,0.00,061012,,A*64
$GPGGA,101631.000,5321.7065,N,00142.3343,W,1,0,,206.0,M,,M,,*4F
$GPRMC,101631.000,A,5321.7065,N,00142.3343,W,0.000,0.00,061012,,A*61
$GPGGA,101646.000,5321.7078,N,00142.3451,W,1,0,,206.0,M,,M,,*47
$GPRMC,101646.000,A,5321.7078,N,00142.3451,W,0.000,0.00,061012,,A*69
$GPGGA,101701.000,5321.7090,N,00142.3563,W,1,0,,206.0,M,,M,,*43
$GPRMC,101701.000,A,5321.7090,N,00142.3563,W,0.000,0.00,061012,,A*6D
$GPGGA,101716.000,5321.7110,N,00142.3647,W,1,0,,206.0,M,,M,,*49
$GPRMC,101716.000,A,5321.7110,N,00142.3647,W,0.000,0.00,061012,,A*67
$GPGGA,101731.000,5321.7129,N,00142.3691,W,1,0,,206.0,M,,M,,*4D
$GPRMC,101731.000,A,5321.7129,N,00142.3691,W,0.000,0.00,061012,,A*63
$GPGGA,101748.000,5321.7145,N,00142.3727,W,1,0,,206.0,M,,M,,*45
$GPRMC,101748.000,A,5321.7145,N,00142.3727,W,0.000,0.00,061012,,A*6B
$GPGGA,101811.000,5321.7163,N,00142.3684,W,1,0,,206.0,M,,M,,*4A
$GPRMC,101811.000,A,5321.7163,N,00142.3684,W,0.000,0.00,061012,,A*64
$GPGGA,101826.000,5321.7145,N,00142.3764,W,1,0,,206.0,M,,M,,*45
$GPRMC,101826.000,A,5321.7145,N,00142.3764,W,0.000,0.00,061012,,A*6B
$GPGGA,101854.000,5321.7097,N,00142.3928,W,1,0,,205.0,M,,M,,*4B
$GPRMC,101854.000,A,5321.7097,N,00142.3928,W,0.000,0.00,061012,,A*66
$GPGGA,101909.000,5321.7165,N,00142.3983,W,1,0,,205.0,M,,M,,*4F
$GPRMC,101909.000,A,5321.7165,N,00142.3983,W,0.000,0.00,061012,,A*62
$GPGGA,101924.000,5321.7195,N,00142.4009,W,1,0,,205.0,M,,M,,*43
$GPRMC,101924.000,A,5321.7195,N,00142.4009,W,0.000,0.00,061012,,A*6E
$GPGGA,101941.000,5321.7202,N,00142.4050,W,1,0,,205.0,M,,M,,*41
$GPRMC,101941.000,A,5321.7202,N,00142.4050,W,0.000,0.00,061012,,A*6C
$GPGGA,101956.000,5321.7165,N,00142.4072,W,1,0,,205.0,M,,M,,*45
$GPRMC,101956.000,A,5321.7165,N,00142.4072,W,0.000,0.00,061012,,A*68
$GPGGA,102012.000,5321.7211,N,00142.4233,W,1,0,,205.0,M,,M,,*48
$GPRMC,102012.000,A,5321.7211,N,00142.4233,W,0.000,0.00,061012,,A*65
$GPGGA,102028.000,5321.7236,N,00142.4323,W,1,0,,206.0,M,,M,,*47
$GPRMC,102028.000,A,5321.7236,N,00142.4323,W,0.000,0.00,061012,,A*69
$GPGGA,102050.000,5321.7229,N,00142.4375,W,1,0,,206.0,M,,M,,*45
$GPRMC,102050.000,A,5321.7229,N,00142.4375,W,0.000,0.00,061012,,A*6B
$GPGGA,102106.000,5321.7234,N,00142.4406,W,1,0,,206.0,M,,M,,*48
$GPRMC,102106.000,A,5321.7234,N,00142.4406,W,0.000,0.00,061012,,A*66
$GPGGA,102123.000,5321.7245,N,00142.4642,W,1,0,,206.0,M,,M,,*4B
$GPRMC,102123.000,A,5321.7245,N,00142.4642,W,0.000,0.00,061012,,A*65
$GPGGA,102139.000,5321.7209,N,00142.4725,W,1,0,,206.0,M,,M,,*48
$GPRMC,102139.000,A,5321.7209,N,00142.4725,W,0.000,0.00,061012,,A*66
$GPGGA,102206.000,5321.7227,N,00142.4771,W,1,0,,206.0,M,,M,,*4A
$GPRMC,102206.000,A,5321.7227,N,00142.4771,W,0.000,0.00,061012,,A*64
$GPGGA,102223.000,5321.7197,N,00142.4905,W,1,0,,206.0,M,,M,,*48
$GPRMC,102223.000,A,5321.7197,N,00142.4905,W,0.000,0.00,061012,,A*66
$GPGGA,102238.000,5321.7241,N,00142.4979,W,1,0,,206.0,M,,M,,*41
$GPRMC,102238.000,A,5321.7241,N,00142.4979,W,0.000,0.00,061012,,A*6F
$GPGGA,102255.000,5321.7259,N,00142.5033,W,1,0,,206.0,M,,M,,*45
$GPRMC,102255.000,A,5321.7259,N,00142.5033,W,0.000,0.00,061012,,A*6B
$GPGGA,102323.000,5321.7282,N,00142.5180,W,1,0,,206.0,M,,M,,*4A
$GPRMC,102323.000,A,5321.7282,N,00142.5180,W,0.000,0.00,061012,,A*64
$GPGGA,102338.000,5321.7291,N,00142.5280,W,1,0,,206.0,M,,M,,*41
$GPRMC,102338.000,A,5321.7291,N,00142.5280,W,0.000,0.00,061012,,A*6F
$GPGGA,102355.000,5321.7282,N,00142.5334,W,1,0,,206.0,M,,M,,*46
$GPRMC,102355.000,A,5321.7282,N,00142.5334,W,0.000,0.00,061012,,A*68
$GPGGA,102411.000,5321.7353,N,00142.5455,W,1,0,,206.0,M,,M,,*4C
$GPRMC,102411.000,A,5321.7353,N,00142.5455,W,0.000,0.00,061012,,A*62
$GPGGA,102426.000,5321.7385,N,00142.5487,W,1,0,,206.0,M,,M,,*4C
$GPRMC,102426.000,A,5321.7385,N,00142.5487,W,0.000,0.00,061012,,A*62
$GPGGA,102452.000,5321.7387,N,00142.5514,W,1,0,,206.0,M,,M,,*46
$GPRMC,102452.000,A,5321.7387,N,00142.5514,W,0.000,0.00,061012,,A*68
$GPGGA,102508.000,5321.7385,N,00142.5577,W,1,0,,206.0,M,,M,,*4F
$GPRMC,102508.000,A,5321.7385,N,00142.5577,W,0.000,0.00,061012,,A*61
$GPGGA,102524.000,5321.7394,N,00142.5643,W,1,0,,206.0,M,,M,,*45
$GPRMC,102524.000,A,5321.7394,N,00142.5643,W,0.000,0.00,061012,,A*6B
$GPGGA,102539.000,5321.7403,N,00142.5654,W,1,0,,206.0,M,,M,,*46
$GPRMC,102539.000,A,5321.7403,N,00142.5654,W,0.000,0.00,061012,,A*68
$GPGGA,102555.000,5321.7369,N,00142.5741,W,1,0,,206.0,M,,M,,*42
$GPRMC,102555.000,A,5321.7369,N,00142.5741,W,0.000,0.00,061012,,A*6C
$GPGGA,102610.000,5321.7392,N,00142.5921,W,1,0,,206.0,M,,M,,*4C
$GPRMC,102610.000,A,5321.7392,N,00142.5921,W,0.000,0.00,061012,,A*62
$GPGGA,102625.000,5321.7429,N,00142.5903,W,1,0,,206.0,M,,M,,*4D
$GPRMC,102625.000,A,5321.7429,N,00142.5903,W,0.000,0.00,061012,,A*63
$GPGGA,102649.000,5321.7397,N,00142.5982,W,1,0,,206.0,M,,M,,*4C
$GPRMC,102649.000,A,5321.7397,N,00142.5982,W,0.000,0.00,061012,,A*62
$GPGGA,102704.000,5321.7424,N,00142.6055,W,1,0,,206.0,M,,M,,*4B
$GPRMC,102704.000,A,5321.7424,N,00142.6055,W,0.000,0.00,061012,,A*65
$GPGGA,102721.000,5321.7410,N,00142.6069,W,1,0,,206.0,M,,M,,*44
$GPRMC,102721.000,A,5321.7410,N,00142.6069,W,0.000,0.00,061012,,A*6A
$GPGGA,102737.000,5321.7431,N,00142.6174,W,1,0,,206.0,M,,M,,*4D
$GPRMC,102737.000,A,5321.7431,N,00142.6174,W,0.000,0.00,061012,,A*63
$GPGGA,102752.000,5321.7520,N,00142.6221,W,1,0,,206.0,M,,M,,*4C
$GPRMC,102752.000,A,5321.7520,N,00142.6221,W,0.000,0.00,061012,,A*62
$GPGGA,102821.000,5321.7486,N,00142.6278,W,1,0,,206.0,M,,M,,*46
$GPRMC,102821.000,A,5321.7486,N,00142.6278,W,0.000,0.00,061012,,A*68
$GPGGA,102836.000,5321.7422,N,00142.6241,W,1,0,,206.0,M,,M,,*44
$GPRMC,102836.000,A,5321.7422,N,00142.6241,W,0.000,0.00,061012,,A*6A
$GPGGA,102851.000,5321.7454,N,00142.6335,W,1,0,,206.0,M,,M,,*46
$GPRMC,102851.000,A,5321.7454,N,00142.6335,W,0.000,0.00,061012,,A*68
$GPGGA,102907.000,5321.7431,N,00142.6370,W,1,0,,206.0,M,,M,,*46
$GPRMC,102907.000,A,5321.7431,N,00142.6370,W,0.000,0.00,061012,,A*68
$GPGGA,102923.000,5321.7447,N,00142.6383,W,1,0,,206.0,M,,M,,*4D
$GPRMC,102923.000,A,5321.7447,N,00142.6383,W,0.000,0.00,061012,,A*63
$GPGGA,102938.000,5321.7401,N,00142.6385,W,1,0,,207.0,M,,M,,*42
$GPRMC,102938.000,A,5321.7401,N,00142.6385,W,0.000,0.00,061012,,A*6D
$GPGGA,102955.000,5321.7413,N,00142.6434,W,1,0,,207.0,M,,M,,*47
$GPRMC,102955.000,A,5321.7413,N,00142.6434,W,0.000,0.00,061012,,A*68
$GPGGA,103011.000,5321.7442,N,00142.6567,W,1,0,,207.0,M,,M,,*4C
$GPRMC,103011.000,A,5321.7442,N,00142.6567,W,0.000,0.00,061012,,A*63
$GPGGA,103027.000,5321.7461,N,00142.6538,W,1,0,,207.0,M,,M,,*42
$GPRMC,103027.000,A,5321.7461,N,00142.6538,W,0.000,0.00,061012,,A*6D
$GPGGA,103044.000,5321.7387,N,00142.6713,W,1,0,,207.0,M,,M,,*43
$GPRMC,103044.000,A,5321.7387,N,00142.6713,W,0.000,0.00,061012,,A*6C
$GPGGA,103059.000,5321.7458,N,00142.6709,W,1,0,,207.0,M,,M,,*41
$GPRMC,103059.000,A,5321.7458,N,00142.6709,W,0.000,0.00,061012,,A*6E
$GPGGA,103127.000,5321.7449,N,00142.6641,W,1,0,,207.0,M,,M,,*44
$GPRMC,103127.000,A,5321.7449,N,00142.6641,W,0.000,0.00,061012,,A*6B
$GPGGA,103142.000,5321.7470,N,00142.6640,W,1,0,,207.0,M,,M,,*4C
$GPRMC,103142.000,A,5321.7470,N,00142.6640,W,0.000,0.00,061012,,A*63
$GPGGA,103157.000,5321.7454,N,00142.6607,W,1,0,,207.0,M,,M,,*4D
$GPRMC,103157.000,A,5321.7454,N,00142.6607,W,0.000,0.00,061012,,A*62
$GPGGA,103215.000,5321.7440,N,00142.6649,W,1,0,,207.0,M,,M,,*47
$GPRMC,103215.000,A,5321.7440,N,00142.6649,W,0.000,0.00,061012,,A*68
$GPGGA,103231.000,5321.7440,N,00142.6674,W,1,0,,207.0,M,,M,,*4F
$GPRMC,103231.000,A,5321.7440,N,00142.6674,W,0.000,0.00,061012,,A*60
$GPGGA,103246.000,5321.7522,N,00142.6632,W,1,0,,207.0,M,,M,,*48
$GPRMC,103246.000,A,5321.7522,N,00142.6632,W,0.000,0.00,061012,,A*67
$GPGGA,103301.000,5321.7506,N,00142.6648,W,1,0,,207.0,M,,M,,*41
$GPRMC,103301.000,A,5321.7506,N,00142.6648,W,0.000,0.00,061012,,A*6E
$GPGGA,103318.000,5321.7481,N,00142.6677,W,1,0,,208.0,M,,M,,*44
$GPRMC,103318.000,A,5321.7481,N,00142.6677,W,0.000,0.00,061012,,A*64
$GPGGA,103333.000,5321.7506,N,00142.6704,W,1,0,,208.0,M,,M,,*46
$GPRMC,103333.000,A,5321.7506,N,00142.6704,W,0.000,0.00,061012,,A*66
$GPGGA,103348.000,5321.7504,N,00142.6682,W,1,0,,208.0,M,,M,,*47
$GPRMC,103348.000,A,5321.7504,N,00142.6682,W,0.000,0.00,061012,,A*67
$GPGGA,103407.000,5321.7536,N,00142.6762,W,1,0,,208.0,M,,M,,*45
$GPRMC,103407.000,A,5321.7536,N,00142.6762,W,0.000,0.00,061012,,A*65
$GPGGA,103422.000,5321.7559,N,00142.6781,W,1,0,,208.0,M,,M,,*46
$GPRMC,103422.000,A,5321.7559,N,00142.6781,W,0.000,0.00,061012,,A*66
$GPGGA,103437.000,5321.7577,N,00142.6880,W,1,0,,208.0,M,,M,,*40
$GPRMC,103437.000,A,5321.7577,N,00142.6880,W,0.000,0.00,061012,,A*60
$GPGGA,103452.000,5321.7568,N,00142.6852,W,1,0,,208.0,M,,M,,*42
$GPRMC,103452.000,A,5321.7568,N,00142.6852,W,0.000,0.00,061012,,A*62
$GPGGA,103508.000,5321.7458,N,00142.6855,W,1,0,,208.0,M,,M,,*49
$GPRMC,103508.000,A,5321.7458,N,00142.6855,W,0.000,0.00,061012,,A*69
$GPGGA,103523.000,5321.7506,N,00142.6830,W,1,0,,208.0,M,,M,,*49
$GPRMC,103523.000,A,5321.7506,N,00142.6830,W,0.000,0.00,061012,,A*69
$GPGGA,103539.000,5321.7493,N,00142.6878,W,1,0,,208.0,M,,M,,*43
$GPRMC,103539.000,A,5321.7493,N,00142.6878,W,0.000,0.00,061012,,A*63
$GPGGA,103554.000,5321.7545,N,00142.6906,W,1,0,,208.0,M,,M,,*4A
$GPRMC,103554.000,A,5321.7545,N,00142.6906,W,0.000,0.00,061012,,A*6A
$GPGGA,103610.000,5321.7554,N,00142.6947,W,1,0,,208.0,M,,M,,*4C
$GPRMC,103610.000,A,5321.7554,N,00142.6947,W,0.000,0.00,061012,,A*6C
$GPGGA,103625.000,5321.7472,N,00142.6986,W,1,0,,208.0,M,,M,,*42
$GPRMC,103625.000,A,5321.7472,N,00142.6986,W,0.000,0.00,061012,,A*62
$GPGGA,103641.000,5321.7470,N,00142.7030,W,1,0,,208.0,M,,M,,*47
$GPRMC,103641.000,A,5321.7470,N,00142.7030,W,0.000,0.00,061012,,A*67
$GPGGA,103657.000,5321.7429,N,00142.7058,W,1,0,,208.0,M,,M,,*42
$GPRMC,103657.000,A,5321.7429,N,00142.7058,W,0.000,0.00,061012,,A*62
$GPGGA,103712.000,5321.7424,N,00142.7254,W,1,0,,208.0,M,,M,,*41
$GPRMC,103712.000,A,5321.7424,N,00142.7254,W,0.000,0.00,061012,,A*61
$GPGGA,103728.000,5321.7394,N,00142.7264,W,1,0,,208.0,M,,M,,*47
$GPRMC,103728.000,A,5321.7394,N,00142.7264,W,0.000,0.00,061012,,A*67
$GPGGA,103756.000,5321.7374,N,00142.7303,W,1,0,,208.0,M,,M,,*40
$GPRMC,103756.000,A,5321.7374,N,00142.7303,W,0.000,0.00,061012,,A*60
$GPGGA,103811.000,5321.7424,N,00142.7451,W,1,0,,208.0,M,,M,,*4E
$GPRMC,103811.000,A,5321.7424,N,00142.7451,W,0.000,0.00,061012,,A*6E
$GPGGA,103826.000,5321.7477,N,00142.7479,W,1,0,,208.0,M,,M,,*46
$GPRMC,103826.000,A,5321.7477,N,00142.7479,W,0.000,0.00,061012,,A*66
$GPGGA,103843.000,5321.7532,N,00142.7589,W,1,0,,209.0,M,,M,,*4A
$GPRMC,103843.000,A,5321.7532,N,00142.7589,W,0.000,0.00,061012,,A*6B
$GPGGA,103858.000,5321.7513,N,00142.7572,W,1,0,,209.0,M,,M,,*47
$GPRMC,103858.000,A,5321.7513,N,00142.7572,W,0.000,0.00,061012,,A*66
$GPGGA,103914.000,5321.7406,N,00142.7673,W,1,0,,209.0,M,,M,,*49
$GPRMC,103914.000,A,5321.7406,N,00142.7673,W,0.000,0.00,061012,,A*68
$GPGGA,103930.000,5321.7470,N,00142.7778,W,1,0,,209.0,M,,M,,*44
$GPRMC,103930.000,A,5321.7470,N,00142.7778,W,0.000,0.00,061012,,A*65
$GPGGA,103958.000,5321.7445,N,00142.7855,W,1,0,,209.0,M,,M,,*4C
$GPRMC,103958.000,A,5321.7445,N,00142.7855,W,0.000,0.00,061012,,A*6D
$GPGGA,104014.000,5321.7522,N,00142.7846,W,1,0,,209.0,M,,M,,*48
$GPRMC,104014.000,A,5321.7522,N,00142.7846,W,0.000,0.00,061012,,A*69
$GPGGA,104029.000,5321.7543,N,00142.8023,W,1,0,,209.0,M,,M,,*45
$GPRMC,104029.000,A,5321.7543,N,00142.8023,W,0.000,0.00,061012,,A*64
$GPGGA,104045.000,5321.7593,N,00142.8000,W,1,0,,209.0,M,,M,,*43
$GPRMC,104045.000,A,5321.7593,N,00142.8000,W,0.000,0.00,061012,,A*62
$GPGGA,104100.000,5321.7639,N,00142.8256,W,1,0,,209.0,M,,M,,*41
$GPRMC,104100.000,A,5321.7639,N,00142.8256,W,0.000,0.00,061012,,A*60
$GPGGA,104116.000,5321.7550,N,00142.8379,W,1,0,,209.0,M,,M,,*46
$GPRMC,104116.000,A,5321.7550,N,00142.8379,W,0.000,0.00,061012,,A*67
$GPGGA,104131.000,5321.7580,N,00142.8480,W,1,0,,209.0,M,,M,,*4F
$GPRMC,104131.000,A,5321.7580,N,00142.8480,W,0.000,0.00,061012,,A*6E
$GPGGA,104146.000,5321.7568,N,00142.8495,W,1,0,,209.0,M,,M,,*4D
$GPRMC,104146.000,A,5321.7568,N,00142.8495,W,0.000,0.00,061012,,A*6C
$GPGGA,104203.000,5321.7525,N,00142.8646,W,1,0,,209.0,M,,M,,*4A
$GPRMC,104203.000,A,5321.7525,N,00142.8646,W,0.000,0.00,061012,,A*6B
$GPGGA,104219.000,5321.7603,N,00142.8758,W,1,0,,209.0,M,,M,,*48
$GPRMC,104219.000,A,5321.7603,N,00142.8758,W,0.000,0.00,061012,,A*69
$GPGGA,104234.000,5321.7541,N,00142.8706,W,1,0,,209.0,M,,M,,*49
$GPRMC,104234.000,A,5321.7541,N,00142.8706,W,0.000,0.00,061012,,A*68
$GPGGA,104250.000,5321.7575,N,00142.8696,W,1,0,,210.0,M,,M,,*4C
$GPRMC,104250.000,A,5321.7575,N,00142.8696,W,0.000,0.00,061012,,A*65
$GPGGA,104305.000,5321.7552,N,00142.8839,W,1,0,,210.0,M,,M,,*43
$GPRMC,104305.000,A,5321.7552,N,00142.8839,W,0.000,0.00,061012,,A*6A
$GPGGA,104320.000,5321.7589,N,00142.8864,W,1,0,,210.0,M,,M,,*4A
$GPRMC,104320.000,A,5321.7589,N,00142.8864,W,0.000,0.00,061012,,A*63
$GPGGA,104335.000,5321.7566,N,00142.8928,W,1,0,,210.0,M,,M,,*46
$GPRMC,104335.000,A,5321.7566,N,00142.8928,W,0.000,0.00,061012,,A*6F
$GPGGA,104350.000,5321.7635,N,00142.8982,W,1,0,,210.0,M,,M,,*40
$GPRMC,104350.000,A,5321.7635,N,00142.8982,W,0.000,0.00,061012,,A*69
$GPGGA,104405.000,5321.7639,N,00142.9026,W,1,0,,210.0,M,,M,,*4D
$GPRMC,104405.000,A,5321.7639,N,00142.9026,W,0.000,0.00,061012,,A*64
$GPGGA,104420.000,5321.7641,N,00142.9105,W,1,0,,210.0,M,,M,,*45
$GPRMC,104420.000,A,5321.7641,N,00142.9105,W,0.000,0.00,061012,,A*6C
$GPGGA,104435.000,5321.7680,N,00142.9144,W,1,0,,211.0,M,,M,,*48
$GPRMC,104435.000,A,5321.7680,N,00142.9144,W,0.000,0.00,061012,,A*60
$GPGGA,104450.000,5321.7593,N,00142.9685,W,1,0,,212.0,M,,M,,*43
$GPRMC,104450.000,A,5321.7593,N,00142.9685,W,0.000,0.00,061012,,A*68
$GPGGA,104506.000,5321.7577,N,00142.9744,W,1,0,,213.0,M,,M,,*46
$GPRMC,104506.000,A,5321.7577,N,00142.9744,W,0.000,0.00,061012,,A*6C
$GPGGA,104525.000,5321.7646,N,00142.9608,W,1,0,,213.0,M,,M,,*4F
$GPRMC,104525.000,A,5321.7646,N,00142.9608,W,0.000,0.00,061012,,A*65
$GPGGA,104540.000,5321.7447,N,00142.9832,W,1,0,,213.0,M,,M,,*48
$GPRMC,104540.000,A,5321.7447,N,00142.9832,W,0.000,0.00,061012,,A*62
$GPGGA,104555.000,5321.7616,N,00142.9738,W,1,0,,213.0,M,,M,,*4F
$GPRMC,104555.000,A,5321.7616,N,00142.9738,W,0.000,0.00,061012,,A*65
$GPGGA,104610.000,5321.7582,N,00142.9637,W,1,0,,213.0,M,,M,,*4D
$GPRMC,104610.000,A,5321.7582,N,00142.9637,W,0.000,0.00,061012,,A*67
$GPGGA,104626.000,5321.7708,N,00142.9412,W,1,0,,214.0,M,,M,,*4A
$GPRMC,104626.000,A,5321.7708,N,00142.9412,W,0.000,0.00,061012,,A*67
$GPGGA,104641.000,5321.7735,N,00142.9401,W,1,0,,214.0,M,,M,,*47
$GPRMC,104641.000,A,5321.7735,N,00142.9401,W,0.000,0.00,061012,,A*6A
$GPGGA,104657.000,5321.7751,N,00142.9488,W,1,0,,214.0,M,,M,,*43
$GPRMC,104657.000,A,5321.7751,N,00142.9488,W,0.000,0.00,061012,,A*6E
$GPGGA,104712.000,5321.7776,N,00142.9172,W,1,0,,214.0,M,,M,,*46
$GPRMC,104712.000,A,5321.7776,N,00142.9172,W,0.000,0.00,061012,,A*6B
$GPGGA,104727.000,5321.7786,N,00142.9327,W,1,0,,214.0,M,,M,,*4D
$GPRMC,104727.000,A,5321.7786,N,00142.9327,W,0.000,0.00,061012,,A*60
$GPGGA,104742.000,5321.7831,N,00142.9203,W,1,0,,214.0,M,,M,,*4A
$GPRMC,104742.000,A,5321.7831,N,00142.9203,W,0.000,0.00,061012,,A*67
$GPGGA,104758.000,5321.7845,N,00142.9192,W,1,0,,214.0,M,,M,,*49
$GPRMC,104758.000,A,5321.7845,N,00142.9192,W,0.000,0.00,061012,,A*64
$GPGGA,104813.000,5321.7873,N,00142.9778,W,1,0,,214.0,M,,M,,*4E
$GPRMC,104813.000,A,5321.7873,N,00142.9778,W,0.000,0.00,061012,,A*63
$GPGGA,104828.000,5321.7847,N,00142.9865,W,1,0,,214.0,M,,M,,*42
$GPRMC,104828.000,A,5321.7847,N,00142.9865,W,0.000,0.00,061012,,A*6F
$GPGGA,104844.000,5321.7863,N,00142.9971,W,1,0,,214.0,M,,M,,*4A
$GPRMC,104844.000,A,5321.7863,N,00142.9971,W,0.000,0.00,061012,,A*67
$GPGGA,104859.000,5321.7914,N,00142.9907,W,1,0,,215.0,M,,M,,*47
$GPRMC,104859.000,A,5321.7914,N,00142.9907,W,0.000,0.00,061012,,A*6B
$GPGGA,104914.000,5321.7898,N,00142.9975,W,1,0,,215.0,M,,M,,*4F
$GPRMC,104914.000,A,5321.7898,N,00142.9975,W,0.000,0.00,061012,,A*63
$GPGGA,104930.000,5321.7946,N,00143.0207,W,1,0,,215.0,M,,M,,*4D
$GPRMC,104930.000,A,5321.7946,N,00143.0207,W,0.000,0.00,061012,,A*61
$GPGGA,104945.000,5321.8024,N,00143.0312,W,1,0,,215.0,M,,M,,*48
$GPRMC,104945.000,A,5321.8024,N,00143.0312,W,0.000,0.00,061012,,A*64
$GPGGA,105000.000,5321.8015,N,00143.0453,W,1,0,,216.0,M,,M,,*42
$GPRMC,105000.000,A,5321.8015,N,00143.0453,W,0.000,0.00,061012,,A*6D
$GPGGA,105016.000,5321.7964,N,00143.0541,W,1,0,,216.0,M,,M,,*47
$GPRMC,105016.000,A,5321.7964,N,00143.0541,W,0.000,0.00,061012,,A*68
$GPGGA,105031.000,5321.7999,N,00143.0536,W,1,0,,216.0,M,,M,,*40
$GPRMC,105031.000,A,5321.7999,N,00143.0536,W,0.000,0.00,061012,,A*6F
$GPGGA,105046.000,5321.7994,N,00143.0567,W,1,0,,216.0,M,,M,,*49
$GPRMC,105046.000,A,5321.7994,N,00143.0567,W,0.000,0.00,061012,,A*66
$GPGGA,105101.000,5321.7831,N,00143.0580,W,1,0,,216.0,M,,M,,*4C
$GPRMC,105101.000,A,5321.7831,N,00143.0580,W,0.000,0.00,061012,,A*63
$GPGGA,105117.000,5321.7806,N,00143.0732,W,1,0,,216.0,M,,M,,*44
$GPRMC,105117.000,A,5321.7806,N,00143.0732,W,0.000,0.00,061012,,A*6B
$GPGGA,105132.000,5321.7836,N,00143.0769,W,1,0,,216.0,M,,M,,*4E
$GPRMC,105132.000,A,5321.7836,N,00143.0769,W,0.000,0.00,061012,,A*61
$GPGGA,105147.000,5321.6946,N,00143.0541,W,1,0,,217.0,M,,M,,*42
$GPRMC,105147.000,A,5321.6946,N,00143.0541,W,0.000,0.00,061012,,A*6C
$GPGGA,105202.000,5321.7236,N,00143.1062,W,1,0,,217.0,M,,M,,*48
$GPRMC,105202.000,A,5321.7236,N,00143.1062,W,0.000,0.00,061012,,A*66
$GPGGA,105218.000,5321.7326,N,00143.1328,W,1,0,,217.0,M,,M,,*4E
$GPRMC,105218.000,A,5321.7326,N,00143.1328,W,0.000,0.00,061012,,A*60
$GPGGA,105233.000,5321.7371,N,00143.1318,W,1,0,,217.0,M,,M,,*46
$GPRMC,105233.000,A,5321.7371,N,00143.1318,W,0.000,0.00,061012,,A*68
$GPGGA,105257.000,5321.7522,N,00143.1375,W,1,0,,218.0,M,,M,,*40
$GPRMC,105257.000,A,5321.7522,N,00143.1375,W,0.000,0.00,061012,,A*61
$GPGGA,105312.000,5321.7662,N,00143.1912,W,1,0,,231.0,M,,M,,*47
$GPRMC,105312.000,A,5321.7662,N,00143.1912,W,0.000,0.00,061012,,A*6D
$GPGGA,105327.000,5321.7754,N,00143.2094,W,1,0,,220.0,M,,M,,*41
$GPRMC,105327.000,A,5321.7754,N,00143.2094,W,0.000,0.00,061012,,A*6B
$GPGGA,105342.000,5321.7770,N,00143.2051,W,1,0,,218.0,M,,M,,*46
$GPRMC,105342.000,A,5321.7770,N,00143.2051,W,0.000,0.00,061012,,A*67
$GPGGA,105357.000,5321.7783,N,00143.2051,W,1,0,,218.0,M,,M,,*4E
$GPRMC,105357.000,A,5321.7783,N,00143.2051,W,0.000,0.00,061012,,A*6F
$GPGGA,105412.000,5321.7795,N,00143.2037,W,1,0,,219.0,M,,M,,*4E
$GPRMC,105412.000,A,5321.7795,N,00143.2037,W,0.000,0.00,061012,,A*6E
$GPGGA,105427.000,5321.7760,N,00143.2002,W,1,0,,220.0,M,,M,,*4E
$GPRMC,105427.000,A,5321.7760,N,00143.2002,W,0.000,0.00,061012,,A*64
$GPGGA,105442.000,5321.7758,N,00143.1941,W,1,0,,221.0,M,,M,,*4A
$GPRMC,105442.000,A,5321.7758,N,00143.1941,W,0.000,0.00,061012,,A*61
$GPGGA,105457.000,5321.7637,N,00143.1844,W,1,0,,225.0,M,,M,,*46
$GPRMC,105457.000,A,5321.7637,N,00143.1844,W,0.000,0.00,061012,,A*69
$GPGGA,105512.000,5321.7566,N,00143.1928,W,1,0,,229.0,M,,M,,*46
$GPRMC,105512.000,A,5321.7566,N,00143.1928,W,0.000,0.00,061012,,A*65
$GPGGA,105527.000,5321.7557,N,00143.2059,W,1,0,,232.0,M,,M,,*44
$GPRMC,105527.000,A,5321.7557,N,00143.2059,W,0.000,0.00,061012,,A*6D
$GPGGA,105542.000,5321.7587,N,00143.2200,W,1,0,,236.0,M,,M,,*40
$GPRMC,105542.000,A,5321.7587,N,00143.2200,W,0.000,0.00,061012,,A*6D
$GPGGA,105557.000,5321.7635,N,00143.2291,W,1,0,,237.0,M,,M,,*47
$GPRMC,105557.000,A,5321.7635,N,00143.2291,W,0.000,0.00,061012,,A*6B
$GPGGA,105612.000,5321.7669,N,00143.2268,W,1,0,,238.0,M,,M,,*45
$GPRMC,105612.000,A,5321.7669,N,00143.2268,W,0.000,0.00,061012,,A*66
$GPGGA,105627.000,5321.7644,N,00143.2246,W,1,0,,242.0,M,,M,,*4D
$GPRMC,105627.000,A,5321.7644,N,00143.2246,W,0.000,0.00,061012,,A*63
$GPGGA,105642.000,5321.7653,N,00143.2251,W,1,0,,246.0,M,,M,,*4A
$GPRMC,105642.000,A,5321.7653,N,00143.2251,W,0.000,0.00,061012,,A*60
$GPGGA,105657.000,5321.7774,N,00143.2378,W,1,0,,244.0,M,,M,,*42
$GPRMC,105657.000,A,5321.7774,N,00143.2378,W,0.000,0.00,061012,,A*6A
$GPGGA,105712.000,5321.7996,N,00143.2670,W,1,0,,235.0,M,,M,,*4B
$GPRMC,105712.000,A,5321.7996,N,00143.2670,W,0.000,0.00,061012,,A*65
$GPGGA,105727.000,5321.8243,N,00143.2903,W,1,0,,234.0,M,,M,,*4B
$GPRMC,105727.000,A,5321.8243,N,00143.2903,W,0.000,0.00,061012,,A*64
$GPGGA,105742.000,5321.8301,N,00143.2910,W,1,0,,237.0,M,,M,,*4E
$GPRMC,105742.000,A,5321.8301,N,00143.2910,W,0.000,0.00,061012,,A*62
$GPGGA,105759.000,5321.8214,N,00143.2763,W,1,0,,245.0,M,,M,,*4E
$GPRMC,105759.000,A,5321.8214,N,00143.2763,W,0.000,0.00,061012,,A*67
$GPGGA,105814.000,5321.7159,N,00143.2789,W,1,0,,245.0,M,,M,,*49
$GPRMC,105814.000,A,5321.7159,N,00143.2789,W,0.000,0.00,061012,,A*60
$GPGGA,105830.000,5321.7101,N,00143.2555,W,1,0,,246.0,M,,M,,*42
$GPRMC,105830.000,A,5321.7101,N,00143.2555,W,0.000,0.00,061012,,A*68
$GPGGA,105845.000,5321.7060,N,00143.2630,W,1,0,,246.0,M,,M,,*46
$GPRMC,105845.000,A,5321.7060,N,00143.2630,W,0.000,0.00,061012,,A*6C
$GPGGA,105900.000,5321.7028,N,00143.2681,W,1,0,,246.0,M,,M,,*40
$GPRMC,105900.000,A,5321.7028,N,00143.2681,W,0.000,0.00,061012,,A*6A
$GPGGA,105915.000,5321.7140,N,00143.2681,W,1,0,,246.0,M,,M,,*4B
$GPRMC,105915.000,A,5321.7140,N,00143.2681,W,0.000,0.00,061012,,A*61
$GPGGA,105930.000,5321.7058,N,00143.2774,W,1,0,,246.0,M,,M,,*4F
$GPRMC,105930.000,A,5321.7058,N,00143.2774,W,0.000,0.00,061012,,A*65
$GPGGA,105945.000,5321.7081,N,00143.2681,W,1,0,,247.0,M,,M,,*43
$GPRMC,105945.000,A,5321.7081,N,00143.2681,W,0.000,0.00,061012,,A*68
$GPGGA,110001.000,5321.7126,N,00143.2657,W,1,0,,247.0,M,,M,,*49
$GPRMC,110001.000,A,5321.7126,N,00143.2657,W,0.000,0.00,061012,,A*62
$GPGGA,110016.000,5321.7053,N,00143.2820,W,1,0,,247.0,M,,M,,*42
$GPRMC,110016.000,A,5321.7053,N,00143.2820,W,0.000,0.00,061012,,A*69
$GPGGA,110031.000,5321.7069,N,00143.2881,W,1,0,,247.0,M,,M,,*45
$GPRMC,110031.000,A,5321.7069,N,00143.2881,W,0.000,0.00,061012,,A*6E
$GPGGA,110046.000,5321.7072,N,00143.3065,W,1,0,,248.0,M,,M,,*43
$GPRMC,110046.000,A,5321.7072,N,00143.3065,W,0.000,0.00,061012,,A*67
$GPGGA,110102.000,5321.7255,N,00143.3040,W,1,0,,248.0,M,,M,,*42
$GPRMC,110102.000,A,5321.7255,N,00143.3040,W,0.000,0.00,061012,,A*66
$GPGGA,110118.000,5321.7328,N,00143.3020,W,1,0,,249.0,M,,M,,*45
$GPRMC,110118.000,A,5321.7328,N,00143.3020,W,0.000,0.00,061012,,A*60
$GPGGA,110133.000,5321.7234,N,00143.2983,W,1,0,,249.0,M,,M,,*41
$GPRMC,110133.000,A,5321.7234,N,00143.2983,W,0.000,0.00,061012,,A*64
$GPGGA,110148.000,5321.6959,N,00143.2694,W,1,0,,248.0,M,,M,,*44
$GPRMC,110148.000,A,5321.6959,N,00143.2694,W,0.000,0.00,061012,,A*60
$GPGGA,110203.000,5321.6909,N,00143.2641,W,1,0,,248.0,M,,M,,*45
$GPRMC,110203.000,A,5321.6909,N,00143.2641,W,0.000,0.00,061012,,A*61
$GPGGA,110218.000,5321.6898,N,00143.2613,W,1,0,,249.0,M,,M,,*40
$GPRMC,110218.000,A,5321.6898,N,00143.2613,W,0.000,0.00,061012,,A*65
$GPGGA,110234.000,5321.6904,N,00143.2617,W,1,0,,248.0,M,,M,,*4F
$GPRMC,110234.000,A,5321.6904,N,00143.2617,W,0.000,0.00,061012,,A*6B
$GPGGA,110249.000,5321.7062,N,00143.2636,W,1,0,,249.0,M,,M,,*4F
$GPRMC,110249.000,A,5321.7062,N,00143.2636,W,0.000,0.00,061012,,A*6A
$GPGGA,110304.000,5321.7012,N,00143.2624,W,1,0,,249.0,M,,M,,*43
$GPRMC,110304.000,A,5321.7012,N,00143.2624,W,0.000,0.00,061012,,A*66
$GPGGA,110319.000,5321.6975,N,00143.2522,W,1,0,,248.0,M,,M,,*42
$GPRMC,110319.000,A,5321.6975,N,00143.2522,W,0.000,0.00,061012,,A*66
$GPGGA,110334.000,5321.6962,N,00143.2409,W,1,0,,249.0,M,,M,,*42
$GPRMC,110334.000,A,5321.6962,N,00143.2409,W,0.000,0.00,061012,,A*67
$GPGGA,110350.000,5321.6980,N,00143.2631,W,1,0,,249.0,M,,M,,*45
$GPRMC,110350.000,A,5321.6980,N,00143.2631,W,0.000,0.00,061012,,A*60
$GPGGA,110407.000,5321.6953,N,00143.2664,W,1,0,,249.0,M,,M,,*4E
$GPRMC,110407.000,A,5321.6953,N,00143.2664,W,0.000,0.00,061012,,A*6B
$GPGGA,110423.000,5321.6966,N,00143.2685,W,1,0,,250.0,M,,M,,*49
$GPRMC,110423.000,A,5321.6966,N,00143.2685,W,0.000,0.00,061012,,A*64
$GPGGA,110452.000,5321.6959,N,00143.2684,W,1,0,,250.0,M,,M,,*42
$GPRMC,110452.000,A,5321.6959,N,00143.2684,W,0.000,0.00,061012,,A*6F
$GPGGA,110507.000,5321.6971,N,00143.2671,W,1,0,,250.0,M,,M,,*43
$GPRMC,110507.000,A,5321.6971,N,00143.2671,W,0.000,0.00,061012,,A*6E
$GPGGA,110522.000,5321.6980,N,00143.2653,W,1,0,,250.0,M,,M,,*4A
$GPRMC,110522.000,A,5321.6980,N,00143.2653,W,0.000,0.00,061012,,A*67
$GPGGA,110537.000,5321.6987,N,00143.2630,W,1,0,,250.0,M,,M,,*4C
$GPRMC,110537.000,A,5321.6987,N,00143.2630,W,0.000,0.00,061012,,A*61
$GPGGA,110552.000,5321.6966,N,00143.2659,W,1,0,,250.0,M,,M,,*4F
$GPRMC,110552.000,A,5321.6966,N,00143.2659,W,0.000,0.00,061012,,A*62
$GPGGA,110607.000,5321.6948,N,00143.2666,W,1,0,,250.0,M,,M,,*4C
$GPRMC,110607.000,A,5321.6948,N,00143.2666,W,0.000,0.00,061012,,A*61
$GPGGA,110622.000,5321.6923,N,00143.2657,W,1,0,,250.0,M,,M,,*44
$GPRMC,110622.000,A,5321.6923,N,00143.2657,W,0.000,0.00,061012,,A*69
$GPGGA,110637.000,5321.6962,N,00143.2717,W,1,0,,250.0,M,,M,,*40
$GPRMC,110637.000,A,5321.6962,N,00143.2717,W,0.000,0.00,061012,,A*6D
$GPGGA,110653.000,5321.7003,N,00143.2816,W,1,0,,250.0,M,,M,,*43
$GPRMC,110653.000,A,5321.7003,N,00143.2816,W,0.000,0.00,061012,,A*6E
$GPGGA,110709.000,5321.7728,N,00143.1836,W,1,0,,303.0,M,,M,,*45
$GPRMC,110709.000,A,5321.7728,N,00143.1836,W,0.000,0.00,061012,,A*6F
$GPGGA,110724.000,5321.7870,N,00143.1693,W,1,0,,258.0,M,,M,,*46
$GPRMC,110724.000,A,5321.7870,N,00143.1693,W,0.000,0.00,061012,,A*63
$GPGGA,110739.000,5321.7905,N,00143.1671,W,1,0,,253.0,M,,M,,*4E
$GPRMC,110739.000,A,5321.7905,N,00143.1671,W,0.000,0.00,061012,,A*60
$GPGGA,110754.000,5321.7701,N,00143.2205,W,1,0,,251.0,M,,M,,*49
$GPRMC,110754.000,A,5321.7701,N,00143.2205,W,0.000,0.00,061012,,A*65
$GPGGA,110809.000,5321.7671,N,00143.2218,W,1,0,,253.0,M,,M,,*46
$GPRMC,110809.000,A,5321.7671,N,00143.2218,W,0.000,0.00,061012,,A*68
$GPGGA,110824.000,5321.7662,N,00143.2211,W,1,0,,253.0,M,,M,,*42
$GPRMC,110824.000,A,5321.7662,N,00143.2211,W,0.000,0.00,061012,,A*6C
$GPGGA,110839.000,5321.7696,N,00143.2199,W,1,0,,253.0,M,,M,,*46
$GPRMC,110839.000,A,5321.7696,N,00143.2199,W,0.000,0.00,061012,,A*68
$GPGGA,110854.000,5321.7685,N,00143.2266,W,1,0,,254.0,M,,M,,*4B
$GPRMC,110854.000,A,5321.7685,N,00143.2266,W,0.000,0.00,061012,,A*62
$GPGGA,110909.000,5321.7687,N,00143.2300,W,1,0,,255.0,M,,M,,*40
$GPRMC,110909.000,A,5321.7687,N,00143.2300,W,0.000,0.00,061012,,A*68
$GPGGA,110924.000,5321.7680,N,00143.2276,W,1,0,,257.0,M,,M,,*4A
$GPRMC,110924.000,A,5321.7680,N,00143.2276,W,0.000,0.00,061012,,A*60
$GPGGA,110939.000,5321.7630,N,00143.2544,W,1,0,,275.0,M,,M,,*4B
$GPRMC,110939.000,A,5321.7630,N,00143.2544,W,0.000,0.00,061012,,A*61
$GPGGA,110954.000,5321.7522,N,00143.2614,W,1,0,,286.0,M,,M,,*4A
$GPRMC,110954.000,A,5321.7522,N,00143.2614,W,0.000,0.00,061012,,A*6C
$GPGGA,111009.000,5321.7383,N,00143.2625,W,1,0,,286.0,M,,M,,*45
$GPRMC,111009.000,A,5321.7383,N,00143.2625,W,0.000,0.00,061012,,A*63
$GPGGA,111024.000,5321.7314,N,00143.2603,W,1,0,,286.0,M,,M,,*40
$GPRMC,111024.000,A,5321.7314,N,00143.2603,W,0.000,0.00,061012,,A*66
$GPGGA,111043.000,5321.7113,N,00143.2713,W,1,0,,286.0,M,,M,,*44
$GPRMC,111043.000,A,5321.7113,N,00143.2713,W,0.000,0.00,061012,,A*62
$GPGGA,111058.000,5321.7273,N,00143.2738,W,1,0,,287.0,M,,M,,*43
$GPRMC,111058.000,A,5321.7273,N,00143.2738,W,0.000,0.00,061012,,A*64
$GPGGA,111129.000,5321.7177,N,00143.2758,W,1,0,,287.0,M,,M,,*45
$GPRMC,111129.000,A,5321.7177,N,00143.2758,W,0.000,0.00,061012,,A*62
$GPGGA,111144.000,5321.7197,N,00143.2746,W,1,0,,287.0,M,,M,,*4F
$GPRMC,111144.000,A,5321.7197,N,00143.2746,W,0.000,0.00,061012,,A*68
$GPGGA,111159.000,5321.7191,N,00143.2754,W,1,0,,287.0,M,,M,,*46
$GPRMC,111159.000,A,5321.7191,N,00143.2754,W,0.000,0.00,061012,,A*61
$GPGGA,111215.000,5321.7296,N,00143.2561,W,1,0,,288.0,M,,M,,*42
$GPRMC,111215.000,A,5321.7296,N,00143.2561,W,0.000,0.00,061012,,A*6A
$GPGGA,111230.000,5321.7326,N,00143.2173,W,1,0,,288.0,M,,M,,*48
$GPRMC,111230.000,A,5321.7326,N,00143.2173,W,0.000,0.00,061012,,A*60
$GPGGA,111245.000,5321.7502,N,00143.2114,W,1,0,,288.0,M,,M,,*4B
$GPRMC,111245.000,A,5321.7502,N,00143.2114,W,0.000,0.00,061012,,A*63
$GPGGA,111304.000,5321.7854,N,00143.1907,W,1,0,,289.0,M,,M,,*49
$GPRMC,111304.000,A,5321.7854,N,00143.1907,W,0.000,0.00,061012,,A*60
$GPGGA,111319.000,5321.7923,N,00143.1938,W,1,0,,289.0,M,,M,,*48
$GPRMC,111319.000,A,5321.7923,N,00143.1938,W,0.000,0.00,061012,,A*61
$GPGGA,111340.000,5321.7928,N,00143.2132,W,1,0,,289.0,M,,M,,*4E
$GPRMC,111340.000,A,5321.7928,N,00143.2132,W,0.000,0.00,061012,,A*67
$GPGGA,111355.000,5321.7916,N,00143.2115,W,1,0,,289.0,M,,M,,*42
$GPRMC,111355.000,A,5321.7916,N,00143.2115,W,0.000,0.00,061012,,A*6B
$GPGGA,111410.000,5321.7900,N,00143.2171,W,1,0,,289.0,M,,M,,*41
$GPRMC,111410.000,A,5321.7900,N,00143.2171,W,0.000,0.00,061012,,A*68
$GPGGA,111425.000,5321.7825,N,00143.2240,W,1,0,,289.0,M,,M,,*40
$GPRMC,111425.000,A,5321.7825,N,00143.2240,W,0.000,0.00,061012,,A*69
$GPGGA,111441.000,5321.7918,N,00143.2488,W,1,0,,289.0,M,,M,,*4F
$GPRMC,111441.000,A,5321.7918,N,00143.2488,W,0.000,0.00,061012,,A*66
$GPGGA,111456.000,5321.7728,N,00143.2666,W,1,0,,288.0,M,,M,,*47
$GPRMC,111456.000,A,5321.7728,N,00143.2666,W,0.000,0.00,061012,,A*6F
$GPGGA,111511.000,5321.7738,N,00143.2659,W,1,0,,289.0,M,,M,,*49
$GPRMC,111511.000,A,5321.7738,N,00143.2659,W,0.000,0.00,061012,,A*60
$GPGGA,111527.000,5321.7751,N,00143.2706,W,1,0,,289.0,M,,M,,*48
$GPRMC,111527.000,A,5321.7751,N,00143.2706,W,0.000,0.00,061012,,A*61
$GPGGA,111542.000,5321.7751,N,00143.2867,W,1,0,,289.0,M,,M,,*43
$GPRMC,111542.000,A,5321.7751,N,00143.2867,W,0.000,0.00,061012,,A*6A
$GPGGA,111557.000,5321.7765,N,00143.3002,W,1,0,,289.0,M,,M,,*4A
$GPRMC,111557.000,A,5321.7765,N,00143.3002,W,0.000,0.00,061012,,A*63
$GPGGA,111612.000,5321.7758,N,00143.3150,W,1,0,,289.0,M,,M,,*40
$GPRMC,111612.000,A,5321.7758,N,00143.3150,W,0.000,0.00,061012,,A*69
$GPGGA,111628.000,5321.7509,N,00143.3486,W,1,0,,289.0,M,,M,,*41
$GPRMC,111628.000,A,5321.7509,N,00143.3486,W,0.000,0.00,061012,,A*68
$GPGGA,111643.000,5321.7607,N,00143.3293,W,1,0,,289.0,M,,M,,*43
$GPRMC,111643.000,A,5321.7607,N,00143.3293,W,0.000,0.00,061012,,A*6A
$GPGGA,111658.000,5321.7639,N,00143.3331,W,1,0,,289.0,M,,M,,*4D
$GPRMC,111658.000,A,5321.7639,N,00143.3331,W,0.000,0.00,061012,,A*64
$GPGGA,111713.000,5321.7653,N,00143.3462,W,1,0,,289.0,M,,M,,*4E
$GPRMC,111713.000,A,5321.7653,N,00143.3462,W,0.000,0.00,061012,,A*67
$GPGGA,111729.000,5321.7596,N,00143.3728,W,1,0,,290.0,M,,M,,*48
$GPRMC,111729.000,A,5321.7596,N,00143.3728,W,0.000,0.00,061012,,A*69
$GPGGA,111744.000,5321.7609,N,00143.3806,W,1,0,,290.0,M,,M,,*45
$GPRMC,111744.000,A,5321.7609,N,00143.3806,W,0.000,0.00,061012,,A*64
$GPGGA,111759.000,5321.7639,N,00143.3939,W,1,0,,290.0,M,,M,,*47
$GPRMC,111759.000,A,5321.7639,N,00143.3939,W,0.000,0.00,061012,,A*66
$GPGGA,111814.000,5321.7598,N,00143.4103,W,1,0,,290.0,M,,M,,*4F
$GPRMC,111814.000,A,5321.7598,N,00143.4103,W,0.000,0.00,061012,,A*6E
$GPGGA,111829.000,5321.7625,N,00143.4324,W,1,0,,290.0,M,,M,,*43
$GPRMC,111829.000,A,5321.7625,N,00143.4324,W,0.000,0.00,061012,,A*62
$GPGGA,111845.000,5321.7614,N,00143.4215,W,1,0,,290.0,M,,M,,*48
$GPRMC,111845.000,A,5321.7614,N,00143.4215,W,0.000,0.00,061012,,A*69
$GPGGA,111900.000,5321.7621,N,00143.4521,W,1,0,,290.0,M,,M,,*4E
$GPRMC,111900.000,A,5321.7621,N,00143.4521,W,0.000,0.00,061012,,A*6F
$GPGGA,111915.000,5321.7584,N,00143.4728,W,1,0,,291.0,M,,M,,*4C
$GPRMC,111915.000,A,5321.7584,N,00143.4728,W,0.000,0.00,061012,,A*6C
$GPGGA,111930.000,5321.7580,N,00143.4889,W,1,0,,290.0,M,,M,,*4A
$GPRMC,111930.000,A,5321.7580,N,00143.4889,W,0.000,0.00,061012,,A*6B
$GPGGA,111946.000,5321.7559,N,00143.5007,W,1,0,,290.0,M,,M,,*40
$GPRMC,111946.000,A,5321.7559,N,00143.5007,W,0.000,0.00,061012,,A*61
$GPGGA,112001.000,5321.7554,N,00143.5121,W,1,0,,290.0,M,,M,,*41
$GPRMC,112001.000,A,5321.7554,N,00143.5121,W,0.000,0.00,061012,,A*60
$GPGGA,112016.000,5321.7580,N,00143.5226,W,1,0,,290.0,M,,M,,*4A
$GPRMC,112016.000,A,5321.7580,N,00143.5226,W,0.000,0.00,061012,,A*6B
$GPGGA,112031.000,5321.7566,N,00143.5275,W,1,0,,290.0,M,,M,,*41
$GPRMC,112031.000,A,5321.7566,N,00143.5275,W,0.000,0.00,061012,,A*60
$GPGGA,112046.000,5321.7548,N,00143.5215,W,1,0,,290.0,M,,M,,*4B
$GPRMC,112046.000,A,5321.7548,N,00143.5215,W,0.000,0.00,061012,,A*6A
$GPGGA,112101.000,5321.7580,N,00143.5245,W,1,0,,290.0,M,,M,,*48
$GPRMC,112101.000,A,5321.7580,N,00143.5245,W,0.000,0.00,061012,,A*69
$GPGGA,112118.000,5321.7632,N,00143.5335,W,1,0,,291.0,M,,M,,*4D
$GPRMC,112118.000,A,5321.7632,N,00143.5335,W,0.000,0.00,061012,,A*6D
$GPGGA,112133.000,5321.7467,N,00143.5126,W,1,0,,291.0,M,,M,,*46
$GPRMC,112133.000,A,5321.7467,N,00143.5126,W,0.000,0.00,061012,,A*66
$GPGGA,112149.000,5321.7532,N,00143.5327,W,1,0,,290.0,M,,M,,*48
$GPRMC,112149.000,A,5321.7532,N,00143.5327,W,0.000,0.00,061012,,A*69
$GPGGA,112204.000,5321.7587,N,00143.5461,W,1,0,,290.0,M,,M,,*49
$GPRMC,112204.000,A,5321.7587,N,00143.5461,W,0.000,0.00,061012,,A*68
$GPGGA,112219.000,5321.7619,N,00143.5604,W,1,0,,290.0,M,,M,,*40
$GPRMC,112219.000,A,5321.7619,N,00143.5604,W,0.000,0.00,061012,,A*61
$GPGGA,112235.000,5321.7644,N,00143.5747,W,1,0,,290.0,M,,M,,*40
$GPRMC,112235.000,A,5321.7644,N,00143.5747,W,0.000,0.00,061012,,A*61
$GPGGA,112251.000,5321.7701,N,00143.5881,W,1,0,,290.0,M,,M,,*47
$GPRMC,112251.000,A,5321.7701,N,00143.5881,W,0.000,0.00,061012,,A*66
$GPGGA,112307.000,5321.7715,N,00143.5998,W,1,0,,290.0,M,,M,,*49
$GPRMC,112307.000,A,5321.7715,N,00143.5998,W,0.000,0.00,061012,,A*68
$GPGGA,112322.000,5321.7763,N,00143.6179,W,1,0,,291.0,M,,M,,*4A
$GPRMC,112322.000,A,5321.7763,N,00143.6179,W,0.000,0.00,061012,,A*6A
$GPGGA,112338.000,5321.7740,N,00143.6338,W,1,0,,291.0,M,,M,,*47
$GPRMC,112338.000,A,5321.7740,N,00143.6338,W,0.000,0.00,061012,,A*67
$GPGGA,112353.000,5321.7733,N,00143.6526,W,1,0,,290.0,M,,M,,*46
$GPRMC,112353.000,A,5321.7733,N,00143.6526,W,0.000,0.00,061012,,A*67
$GPGGA,112408.000,5321.7680,N,00143.6452,W,1,0,,290.0,M,,M,,*44
$GPRMC,112408.000,A,5321.7680,N,00143.6452,W,0.000,0.00,061012,,A*65
$GPGGA,112424.000,5321.7630,N,00143.6523,W,1,0,,290.0,M,,M,,*46
$GPRMC,112424.000,A,5321.7630,N,00143.6523,W,0.000,0.00,061012,,A*67
$GPGGA,112439.000,5321.7561,N,00143.6657,W,1,0,,290.0,M,,M,,*4D
$GPRMC,112439.000,A,5321.7561,N,00143.6657,W,0.000,0.00,061012,,A*6C
$GPGGA,112454.000,5321.7552,N,00143.6572,W,1,0,,290.0,M,,M,,*42
$GPRMC,112454.000,A,5321.7552,N,00143.6572,W,0.000,0.00,061012,,A*63
$GPGGA,112509.000,5321.7504,N,00143.6497,W,1,0,,290.0,M,,M,,*42
$GPRMC,112509.000,A,5321.7504,N,00143.6497,W,0.000,0.00,061012,,A*63
$GPGGA,112525.000,5321.7536,N,00143.6339,W,1,0,,290.0,M,,M,,*4E
$GPRMC,112525.000,A,5321.7536,N,00143.6339,W,0.000,0.00,061012,,A*6F
$GPGGA,112540.000,5321.7406,N,00143.6485,W,1,0,,290.0,M,,M,,*4F
$GPRMC,112540.000,A,5321.7406,N,00143.6485,W,0.000,0.00,061012,,A*6E
$GPGGA,112556.000,5321.7305,N,00143.6463,W,1,0,,290.0,M,,M,,*44
$GPRMC,112556.000,A,5321.7305,N,00143.6463,W,0.000,0.00,061012,,A*65
$GPGGA,112611.000,5321.7353,N,00143.6394,W,1,0,,290.0,M,,M,,*48
$GPRMC,112611.000,A,5321.7353,N,00143.6394,W,0.000,0.00,061012,,A*69
$GPGGA,112626.000,5321.7275,N,00143.6275,W,1,0,,290.0,M,,M,,*47
$GPRMC,112626.000,A,5321.7275,N,00143.6275,W,0.000,0.00,061012,,A*66
$GPGGA,112641.000,5321.6923,N,00143.6212,W,1,0,,290.0,M,,M,,*4E
$GPRMC,112641.000,A,5321.6923,N,00143.6212,W,0.000,0.00,061012,,A*6F
$GPGGA,112656.000,5321.6861,N,00143.6157,W,1,0,,290.0,M,,M,,*4D
$GPRMC,112656.000,A,5321.6861,N,00143.6157,W,0.000,0.00,061012,,A*6C
$GPGGA,112711.000,5321.7147,N,00143.5874,W,1,0,,290.0,M,,M,,*48
$GPRMC,112711.000,A,5321.7147,N,00143.5874,W,0.000,0.00,061012,,A*69
$GPGGA,112726.000,5321.7129,N,00143.5685,W,1,0,,290.0,M,,M,,*44
$GPRMC,112726.000,A,5321.7129,N,00143.5685,W,0.000,0.00,061012,,A*65
$GPGGA,112742.000,5321.7136,N,00143.5778,W,1,0,,290.0,M,,M,,*4B
$GPRMC,112742.000,A,5321.7136,N,00143.5778,W,0.000,0.00,061012,,A*6A
$GPGGA,112757.000,5321.7278,N,00143.5566,W,1,0,,290.0,M,,M,,*4B
$GPRMC,112757.000,A,5321.7278,N,00143.5566,W,0.000,0.00,061012,,A*6A
$GPGGA,112814.000,5321.7447,N,00143.5166,W,1,0,,291.0,M,,M,,*4C
$GPRMC,112814.000,A,5321.7447,N,00143.5166,W,0.000,0.00,061012,,A*6C
$GPGGA,112829.000,5321.7660,N,00143.5128,W,1,0,,291.0,M,,M,,*4F
$GPRMC,112829.000,A,5321.7660,N,00143.5128,W,0.000,0.00,061012,,A*6F
$GPGGA,112844.000,5321.7724,N,00143.5122,W,1,0,,291.0,M,,M,,*4F
$GPRMC,112844.000,A,5321.7724,N,00143.5122,W,0.000,0.00,061012,,A*6F
$GPGGA,112859.000,5321.7847,N,00143.5178,W,1,0,,291.0,M,,M,,*46
$GPRMC,112859.000,A,5321.7847,N,00143.5178,W,0.000,0.00,061012,,A*66
$GPGGA,112914.000,5321.7930,N,00143.5182,W,1,0,,292.0,M,,M,,*49
$GPRMC,112914.000,A,5321.7930,N,00143.5182,W,0.000,0.00,061012,,A*6A
$GPGGA,112929.000,5321.8207,N,00143.5214,W,1,0,,292.0,M,,M,,*4B
$GPRMC,112929.000,A,5321.8207,N,00143.5214,W,0.000,0.00,061012,,A*68
$GPGGA,112944.000,5321.8415,N,00143.5258,W,1,0,,292.0,M,,M,,*4D
$GPRMC,112944.000,A,5321.8415,N,00143.5258,W,0.000,0.00,061012,,A*6E
$GPGGA,112959.000,5321.8513,N,00143.5263,W,1,0,,292.0,M,,M,,*4E
$GPRMC,112959.000,A,5321.8513,N,00143.5263,W,0.000,0.00,061012,,A*6D
$GPGGA,113014.000,5321.8468,N,00143.5362,W,1,0,,291.0,M,,M,,*41
$GPRMC,113014.000,A,5321.8468,N,00143.5362,W,0.000,0.00,061012,,A*61
$GPGGA,113029.000,5321.8530,N,00143.5635,W,1,0,,292.0,M,,M,,*47
$GPRMC,113029.000,A,5321.8530,N,00143.5635,W,0.000,0.00,061012,,A*64
$GPGGA,113044.000,5321.8362,N,00143.5860,W,1,0,,292.0,M,,M,,*43
$GPRMC,113044.000,A,5321.8362,N,00143.5860,W,0.000,0.00,061012,,A*60
$GPGGA,113100.000,5321.8307,N,00143.5929,W,1,0,,292.0,M,,M,,*4D
$GPRMC,113100.000,A,5321.8307,N,00143.5929,W,0.000,0.00,061012,,A*6E
$GPGGA,113115.000,5321.8406,N,00143.5770,W,1,0,,293.0,M,,M,,*4C
$GPRMC,113115.000,A,5321.8406,N,00143.5770,W,0.000,0.00,061012,,A*6E
$GPGGA,113131.000,5321.8541,N,00143.5718,W,1,0,,293.0,M,,M,,*46
$GPRMC,113131.000,A,5321.8541,N,00143.5718,W,0.000,0.00,061012,,A*64
$GPGGA,113147.000,5321.8669,N,00143.5678,W,1,0,,293.0,M,,M,,*49
$GPRMC,113147.000,A,5321.8669,N,00143.5678,W,0.000,0.00,061012,,A*6B
$GPGGA,113202.000,5321.8708,N,00143.5679,W,1,0,,293.0,M,,M,,*4C
$GPRMC,113202.000,A,5321.8708,N,00143.5679,W,0.000,0.00,061012,,A*6E
$GPGGA,113217.000,5321.8662,N,00143.5577,W,1,0,,293.0,M,,M,,*48
$GPRMC,113217.000,A,5321.8662,N,00143.5577,W,0.000,0.00,061012,,A*6A
$GPGGA,113232.000,5321.8646,N,00143.5513,W,1,0,,293.0,M,,M,,*4B
$GPRMC,113232.000,A,5321.8646,N,00143.5513,W,0.000,0.00,061012,,A*69
$GPGGA,113248.000,5321.8726,N,00143.5546,W,1,0,,293.0,M,,M,,*41
$GPRMC,113248.000,A,5321.8726,N,00143.5546,W,0.000,0.00,061012,,A*63
$GPGGA,113303.000,5321.8765,N,00143.5526,W,1,0,,293.0,M,,M,,*4E
$GPRMC,113303.000,A,5321.8765,N,00143.5526,W,0.000,0.00,061012,,A*6C
$GPGGA,113321.000,5321.8882,N,00143.5697,W,1,0,,293.0,M,,M,,*41
$GPRMC,113321.000,A,5321.8882,N,00143.5697,W,0.000,0.00,061012,,A*63
$GPGGA,113337.000,5321.8891,N,00143.5665,W,1,0,,294.0,M,,M,,*4E
$GPRMC,113337.000,A,5321.8891,N,00143.5665,W,0.000,0.00,061012,,A*6B
$GPGGA,113352.000,5321.8939,N,00143.5678,W,1,0,,294.0,M,,M,,*42
$GPRMC,113352.000,A,5321.8939,N,00143.5678,W,0.000,0.00,061012,,A*67
$GPGGA,113407.000,5321.8937,N,00143.5648,W,1,0,,294.0,M,,M,,*48
$GPRMC,113407.000,A,5321.8937,N,00143.5648,W,0.000,0.00,061012,,A*6D
$GPGGA,113422.000,5321.8900,N,00143.5534,W,1,0,,294.0,M,,M,,*43
$GPRMC,113422.000,A,5321.8900,N,00143.5534,W,0.000,0.00,061012,,A*66
$GPGGA,113438.000,5321.8903,N,00143.5545,W,1,0,,294.0,M,,M,,*4D
$GPRMC,113438.000,A,5321.8903,N,00143.5545,W,0.000,0.00,061012,,A*68
$GPGGA,113453.000,5321.9024,N,00143.5612,W,1,0,,294.0,M,,M,,*4C
$GPRMC,113453.000,A,5321.9024,N,00143.5612,W,0.000,0.00,061012,,A*69
$GPGGA,113508.000,5321.8994,N,00143.5594,W,1,0,,295.0,M,,M,,*4C
$GPRMC,113508.000,A,5321.8994,N,00143.5594,W,0.000,0.00,061012,,A*68
$GPGGA,113524.000,5321.8651,N,00143.5947,W,1,0,,295.0,M,,M,,*46
$GPRMC,113524.000,A,5321.8651,N,00143.5947,W,0.000,0.00,061012,,A*62
$GPGGA,113539.000,5321.8607,N,00143.5848,W,1,0,,295.0,M,,M,,*47
$GPRMC,113539.000,A,5321.8607,N,00143.5848,W,0.000,0.00,061012,,A*63
$GPGGA,113554.000,5321.8692,N,00143.5707,W,1,0,,295.0,M,,M,,*44
$GPRMC,113554.000,A,5321.8692,N,00143.5707,W,0.000,0.00,061012,,A*60
$GPGGA,113609.000,5321.8635,N,00143.5625,W,1,0,,295.0,M,,M,,*43
$GPRMC,113609.000,A,5321.8635,N,00143.5625,W,0.000,0.00,061012,,A*67
$GPGGA,113625.000,5321.8571,N,00143.5451,W,1,0,,296.0,M,,M,,*4C
$GPRMC,113625.000,A,5321.8571,N,00143.5451,W,0.000,0.00,061012,,A*6B
$GPGGA,113640.000,5321.8468,N,00143.5312,W,1,0,,296.0,M,,M,,*46
$GPRMC,113640.000,A,5321.8468,N,00143.5312,W,0.000,0.00,061012,,A*61
$GPGGA,113656.000,5321.8470,N,00143.5180,W,1,0,,296.0,M,,M,,*41
$GPRMC,113656.000,A,5321.8470,N,00143.5180,W,0.000,0.00,061012,,A*66
$GPGGA,113711.000,5321.8484,N,00143.5173,W,1,0,,296.0,M,,M,,*44
$GPRMC,113711.000,A,5321.8484,N,00143.5173,W,0.000,0.00,061012,,A*63
$GPGGA,113726.000,5321.8520,N,00143.5159,W,1,0,,297.0,M,,M,,*46
$GPRMC,113726.000,A,5321.8520,N,00143.5159,W,0.000,0.00,061012,,A*60
$GPGGA,113741.000,5321.8580,N,00143.5176,W,1,0,,297.0,M,,M,,*40
$GPRMC,113741.000,A,5321.8580,N,00143.5176,W,0.000,0.00,061012,,A*66
$GPGGA,113757.000,5321.8651,N,00143.5057,W,1,0,,298.0,M,,M,,*45
$GPRMC,113757.000,A,5321.8651,N,00143.5057,W,0.000,0.00,061012,,A*6C
$GPGGA,113824.000,5321.8749,N,00143.5034,W,1,0,,298.0,M,,M,,*43
$GPRMC,113824.000,A,5321.8749,N,00143.5034,W,0.000,0.00,061012,,A*6A
$GPGGA,113839.000,5321.8681,N,00143.4963,W,1,0,,298.0,M,,M,,*40
$GPRMC,113839.000,A,5321.8681,N,00143.4963,W,0.000,0.00,061012,,A*69
$GPGGA,113855.000,5321.8733,N,00143.4889,W,1,0,,298.0,M,,M,,*47
$GPRMC,113855.000,A,5321.8733,N,00143.4889,W,0.000,0.00,061012,,A*6E
$GPGGA,113910.000,5321.8800,N,00143.4740,W,1,0,,299.0,M,,M,,*43
$GPRMC,113910.000,A,5321.8800,N,00143.4740,W,0.000,0.00,061012,,A*6B
$GPGGA,113925.000,5321.8871,N,00143.4718,W,1,0,,300.0,M,,M,,*4F
$GPRMC,113925.000,A,5321.8871,N,00143.4718,W,0.000,0.00,061012,,A*66
$GPGGA,113941.000,5321.8875,N,00143.4672,W,1,0,,300.0,M,,M,,*44
$GPRMC,113941.000,A,5321.8875,N,00143.4672,W,0.000,0.00,061012,,A*6D
$GPGGA,113957.000,5321.8903,N,00143.4596,W,1,0,,300.0,M,,M,,*4A
$GPRMC,113957.000,A,5321.8903,N,00143.4596,W,0.000,0.00,061012,,A*63
$GPGGA,114013.000,5321.8845,N,00143.4617,W,1,0,,300.0,M,,M,,*4D
$GPRMC,114013.000,A,5321.8845,N,00143.4617,W,0.000,0.00,061012,,A*64
$GPGGA,114028.000,5321.8866,N,00143.4553,W,1,0,,301.0,M,,M,,*46
$GPRMC,114028.000,A,5321.8866,N,00143.4553,W,0.000,0.00,061012,,A*6E
$GPGGA,114043.000,5321.8884,N,00143.4505,W,1,0,,301.0,M,,M,,*44
$GPRMC,114043.000,A,5321.8884,N,00143.4505,W,0.000,0.00,061012,,A*6C
$GPGGA,114058.000,5321.8994,N,00143.4451,W,1,0,,301.0,M,,M,,*4E
$GPRMC,114058.000,A,5321.8994,N,00143.4451,W,0.000,0.00,061012,,A*66
$GPGGA,114113.000,5321.9022,N,00143.4423,W,1,0,,301.0,M,,M,,*40
$GPRMC,114113.000,A,5321.9022,N,00143.4423,W,0.000,0.00,061012,,A*68
$GPGGA,114129.000,5321.9035,N,00143.4442,W,1,0,,302.0,M,,M,,*4B
$GPRMC,114129.000,A,5321.9035,N,00143.4442,W,0.000,0.00,061012,,A*60
$GPGGA,114144.000,5321.9033,N,00143.4442,W,1,0,,302.0,M,,M,,*46
$GPRMC,114144.000,A,5321.9033,N,00143.4442,W,0.000,0.00,061012,,A*6D
$GPGGA,114159.000,5321.9113,N,00143.4392,W,1,0,,302.0,M,,M,,*43
$GPRMC,114159.000,A,5321.9113,N,00143.4392,W,0.000,0.00,061012,,A*68
$GPGGA,114214.000,5321.9134,N,00143.4315,W,1,0,,302.0,M,,M,,*43
$GPRMC,114214.000,A,5321.9134,N,00143.4315,W,0.000,0.00,061012,,A*68
$GPGGA,114229.000,5321.9154,N,00143.4319,W,1,0,,302.0,M,,M,,*47
$GPRMC,114229.000,A,5321.9154,N,00143.4319,W,0.000,0.00,061012,,A*6C
$GPGGA,114245.000,5321.9228,N,00143.4266,W,1,0,,302.0,M,,M,,*4C
$GPRMC,114245.000,A,5321.9228,N,00143.4266,W,0.000,0.00,061012,,A*67
$GPGGA,114300.000,5321.9278,N,00143.4244,W,1,0,,303.0,M,,M,,*48
$GPRMC,114300.000,A,5321.9278,N,00143.4244,W,0.000,0.00,061012,,A*62
$GPGGA,114315.000,5321.9319,N,00143.4179,W,1,0,,303.0,M,,M,,*47
$GPRMC,114315.000,A,5321.9319,N,00143.4179,W,0.000,0.00,061012,,A*6D
$GPGGA,114331.000,5321.9335,N,00143.4124,W,1,0,,303.0,M,,M,,*47
$GPRMC,114331.000,A,5321.9335,N,00143.4124,W,0.000,0.00,061012,,A*6D
$GPGGA,114346.000,5321.9372,N,00143.4115,W,1,0,,303.0,M,,M,,*46
$GPRMC,114346.000,A,5321.9372,N,00143.4115,W,0.000,0.00,061012,,A*6C
$GPGGA,114401.000,5321.9408,N,00143.4097,W,1,0,,303.0,M,,M,,*43
$GPRMC,114401.000,A,5321.9408,N,00143.4097,W,0.000,0.00,061012,,A*69
$GPGGA,114417.000,5321.9466,N,00143.4066,W,1,0,,304.0,M,,M,,*45
$GPRMC,114417.000,A,5321.9466,N,00143.4066,W,0.000,0.00,061012,,A*68
$GPGGA,114432.000,5321.9534,N,00143.4053,W,1,0,,304.0,M,,M,,*42
$GPRMC,114432.000,A,5321.9534,N,00143.4053,W,0.000,0.00,061012,,A*6F
$GPGGA,114447.000,5321.9596,N,00143.4000,W,1,0,,304.0,M,,M,,*4E
$GPRMC,114447.000,A,5321.9596,N,00143.4000,W,0.000,0.00,061012,,A*63
$GPGGA,114502.000,5321.9688,N,00143.3979,W,1,0,,304.0,M,,M,,*42
$GPRMC,114502.000,A,5321.9688,N,00143.3979,W,0.000,0.00,061012,,A*6F
$GPGGA,114518.000,5321.9701,N,00143.3909,W,1,0,,304.0,M,,M,,*4E
$GPRMC,114518.000,A,5321.9701,N,00143.3909,W,0.000,0.00,061012,,A*63
$GPGGA,114533.000,5321.9722,N,00143.3895,W,1,0,,304.0,M,,M,,*42
$GPRMC,114533.000,A,5321.9722,N,00143.3895,W,0.000,0.00,061012,,A*6F
$GPGGA,114548.000,5321.9770,N,00143.3877,W,1,0,,305.0,M,,M,,*44
$GPRMC,114548.000,A,5321.9770,N,00143.3877,W,0.000,0.00,061012,,A*68
$GPGGA,114603.000,5321.9875,N,00143.3775,W,1,0,,305.0,M,,M,,*4F
$GPRMC,114603.000,A,5321.9875,N,00143.3775,W,0.000,0.00,061012,,A*63
$GPGGA,114619.000,5321.9884,N,00143.3773,W,1,0,,305.0,M,,M,,*4C
$GPRMC,114619.000,A,5321.9884,N,00143.3773,W,0.000,0.00,061012,,A*60
$GPGGA,114634.000,5321.9939,N,00143.3774,W,1,0,,305.0,M,,M,,*43
$GPRMC,114634.000,A,5321.9939,N,00143.3774,W,0.000,0.00,061012,,A*6F
$GPGGA,114649.000,5322.0033,N,00143.3643,W,1,0,,305.0,M,,M,,*45
$GPRMC,114649.000,A,5322.0033,N,00143.3643,W,0.000,0.00,061012,,A*69
$GPGGA,114704.000,5322.0065,N,00143.3561,W,1,0,,305.0,M,,M,,*4D
$GPRMC,114704.000,A,5322.0065,N,00143.3561,W,0.000,0.00,061012,,A*61
$GPGGA,114720.000,5322.0102,N,00143.3373,W,1,0,,306.0,M,,M,,*4D
$GPRMC,114720.000,A,5322.0102,N,00143.3373,W,0.000,0.00,061012,,A*62
$GPGGA,114746.000,5322.0118,N,00143.3252,W,1,0,,306.0,M,,M,,*44
$GPRMC,114746.000,A,5322.0118,N,00143.3252,W,0.000,0.00,061012,,A*6B
$GPGGA,114802.000,5322.0102,N,00143.3166,W,1,0,,306.0,M,,M,,*44
$GPRMC,114802.000,A,5322.0102,N,00143.3166,W,0.000,0.00,061012,,A*6B
$GPGGA,114818.000,5322.0072,N,00143.3039,W,1,0,,306.0,M,,M,,*42
$GPRMC,114818.000,A,5322.0072,N,00143.3039,W,0.000,0.00,061012,,A*6D
$GPGGA,114833.000,5322.0058,N,00143.2995,W,1,0,,306.0,M,,M,,*4D
$GPRMC,114833.000,A,5322.0058,N,00143.2995,W,0.000,0.00,061012,,A*62
$GPGGA,114849.000,5322.0024,N,00143.2903,W,1,0,,306.0,M,,M,,*44
$GPRMC,114849.000,A,5322.0024,N,00143.2903,W,0.000,0.00,061012,,A*6B
$GPGGA,114904.000,5322.0107,N,00143.2874,W,1,0,,306.0,M,,M,,*4D
$GPRMC,114904.000,A,5322.0107,N,00143.2874,W,0.000,0.00,061012,,A*62
$GPGGA,114922.000,5322.0235,N,00143.2800,W,1,0,,306.0,M,,M,,*48
$GPRMC,114922.000,A,5322.0235,N,00143.2800,W,0.000,0.00,061012,,A*67
$GPGGA,114937.000,5322.0280,N,00143.2744,W,1,0,,306.0,M,,M,,*4D
$GPRMC,114937.000,A,5322.0280,N,00143.2744,W,0.000,0.00,061012,,A*62
$GPGGA,114953.000,5322.0301,N,00143.2614,W,1,0,,306.0,M,,M,,*43
$GPRMC,114953.000,A,5322.0301,N,00143.2614,W,0.000,0.00,061012,,A*6C
$GPGGA,115009.000,5322.0303,N,00143.2588,W,1,0,,306.0,M,,M,,*40
$GPRMC,115009.000,A,5322.0303,N,00143.2588,W,0.000,0.00,061012,,A*6F
$GPGGA,115024.000,5322.0315,N,00143.2567,W,1,0,,306.0,M,,M,,*49
$GPRMC,115024.000,A,5322.0315,N,00143.2567,W,0.000,0.00,061012,,A*66
$GPGGA,115056.000,5322.0290,N,00143.2500,W,1,0,,307.0,M,,M,,*40
$GPRMC,115056.000,A,5322.0290,N,00143.2500,W,0.000,0.00,061012,,A*6E
$GPGGA,115123.000,5322.0329,N,00143.2475,W,1,0,,306.0,M,,M,,*42
$GPRMC,115123.000,A,5322.0329,N,00143.2475,W,0.000,0.00,061012,,A*6D
$GPGGA,115138.000,5322.0329,N,00143.2507,W,1,0,,306.0,M,,M,,*4C
$GPRMC,115138.000,A,5322.0329,N,00143.2507,W,0.000,0.00,061012,,A*63
$GPGGA,115153.000,5322.0310,N,00143.2499,W,1,0,,306.0,M,,M,,*4D
$GPRMC,115153.000,A,5322.0310,N,00143.2499,W,0.000,0.00,061012,,A*62
$GPGGA,115209.000,5322.0331,N,00143.2511,W,1,0,,306.0,M,,M,,*43
$GPRMC,115209.000,A,5322.0331,N,00143.2511,W,0.000,0.00,061012,,A*6C
$GPGGA,115224.000,5322.0312,N,00143.2515,W,1,0,,306.0,M,,M,,*49
$GPRMC,115224.000,A,5322.0312,N,00143.2515,W,0.000,0.00,061012,,A*66
$GPGGA,115240.000,5322.0418,N,00143.2527,W,1,0,,306.0,M,,M,,*47
$GPRMC,115240.000,A,5322.0418,N,00143.2527,W,0.000,0.00,061012,,A*68
$GPGGA,115256.000,5322.0425,N,00143.2532,W,1,0,,306.0,M,,M,,*4A
$GPRMC,115256.000,A,5322.0425,N,00143.2532,W,0.000,0.00,061012,,A*65
$GPGGA,115311.000,5322.0388,N,00143.2524,W,1,0,,306.0,M,,M,,*4F
$GPRMC,115311.000,A,5322.0388,N,00143.2524,W,0.000,0.00,061012,,A*60
$GPGGA,115327.000,5322.0370,N,00143.2525,W,1,0,,306.0,M,,M,,*4C
$GPRMC,115327.000,A,5322.0370,N,00143.2525,W,0.000,0.00,061012,,A*63
$GPGGA,115342.000,5322.0296,N,00143.2546,W,1,0,,307.0,M,,M,,*42
$GPRMC,115342.000,A,5322.0296,N,00143.2546,W,0.000,0.00,061012,,A*6C
$GPGGA,115357.000,5322.0276,N,00143.2558,W,1,0,,307.0,M,,M,,*47
$GPRMC,115357.000,A,5322.0276,N,00143.2558,W,0.000,0.00,061012,,A*69
$GPGGA,115412.000,5322.0290,N,00143.2548,W,1,0,,307.0,M,,M,,*48
$GPRMC,115412.000,A,5322.0290,N,00143.2548,W,0.000,0.00,061012,,A*66
$GPGGA,115427.000,5322.0365,N,00143.2555,W,1,0,,307.0,M,,M,,*49
$GPRMC,115427.000,A,5322.0365,N,00143.2555,W,0.000,0.00,061012,,A*67
$GPGGA,115442.000,5322.0496,N,00143.2481,W,1,0,,308.0,M,,M,,*46
$GPRMC,115442.000,A,5322.0496,N,00143.2481,W,0.000,0.00,061012,,A*67
$GPGGA,115457.000,5322.0461,N,00143.2499,W,1,0,,308.0,M,,M,,*43
$GPRMC,115457.000,A,5322.0461,N,00143.2499,W,0.000,0.00,061012,,A*62
$GPGGA,115512.000,5322.0441,N,00143.2509,W,1,0,,308.0,M,,M,,*49
$GPRMC,115512.000,A,5322.0441,N,00143.2509,W,0.000,0.00,061012,,A*68
$GPGGA,115528.000,5322.0415,N,00143.2499,W,1,0,,308.0,M,,M,,*49
$GPRMC,115528.000,A,5322.0415,N,00143.2499,W,0.000,0.00,061012,,A*68
$GPGGA,115543.000,5322.0425,N,00143.2497,W,1,0,,308.0,M,,M,,*49
$GPRMC,115543.000,A,5322.0425,N,00143.2497,W,0.000,0.00,061012,,A*68
$GPGGA,115559.000,5322.0397,N,00143.2479,W,1,0,,308.0,M,,M,,*4C
$GPRMC,115559.000,A,5322.0397,N,00143.2479,W,0.000,0.00,061012,,A*6D
$GPGGA,115614.000,5322.0425,N,00143.2364,W,1,0,,308.0,M,,M,,*43
$GPRMC,115614.000,A,5322.0425,N,00143.2364,W,0.000,0.00,061012,,A*62
$GPGGA,115629.000,5322.0383,N,00143.2482,W,1,0,,308.0,M,,M,,*49
$GPRMC,115629.000,A,5322.0383,N,00143.2482,W,0.000,0.00,061012,,A*68
$GPGGA,115644.000,5322.0422,N,00143.2514,W,1,0,,308.0,M,,M,,*40
$GPRMC,115644.000,A,5322.0422,N,00143.2514,W,0.000,0.00,061012,,A*61
$GPGGA,115659.000,5322.0466,N,00143.2414,W,1,0,,308.0,M,,M,,*4D
$GPRMC,115659.000,A,5322.0466,N,00143.2414,W,0.000,0.00,061012,,A*6C
$GPGGA,115715.000,5322.0466,N,00143.2371,W,1,0,,308.0,M,,M,,*40
$GPRMC,115715.000,A,5322.0466,N,00143.2371,W,0.000,0.00,061012,,A*61
$GPGGA,115731.000,5322.0468,N,00143.2352,W,1,0,,308.0,M,,M,,*49
$GPRMC,115731.000,A,5322.0468,N,00143.2352,W,0.000,0.00,061012,,A*68
$GPGGA,115746.000,5322.0491,N,00143.2305,W,1,0,,308.0,M,,M,,*4D
$GPRMC,115746.000,A,5322.0491,N,00143.2305,W,0.000,0.00,061012,,A*6C
$GPGGA,115802.000,5322.0502,N,00143.2220,W,1,0,,309.0,M,,M,,*4E
$GPRMC,115802.000,A,5322.0502,N,00143.2220,W,0.000,0.00,061012,,A*6E
$GPGGA,115817.000,5322.0553,N,00143.2138,W,1,0,,309.0,M,,M,,*44
$GPRMC,115817.000,A,5322.0553,N,00143.2138,W,0.000,0.00,061012,,A*64
$GPGGA,115832.000,5322.0603,N,00143.1941,W,1,0,,309.0,M,,M,,*40
$GPRMC,115832.000,A,5322.0603,N,00143.1941,W,0.000,0.00,061012,,A*60
$GPGGA,115849.000,5322.0638,N,00143.1753,W,1,0,,309.0,M,,M,,*49
$GPRMC,115849.000,A,5322.0638,N,00143.1753,W,0.000,0.00,061012,,A*69
$GPGGA,115905.000,5322.0718,N,00143.1478,W,1,0,,309.0,M,,M,,*49
$GPRMC,115905.000,A,5322.0718,N,00143.1478,W,0.000,0.00,061012,,A*69
$GPGGA,115933.000,5322.0731,N,00143.1287,W,1,0,,309.0,M,,M,,*41
$GPRMC,115933.000,A,5322.0731,N,00143.1287,W,0.000,0.00,061012,,A*61
$GPGGA,115948.000,5322.0727,N,00143.1150,W,1,0,,309.0,M,,M,,*43
$GPRMC,115948.000,A,5322.0727,N,00143.1150,W,0.000,0.00,061012,,A*63
$GPGGA,120004.000,5322.0940,N,00143.1009,W,1,0,,309.0,M,,M,,*46
$GPRMC,120004.000,A,5322.0940,N,00143.1009,W,0.000,0.00,061012,,A*66
$GPGGA,120019.000,5322.0903,N,00143.0972,W,1,0,,309.0,M,,M,,*49
$GPRMC,120019.000,A,5322.0903,N,00143.0972,W,0.000,0.00,061012,,A*69
$GPGGA,120035.000,5322.0876,N,00143.0891,W,1,0,,309.0,M,,M,,*48
$GPRMC,120035.000,A,5322.0876,N,00143.0891,W,0.000,0.00,061012,,A*68
$GPGGA,120050.000,5322.0914,N,00143.0907,W,1,0,,309.0,M,,M,,*40
$GPRMC,120050.000,A,5322.0914,N,00143.0907,W,0.000,0.00,061012,,A*60
$GPGGA,120108.000,5322.0979,N,00143.1053,W,1,0,,309.0,M,,M,,*4E
$GPRMC,120108.000,A,5322.0979,N,00143.1053,W,0.000,0.00,061012,,A*6E
$GPGGA,120123.000,5322.1063,N,00143.0997,W,1,0,,309.0,M,,M,,*44
$GPRMC,120123.000,A,5322.1063,N,00143.0997,W,0.000,0.00,061012,,A*64
$GPGGA,120138.000,5322.1109,N,00143.0967,W,1,0,,309.0,M,,M,,*4C
$GPRMC,120138.000,A,5322.1109,N,00143.0967,W,0.000,0.00,061012,,A*6C
$GPGGA,120154.000,5322.1194,N,00143.0912,W,1,0,,309.0,M,,M,,*40
$GPRMC,120154.000,A,5322.1194,N,00143.0912,W,0.000,0.00,061012,,A*60
$GPGGA,120209.000,5322.1292,N,00143.0911,W,1,0,,309.0,M,,M,,*4D
$GPRMC,120209.000,A,5322.1292,N,00143.0911,W,0.000,0.00,061012,,A*6D
$GPGGA,120224.000,5322.1397,N,00143.0863,W,1,0,,309.0,M,,M,,*42
$GPRMC,120224.000,A,5322.1397,N,00143.0863,W,0.000,0.00,061012,,A*62
$GPGGA,120240.000,5322.1478,N,00143.0833,W,1,0,,309.0,M,,M,,*43
$GPRMC,120240.000,A,5322.1478,N,00143.0833,W,0.000,0.00,061012,,A*63
$GPGGA,120255.000,5322.1505,N,00143.0859,W,1,0,,309.0,M,,M,,*40
$GPRMC,120255.000,A,5322.1505,N,00143.0859,W,0.000,0.00,061012,,A*60
$GPGGA,120314.000,5322.1585,N,00143.0596,W,1,0,,309.0,M,,M,,*42
$GPRMC,120314.000,A,5322.1585,N,00143.0596,W,0.000,0.00,061012,,A*62
$GPGGA,120329.000,5322.1583,N,00143.0600,W,1,0,,309.0,M,,M,,*46
$GPRMC,120329.000,A,5322.1583,N,00143.0600,W,0.000,0.00,061012,,A*66
$GPGGA,120344.000,5322.1679,N,00143.0549,W,1,0,,309.0,M,,M,,*45
$GPRMC,120344.000,A,5322.1679,N,00143.0549,W,0.000,0.00,061012,,A*65
$GPGGA,120400.000,5322.1841,N,00143.0480,W,1,0,,309.0,M,,M,,*43
$GPRMC,120400.000,A,5322.1841,N,00143.0480,W,0.000,0.00,061012,,A*63
$GPGGA,120415.000,5322.1864,N,00143.0462,W,1,0,,309.0,M,,M,,*4C
$GPRMC,120415.000,A,5322.1864,N,00143.0462,W,0.000,0.00,061012,,A*6C
$GPGGA,120430.000,5322.1908,N,00143.0394,W,1,0,,309.0,M,,M,,*4E
$GPRMC,120430.000,A,5322.1908,N,00143.0394,W,0.000,0.00,061012,,A*6E
$GPGGA,120448.000,5322.1960,N,00142.9943,W,1,0,,309.0,M,,M,,*47
$GPRMC,120448.000,A,5322.1960,N,00142.9943,W,0.000,0.00,061012,,A*67
$GPGGA,120518.000,5322.2091,N,00143.0016,W,1,0,,309.0,M,,M,,*46
$GPRMC,120518.000,A,5322.2091,N,00143.0016,W,0.000,0.00,061012,,A*66
$GPGGA,120533.000,5322.2084,N,00143.0021,W,1,0,,309.0,M,,M,,*4F
$GPRMC,120533.000,A,5322.2084,N,00143.0021,W,0.000,0.00,061012,,A*6F
$GPGGA,120548.000,5322.2132,N,00142.9952,W,1,0,,309.0,M,,M,,*4A
$GPRMC,120548.000,A,5322.2132,N,00142.9952,W,0.000,0.00,061012,,A*6A
$GPGGA,120605.000,5322.2288,N,00142.9763,W,1,0,,309.0,M,,M,,*4E
$GPRMC,120605.000,A,5322.2288,N,00142.9763,W,0.000,0.00,061012,,A*6E
$GPGGA,120634.000,5322.2304,N,00142.9694,W,1,0,,309.0,M,,M,,*40
$GPRMC,120634.000,A,5322.2304,N,00142.9694,W,0.000,0.00,061012,,A*60
$GPGGA,120650.000,5322.2324,N,00142.9471,W,1,0,,309.0,M,,M,,*49
$GPRMC,120650.000,A,5322.2324,N,00142.9471,W,0.000,0.00,061012,,A*69
$GPGGA,120705.000,5322.2377,N,00142.9460,W,1,0,,309.0,M,,M,,*4E
$GPRMC,120705.000,A,5322.2377,N,00142.9460,W,0.000,0.00,061012,,A*6E
$GPGGA,120721.000,5322.2400,N,00142.9411,W,1,0,,309.0,M,,M,,*49
$GPRMC,120721.000,A,5322.2400,N,00142.9411,W,0.000,0.00,061012,,A*69
$GPGGA,120751.000,5322.2537,N,00142.9036,W,1,0,,309.0,M,,M,,*4A
$GPRMC,120751.000,A,5322.2537,N,00142.9036,W,0.000,0.00,061012,,A*6A
$GPGGA,120807.000,5322.2558,N,00142.8964,W,1,0,,309.0,M,,M,,*40
$GPRMC,120807.000,A,5322.2558,N,00142.8964,W,0.000,0.00,061012,,A*60
$GPGGA,120822.000,5322.2459,N,00142.8825,W,1,0,,309.0,M,,M,,*43
$GPRMC,120822.000,A,5322.2459,N,00142.8825,W,0.000,0.00,061012,,A*63
$GPGGA,120837.000,5322.2363,N,00142.8563,W,1,0,,309.0,M,,M,,*46
$GPRMC,120837.000,A,5322.2363,N,00142.8563,W,0.000,0.00,061012,,A*66
$GPGGA,120852.000,5322.2498,N,00142.8417,W,1,0,,309.0,M,,M,,*44
$GPRMC,120852.000,A,5322.2498,N,00142.8417,W,0.000,0.00,061012,,A*64
$GPGGA,120907.000,5322.2315,N,00142.8216,W,1,0,,308.0,M,,M,,*41
$GPRMC,120907.000,A,5322.2315,N,00142.8216,W,0.000,0.00,061012,,A*60
$GPGGA,120922.000,5322.2411,N,00142.8171,W,1,0,,308.0,M,,M,,*47
$GPRMC,120922.000,A,5322.2411,N,00142.8171,W,0.000,0.00,061012,,A*66
$GPGGA,120938.000,5322.2400,N,00142.8114,W,1,0,,309.0,M,,M,,*4E
