@Sonygps/ver3.0/wgs-84/
$GPGGA,101935.000,5320.6017,N,00138.0361,W,1,0,,367.0,M,,M,,*49
$GPRMC,101935.000,A,5320.6017,N,00138.0361,W,0.000,0.00,271212,,A*60
$GPGGA,101950.000,5320.6042,N,00138.0339,W,1,0,,360.0,M,,M,,*40
$GPRMC,101950.000,A,5320.6042,N,00138.0339,W,0.000,0.00,271212,,A*6E
$GPGGA,102005.000,5320.6055,N,00138.0136,W,1,0,,364.0,M,,M,,*45
$GPRMC,102005.000,A,5320.6055,N,00138.0136,W,0.000,0.00,271212,,A*6F
$GPGGA,102020.000,5320.6106,N,00138.0047,W,1,0,,365.0,M,,M,,*43
$GPRMC,102020.000,A,5320.6106,N,00138.0047,W,0.000,0.00,271212,,A*68
$GPGGA,102035.000,5320.6152,N,00137.9925,W,1,0,,364.0,M,,M,,*4C
$GPRMC,102035.000,A,5320.6152,N,00137.9925,W,0.000,0.00,271212,,A*66
$GPGGA,102051.000,5320.6209,N,00137.9842,W,1,0,,364.0,M,,M,,*43
$GPRMC,102051.000,A,5320.6209,N,00137.9842,W,0.000,0.00,271212,,A*69
$GPGGA,102107.000,5320.6264,N,00137.9774,W,1,0,,363.0,M,,M,,*47
$GPRMC,102107.000,A,5320.6264,N,00137.9774,W,0.000,0.00,271212,,A*6A
$GPGGA,102123.000,5320.6330,N,00137.9691,W,1,0,,364.0,M,,M,,*4C
$GPRMC,102123.000,A,5320.6330,N,00137.9691,W,0.000,0.00,271212,,A*66
$GPGGA,102138.000,5320.6410,N,00137.9651,W,1,0,,363.0,M,,M,,*48
$GPRMC,102138.000,A,5320.6410,N,00137.9651,W,0.000,0.00,271212,,A*65
$GPGGA,102154.000,5320.6493,N,00137.9594,W,1,0,,364.0,M,,M,,*44
$GPRMC,102154.000,A,5320.6493,N,00137.9594,W,0.000,0.00,271212,,A*6E
$GPGGA,102209.000,5320.6552,N,00137.9537,W,1,0,,364.0,M,,M,,*4A
$GPRMC,102209.000,A,5320.6552,N,00137.9537,W,0.000,0.00,271212,,A*60
$GPGGA,102224.000,5320.6667,N,00137.9471,W,1,0,,364.0,M,,M,,*43
$GPRMC,102224.000,A,5320.6667,N,00137.9471,W,0.000,0.00,271212,,A*69
$GPGGA,102239.000,5320.6747,N,00137.9463,W,1,0,,364.0,M,,M,,*4F
$GPRMC,102239.000,A,5320.6747,N,00137.9463,W,0.000,0.00,271212,,A*65
$GPGGA,102254.000,5320.6824,N,00137.9481,W,1,0,,364.0,M,,M,,*42
$GPRMC,102254.000,A,5320.6824,N,00137.9481,W,0.000,0.00,271212,,A*68
$GPGGA,102315.000,5320.6916,N,00137.9511,W,1,0,,363.0,M,,M,,*49
$GPRMC,102315.000,A,5320.6916,N,00137.9511,W,0.000,0.00,271212,,A*64
$GPGGA,102331.000,5320.7017,N,00137.9453,W,1,0,,364.0,M,,M,,*46
$GPRMC,102331.000,A,5320.7017,N,00137.9453,W,0.000,0.00,271212,,A*6C
$GPGGA,102346.000,5320.7099,N,00137.9455,W,1,0,,364.0,M,,M,,*46
$GPRMC,102346.000,A,5320.7099,N,00137.9455,W,0.000,0.00,271212,,A*6C
$GPGGA,102402.000,5320.7188,N,00137.9440,W,1,0,,364.0,M,,M,,*44
$GPRMC,102402.000,A,5320.7188,N,00137.9440,W,0.000,0.00,271212,,A*6E
$GPGGA,102418.000,5320.7223,N,00137.9420,W,1,0,,364.0,M,,M,,*4B
$GPRMC,102418.000,A,5320.7223,N,00137.9420,W,0.000,0.00,271212,,A*61
$GPGGA,102433.000,5320.7296,N,00137.9428,W,1,0,,364.0,M,,M,,*44
$GPRMC,102433.000,A,5320.7296,N,00137.9428,W,0.000,0.00,271212,,A*6E
$GPGGA,102448.000,5320.7330,N,00137.9393,W,1,0,,365.0,M,,M,,*43
$GPRMC,102448.000,A,5320.7330,N,00137.9393,W,0.000,0.00,271212,,A*68
$GPGGA,102503.000,5320.7394,N,00137.9318,W,1,0,,365.0,M,,M,,*40
$GPRMC,102503.000,A,5320.7394,N,00137.9318,W,0.000,0.00,271212,,A*6B
$GPGGA,102519.000,5320.7436,N,00137.9295,W,1,0,,365.0,M,,M,,*40
$GPRMC,102519.000,A,5320.7436,N,00137.9295,W,0.000,0.00,271212,,A*6B
$GPGGA,102534.000,5320.7454,N,00137.9211,W,1,0,,367.0,M,,M,,*45
$GPRMC,102534.000,A,5320.7454,N,00137.9211,W,0.000,0.00,271212,,A*6C
$GPGGA,102550.000,5320.7500,N,00137.9216,W,1,0,,366.0,M,,M,,*41
$GPRMC,102550.000,A,5320.7500,N,00137.9216,W,0.000,0.00,271212,,A*69
$GPGGA,102605.000,5320.7594,N,00137.9173,W,1,0,,367.0,M,,M,,*4E
$GPRMC,102605.000,A,5320.7594,N,00137.9173,W,0.000,0.00,271212,,A*67
$GPGGA,102621.000,5320.7630,N,00137.9176,W,1,0,,367.0,M,,M,,*40
$GPRMC,102621.000,A,5320.7630,N,00137.9176,W,0.000,0.00,271212,,A*69
$GPGGA,102636.000,5320.7621,N,00137.9108,W,1,0,,367.0,M,,M,,*4F
$GPRMC,102636.000,A,5320.7621,N,00137.9108,W,0.000,0.00,271212,,A*66
$GPGGA,102651.000,5320.7619,N,00137.9077,W,1,0,,368.0,M,,M,,*43
$GPRMC,102651.000,A,5320.7619,N,00137.9077,W,0.000,0.00,271212,,A*65
$GPGGA,102707.000,5320.7635,N,00137.9020,W,1,0,,368.0,M,,M,,*4D
$GPRMC,102707.000,A,5320.7635,N,00137.9020,W,0.000,0.00,271212,,A*6B
$GPGGA,102723.000,5320.7701,N,00137.9024,W,1,0,,368.0,M,,M,,*49
$GPRMC,102723.000,A,5320.7701,N,00137.9024,W,0.000,0.00,271212,,A*6F
$GPGGA,102738.000,5320.7735,N,00137.9001,W,1,0,,369.0,M,,M,,*42
$GPRMC,102738.000,A,5320.7735,N,00137.9001,W,0.000,0.00,271212,,A*65
$GPGGA,102753.000,5320.7742,N,00137.8992,W,1,0,,369.0,M,,M,,*4D
$GPRMC,102753.000,A,5320.7742,N,00137.8992,W,0.000,0.00,271212,,A*6A
$GPGGA,102808.000,5320.7756,N,00137.8894,W,1,0,,369.0,M,,M,,*4E
$GPRMC,102808.000,A,5320.7756,N,00137.8894,W,0.000,0.00,271212,,A*69
$GPGGA,102824.000,5320.7749,N,00137.8853,W,1,0,,370.0,M,,M,,*4D
$GPRMC,102824.000,A,5320.7749,N,00137.8853,W,0.000,0.00,271212,,A*62
$GPGGA,102840.000,5320.7715,N,00137.8770,W,1,0,,370.0,M,,M,,*48
$GPRMC,102840.000,A,5320.7715,N,00137.8770,W,0.000,0.00,271212,,A*67
$GPGGA,102855.000,5320.7658,N,00137.8640,W,1,0,,369.0,M,,M,,*4E
$GPRMC,102855.000,A,5320.7658,N,00137.8640,W,0.000,0.00,271212,,A*69
$GPGGA,102910.000,5320.7566,N,00137.8538,W,1,0,,370.0,M,,M,,*44
$GPRMC,102910.000,A,5320.7566,N,00137.8538,W,0.000,0.00,271212,,A*6B
$GPGGA,102925.000,5320.7518,N,00137.8455,W,1,0,,370.0,M,,M,,*41
$GPRMC,102925.000,A,5320.7518,N,00137.8455,W,0.000,0.00,271212,,A*6E
$GPGGA,102941.000,5320.7404,N,00137.8138,W,1,0,,370.0,M,,M,,*41
$GPRMC,102941.000,A,5320.7404,N,00137.8138,W,0.000,0.00,271212,,A*6E
$GPGGA,102956.000,5320.7310,N,00137.7907,W,1,0,,370.0,M,,M,,*4E
$GPRMC,102956.000,A,5320.7310,N,00137.7907,W,0.000,0.00,271212,,A*61
$GPGGA,103011.000,5320.7262,N,00137.7834,W,1,0,,371.0,M,,M,,*41
$GPRMC,103011.000,A,5320.7262,N,00137.7834,W,0.000,0.00,271212,,A*6F
$GPGGA,103026.000,5320.7275,N,00137.7792,W,1,0,,372.0,M,,M,,*43
$GPRMC,103026.000,A,5320.7275,N,00137.7792,W,0.000,0.00,271212,,A*6E
$GPGGA,103041.000,5320.7216,N,00137.7676,W,1,0,,372.0,M,,M,,*4C
$GPRMC,103041.000,A,5320.7216,N,00137.7676,W,0.000,0.00,271212,,A*61
$GPGGA,103057.000,5320.7106,N,00137.7521,W,1,0,,372.0,M,,M,,*48
$GPRMC,103057.000,A,5320.7106,N,00137.7521,W,0.000,0.00,271212,,A*65
$GPGGA,103113.000,5320.7037,N,00137.7334,W,1,0,,373.0,M,,M,,*49
$GPRMC,103113.000,A,5320.7037,N,00137.7334,W,0.000,0.00,271212,,A*65
$GPGGA,103132.000,5320.6996,N,00137.7225,W,1,0,,373.0,M,,M,,*48
$GPRMC,103132.000,A,5320.6996,N,00137.7225,W,0.000,0.00,271212,,A*64
$GPGGA,103147.000,5320.6925,N,00137.7044,W,1,0,,373.0,M,,M,,*47
$GPRMC,103147.000,A,5320.6925,N,00137.7044,W,0.000,0.00,271212,,A*6B
$GPGGA,103203.000,5320.6822,N,00137.6892,W,1,0,,374.0,M,,M,,*47
$GPRMC,103203.000,A,5320.6822,N,00137.6892,W,0.000,0.00,271212,,A*6C
$GPGGA,103219.000,5320.6795,N,00137.6784,W,1,0,,374.0,M,,M,,*47
$GPRMC,103219.000,A,5320.6795,N,00137.6784,W,0.000,0.00,271212,,A*6C
$GPGGA,103234.000,5320.6669,N,00137.6573,W,1,0,,374.0,M,,M,,*40
$GPRMC,103234.000,A,5320.6669,N,00137.6573,W,0.000,0.00,271212,,A*6B
$GPGGA,103249.000,5320.6683,N,00137.6625,W,1,0,,374.0,M,,M,,*4E
$GPRMC,103249.000,A,5320.6683,N,00137.6625,W,0.000,0.00,271212,,A*65
$GPGGA,103304.000,5320.6648,N,00137.6572,W,1,0,,374.0,M,,M,,*40
$GPRMC,103304.000,A,5320.6648,N,00137.6572,W,0.000,0.00,271212,,A*6B
$GPGGA,103319.000,5320.6609,N,00137.6522,W,1,0,,374.0,M,,M,,*4C
$GPRMC,103319.000,A,5320.6609,N,00137.6522,W,0.000,0.00,271212,,A*67
$GPGGA,103337.000,5320.6566,N,00137.6458,W,1,0,,374.0,M,,M,,*46
$GPRMC,103337.000,A,5320.6566,N,00137.6458,W,0.000,0.00,271212,,A*6D
$GPGGA,103352.000,5320.6559,N,00137.6351,W,1,0,,375.0,M,,M,,*46
$GPRMC,103352.000,A,5320.6559,N,00137.6351,W,0.000,0.00,271212,,A*6C
$GPGGA,103407.000,5320.6607,N,00137.6399,W,1,0,,383.0,M,,M,,*44
$GPRMC,103407.000,A,5320.6607,N,00137.6399,W,0.000,0.00,271212,,A*67
$GPGGA,103422.000,5320.6543,N,00137.6393,W,1,0,,377.0,M,,M,,*41
$GPRMC,103422.000,A,5320.6543,N,00137.6393,W,0.000,0.00,271212,,A*69
$GPGGA,103437.000,5320.6527,N,00137.6380,W,1,0,,376.0,M,,M,,*44
$GPRMC,103437.000,A,5320.6527,N,00137.6380,W,0.000,0.00,271212,,A*6D
$GPGGA,103456.000,5320.6561,N,00137.6325,W,1,0,,376.0,M,,M,,*4E
$GPRMC,103456.000,A,5320.6561,N,00137.6325,W,0.000,0.00,271212,,A*67
$GPGGA,103511.000,5320.6543,N,00137.6222,W,1,0,,376.0,M,,M,,*4A
$GPRMC,103511.000,A,5320.6543,N,00137.6222,W,0.000,0.00,271212,,A*63
$GPGGA,103526.000,5320.6541,N,00137.6131,W,1,0,,399.0,M,,M,,*4C
$GPRMC,103526.000,A,5320.6541,N,00137.6131,W,0.000,0.00,271212,,A*64
$GPGGA,103541.000,5320.6580,N,00137.6205,W,1,0,,379.0,M,,M,,*4A
$GPRMC,103541.000,A,5320.6580,N,00137.6205,W,0.000,0.00,271212,,A*6C
$GPGGA,103556.000,5320.6557,N,00137.6173,W,1,0,,377.0,M,,M,,*4A
$GPRMC,103556.000,A,5320.6557,N,00137.6173,W,0.000,0.00,271212,,A*62
$GPGGA,103611.000,5320.6522,N,00137.6084,W,1,0,,378.0,M,,M,,*4E
$GPRMC,103611.000,A,5320.6522,N,00137.6084,W,0.000,0.00,271212,,A*69
$GPGGA,103626.000,5320.6431,N,00137.5906,W,1,0,,378.0,M,,M,,*49
$GPRMC,103626.000,A,5320.6431,N,00137.5906,W,0.000,0.00,271212,,A*6E
$GPGGA,103641.000,5320.6394,N,00137.5799,W,1,0,,378.0,M,,M,,*48
$GPRMC,103641.000,A,5320.6394,N,00137.5799,W,0.000,0.00,271212,,A*6F
$GPGGA,103657.000,5320.6319,N,00137.5711,W,1,0,,378.0,M,,M,,*4A
$GPRMC,103657.000,A,5320.6319,N,00137.5711,W,0.000,0.00,271212,,A*6D
$GPGGA,103712.000,5320.6321,N,00137.5647,W,1,0,,378.0,M,,M,,*43
$GPRMC,103712.000,A,5320.6321,N,00137.5647,W,0.000,0.00,271212,,A*64
$GPGGA,103727.000,5320.6316,N,00137.5634,W,1,0,,378.0,M,,M,,*45
$GPRMC,103727.000,A,5320.6316,N,00137.5634,W,0.000,0.00,271212,,A*62
$GPGGA,103743.000,5320.6284,N,00137.5500,W,1,0,,379.0,M,,M,,*48
$GPRMC,103743.000,A,5320.6284,N,00137.5500,W,0.000,0.00,271212,,A*6E
$GPGGA,103758.000,5320.6273,N,00137.5410,W,1,0,,379.0,M,,M,,*4A
$GPRMC,103758.000,A,5320.6273,N,00137.5410,W,0.000,0.00,271212,,A*6C
$GPGGA,103813.000,5320.6259,N,00137.5178,W,1,0,,379.0,M,,M,,*49
$GPRMC,103813.000,A,5320.6259,N,00137.5178,W,0.000,0.00,271212,,A*6F
$GPGGA,103828.000,5320.6232,N,00137.5153,W,1,0,,379.0,M,,M,,*45
$GPRMC,103828.000,A,5320.6232,N,00137.5153,W,0.000,0.00,271212,,A*63
$GPGGA,103843.000,5320.6197,N,00137.5021,W,1,0,,379.0,M,,M,,*40
$GPRMC,103843.000,A,5320.6197,N,00137.5021,W,0.000,0.00,271212,,A*66
$GPGGA,103858.000,5320.6204,N,00137.4990,W,1,0,,380.0,M,,M,,*47
$GPRMC,103858.000,A,5320.6204,N,00137.4990,W,0.000,0.00,271212,,A*67
$GPGGA,103913.000,5320.6190,N,00137.4946,W,1,0,,380.0,M,,M,,*4C
$GPRMC,103913.000,A,5320.6190,N,00137.4946,W,0.000,0.00,271212,,A*6C
$GPGGA,103928.000,5320.6129,N,00137.4836,W,1,0,,380.0,M,,M,,*40
$GPRMC,103928.000,A,5320.6129,N,00137.4836,W,0.000,0.00,271212,,A*60
$GPGGA,103944.000,5320.6083,N,00137.4660,W,1,0,,380.0,M,,M,,*46
$GPRMC,103944.000,A,5320.6083,N,00137.4660,W,0.000,0.00,271212,,A*66
$GPGGA,103959.000,5320.6090,N,00137.4645,W,1,0,,381.0,M,,M,,*4E
$GPRMC,103959.000,A,5320.6090,N,00137.4645,W,0.000,0.00,271212,,A*6F
$GPGGA,104015.000,5320.6101,N,00137.4532,W,1,0,,381.0,M,,M,,*42
$GPRMC,104015.000,A,5320.6101,N,00137.4532,W,0.000,0.00,271212,,A*63
$GPGGA,104030.000,5320.6174,N,00137.4447,W,1,0,,381.0,M,,M,,*44
$GPRMC,104030.000,A,5320.6174,N,00137.4447,W,0.000,0.00,271212,,A*65
$GPGGA,104045.000,5320.6190,N,00137.4294,W,1,0,,382.0,M,,M,,*47
$GPRMC,104045.000,A,5320.6190,N,00137.4294,W,0.000,0.00,271212,,A*65
$GPGGA,104100.000,5320.6248,N,00137.4185,W,1,0,,382.0,M,,M,,*42
$GPRMC,104100.000,A,5320.6248,N,00137.4185,W,0.000,0.00,271212,,A*60
$GPGGA,104116.000,5320.6255,N,00137.3936,W,1,0,,382.0,M,,M,,*4E
$GPRMC,104116.000,A,5320.6255,N,00137.3936,W,0.000,0.00,271212,,A*6C
$GPGGA,104131.000,5320.6284,N,00137.3823,W,1,0,,382.0,M,,M,,*42
$GPRMC,104131.000,A,5320.6284,N,00137.3823,W,0.000,0.00,271212,,A*60
$GPGGA,104146.000,5320.6291,N,00137.3727,W,1,0,,382.0,M,,M,,*4D
$GPRMC,104146.000,A,5320.6291,N,00137.3727,W,0.000,0.00,271212,,A*6F
$GPGGA,104202.000,5320.6422,N,00137.3604,W,1,0,,383.0,M,,M,,*41
$GPRMC,104202.000,A,5320.6422,N,00137.3604,W,0.000,0.00,271212,,A*62
$GPGGA,104217.000,5320.6374,N,00137.3480,W,1,0,,383.0,M,,M,,*4F
$GPRMC,104217.000,A,5320.6374,N,00137.3480,W,0.000,0.00,271212,,A*6C
$GPGGA,104232.000,5320.6445,N,00137.3473,W,1,0,,383.0,M,,M,,*41
$GPRMC,104232.000,A,5320.6445,N,00137.3473,W,0.000,0.00,271212,,A*62
$GPGGA,104247.000,5320.6458,N,00137.3475,W,1,0,,383.0,M,,M,,*49
$GPRMC,104247.000,A,5320.6458,N,00137.3475,W,0.000,0.00,271212,,A*6A
$GPGGA,104303.000,5320.6456,N,00137.3441,W,1,0,,384.0,M,,M,,*46
$GPRMC,104303.000,A,5320.6456,N,00137.3441,W,0.000,0.00,271212,,A*62
$GPGGA,104318.000,5320.6371,N,00137.3282,W,1,0,,384.0,M,,M,,*47
$GPRMC,104318.000,A,5320.6371,N,00137.3282,W,0.000,0.00,271212,,A*63
$GPGGA,104334.000,5320.6376,N,00137.3197,W,1,0,,385.0,M,,M,,*48
$GPRMC,104334.000,A,5320.6376,N,00137.3197,W,0.000,0.00,271212,,A*6D
$GPGGA,104350.000,5320.6399,N,00137.3168,W,1,0,,385.0,M,,M,,*4B
$GPRMC,104350.000,A,5320.6399,N,00137.3168,W,0.000,0.00,271212,,A*6E
$GPGGA,104405.000,5320.6383,N,00137.3145,W,1,0,,385.0,M,,M,,*48
$GPRMC,104405.000,A,5320.6383,N,00137.3145,W,0.000,0.00,271212,,A*6D
$GPGGA,104420.000,5320.6380,N,00137.3035,W,1,0,,385.0,M,,M,,*4A
$GPRMC,104420.000,A,5320.6380,N,00137.3035,W,0.000,0.00,271212,,A*6F
$GPGGA,104436.000,5320.6376,N,00137.2943,W,1,0,,385.0,M,,M,,*4D
$GPRMC,104436.000,A,5320.6376,N,00137.2943,W,0.000,0.00,271212,,A*68
$GPGGA,104451.000,5320.6401,N,00137.2824,W,1,0,,385.0,M,,M,,*4B
$GPRMC,104451.000,A,5320.6401,N,00137.2824,W,0.000,0.00,271212,,A*6E
$GPGGA,104506.000,5320.6413,N,00137.2667,W,1,0,,385.0,M,,M,,*42
$GPRMC,104506.000,A,5320.6413,N,00137.2667,W,0.000,0.00,271212,,A*67
$GPGGA,104522.000,5320.6358,N,00137.2510,W,1,0,,385.0,M,,M,,*4F
$GPRMC,104522.000,A,5320.6358,N,00137.2510,W,0.000,0.00,271212,,A*6A
$GPGGA,104537.000,5320.6337,N,00137.2354,W,1,0,,385.0,M,,M,,*44
$GPRMC,104537.000,A,5320.6337,N,00137.2354,W,0.000,0.00,271212,,A*61
$GPGGA,104552.000,5320.6305,N,00137.2249,W,1,0,,385.0,M,,M,,*4B
$GPRMC,104552.000,A,5320.6305,N,00137.2249,W,0.000,0.00,271212,,A*6E
$GPGGA,104607.000,5320.6342,N,00137.2085,W,1,0,,385.0,M,,M,,*49
$GPRMC,104607.000,A,5320.6342,N,00137.2085,W,0.000,0.00,271212,,A*6C
$GPGGA,104622.000,5320.6287,N,00137.1926,W,1,0,,386.0,M,,M,,*46
$GPRMC,104622.000,A,5320.6287,N,00137.1926,W,0.000,0.00,271212,,A*60
$GPGGA,104637.000,5320.6271,N,00137.1789,W,1,0,,385.0,M,,M,,*43
$GPRMC,104637.000,A,5320.6271,N,00137.1789,W,0.000,0.00,271212,,A*66
$GPGGA,104653.000,5320.6207,N,00137.1638,W,1,0,,385.0,M,,M,,*4B
$GPRMC,104653.000,A,5320.6207,N,00137.1638,W,0.000,0.00,271212,,A*6E
$GPGGA,104709.000,5320.6174,N,00137.1509,W,1,0,,385.0,M,,M,,*43
$GPRMC,104709.000,A,5320.6174,N,00137.1509,W,0.000,0.00,271212,,A*66
$GPGGA,104724.000,5320.6142,N,00137.1330,W,1,0,,385.0,M,,M,,*45
$GPRMC,104724.000,A,5320.6142,N,00137.1330,W,0.000,0.00,271212,,A*60
$GPGGA,104740.000,5320.6042,N,00137.1214,W,1,0,,385.0,M,,M,,*41
$GPRMC,104740.000,A,5320.6042,N,00137.1214,W,0.000,0.00,271212,,A*64
$GPGGA,104755.000,5320.6023,N,00137.1109,W,1,0,,385.0,M,,M,,*4D
$GPRMC,104755.000,A,5320.6023,N,00137.1109,W,0.000,0.00,271212,,A*68
$GPGGA,104810.000,5320.6021,N,00137.0959,W,1,0,,385.0,M,,M,,*4D
$GPRMC,104810.000,A,5320.6021,N,00137.0959,W,0.000,0.00,271212,,A*68
$GPGGA,104826.000,5320.5994,N,00137.0833,W,1,0,,386.0,M,,M,,*42
$GPRMC,104826.000,A,5320.5994,N,00137.0833,W,0.000,0.00,271212,,A*64
$GPGGA,104841.000,5320.5918,N,00137.0674,W,1,0,,386.0,M,,M,,*4A
$GPRMC,104841.000,A,5320.5918,N,00137.0674,W,0.000,0.00,271212,,A*6C
$GPGGA,104856.000,5320.5895,N,00137.0505,W,1,0,,386.0,M,,M,,*4D
$GPRMC,104856.000,A,5320.5895,N,00137.0505,W,0.000,0.00,271212,,A*6B
$GPGGA,104911.000,5320.5884,N,00137.0385,W,1,0,,386.0,M,,M,,*41
$GPRMC,104911.000,A,5320.5884,N,00137.0385,W,0.000,0.00,271212,,A*67
$GPGGA,104927.000,5320.5875,N,00137.0184,W,1,0,,386.0,M,,M,,*49
$GPRMC,104927.000,A,5320.5875,N,00137.0184,W,0.000,0.00,271212,,A*6F
$GPGGA,104942.000,5320.5870,N,00137.0011,W,1,0,,386.0,M,,M,,*42
$GPRMC,104942.000,A,5320.5870,N,00137.0011,W,0.000,0.00,271212,,A*64
$GPGGA,104957.000,5320.5877,N,00136.9767,W,1,0,,386.0,M,,M,,*4F
$GPRMC,104957.000,A,5320.5877,N,00136.9767,W,0.000,0.00,271212,,A*69
$GPGGA,105012.000,5320.5870,N,00136.9649,W,1,0,,386.0,M,,M,,*4C
$GPRMC,105012.000,A,5320.5870,N,00136.9649,W,0.000,0.00,271212,,A*6A
$GPGGA,105028.000,5320.5856,N,00136.9470,W,1,0,,386.0,M,,M,,*49
$GPRMC,105028.000,A,5320.5856,N,00136.9470,W,0.000,0.00,271212,,A*6F
$GPGGA,105043.000,5320.5845,N,00136.9345,W,1,0,,386.0,M,,M,,*47
$GPRMC,105043.000,A,5320.5845,N,00136.9345,W,0.000,0.00,271212,,A*61
$GPGGA,105058.000,5320.5852,N,00136.9164,W,1,0,,386.0,M,,M,,*4A
$GPRMC,105058.000,A,5320.5852,N,00136.9164,W,0.000,0.00,271212,,A*6C
$GPGGA,105113.000,5320.5856,N,00136.8922,W,1,0,,386.0,M,,M,,*4B
$GPRMC,105113.000,A,5320.5856,N,00136.8922,W,0.000,0.00,271212,,A*6D
$GPGGA,105129.000,5320.5852,N,00136.8770,W,1,0,,386.0,M,,M,,*4F
$GPRMC,105129.000,A,5320.5852,N,00136.8770,W,0.000,0.00,271212,,A*69
$GPGGA,105144.000,5320.5888,N,00136.8600,W,1,0,,386.0,M,,M,,*45
$GPRMC,105144.000,A,5320.5888,N,00136.8600,W,0.000,0.00,271212,,A*63
$GPGGA,105200.000,5320.5932,N,00136.8425,W,1,0,,386.0,M,,M,,*43
$GPRMC,105200.000,A,5320.5932,N,00136.8425,W,0.000,0.00,271212,,A*65
$GPGGA,105215.000,5320.5978,N,00136.8229,W,1,0,,386.0,M,,M,,*43
$GPRMC,105215.000,A,5320.5978,N,00136.8229,W,0.000,0.00,271212,,A*65
$GPGGA,105230.000,5320.5973,N,00136.8083,W,1,0,,387.0,M,,M,,*4C
$GPRMC,105230.000,A,5320.5973,N,00136.8083,W,0.000,0.00,271212,,A*6B
$GPGGA,105246.000,5320.5968,N,00136.7925,W,1,0,,387.0,M,,M,,*4D
$GPRMC,105246.000,A,5320.5968,N,00136.7925,W,0.000,0.00,271212,,A*6A
$GPGGA,105301.000,5320.5973,N,00136.7745,W,1,0,,387.0,M,,M,,*4D
$GPRMC,105301.000,A,5320.5973,N,00136.7745,W,0.000,0.00,271212,,A*6A
$GPGGA,105316.000,5320.5964,N,00136.7624,W,1,0,,387.0,M,,M,,*4B
$GPRMC,105316.000,A,5320.5964,N,00136.7624,W,0.000,0.00,271212,,A*6C
$GPGGA,105331.000,5320.5982,N,00136.7476,W,1,0,,387.0,M,,M,,*43
$GPRMC,105331.000,A,5320.5982,N,00136.7476,W,0.000,0.00,271212,,A*64
$GPGGA,105347.000,5320.5893,N,00136.7479,W,1,0,,387.0,M,,M,,*4C
$GPRMC,105347.000,A,5320.5893,N,00136.7479,W,0.000,0.00,271212,,A*6B
$GPGGA,105402.000,5320.5790,N,00136.7495,W,1,0,,387.0,M,,M,,*44
$GPRMC,105402.000,A,5320.5790,N,00136.7495,W,0.000,0.00,271212,,A*63
$GPGGA,105417.000,5320.5662,N,00136.7399,W,1,0,,387.0,M,,M,,*47
$GPRMC,105417.000,A,5320.5662,N,00136.7399,W,0.000,0.00,271212,,A*60
$GPGGA,105432.000,5320.5586,N,00136.7379,W,1,0,,387.0,M,,M,,*47
$GPRMC,105432.000,A,5320.5586,N,00136.7379,W,0.000,0.00,271212,,A*60
$GPGGA,105447.000,5320.5451,N,00136.7404,W,1,0,,387.0,M,,M,,*43
$GPRMC,105447.000,A,5320.5451,N,00136.7404,W,0.000,0.00,271212,,A*64
$GPGGA,105502.000,5320.5362,N,00136.7444,W,1,0,,387.0,M,,M,,*40
$GPRMC,105502.000,A,5320.5362,N,00136.7444,W,0.000,0.00,271212,,A*67
$GPGGA,105517.000,5320.5264,N,00136.7389,W,1,0,,387.0,M,,M,,*45
$GPRMC,105517.000,A,5320.5264,N,00136.7389,W,0.000,0.00,271212,,A*62
$GPGGA,105533.000,5320.5172,N,00136.7348,W,1,0,,387.0,M,,M,,*4A
$GPRMC,105533.000,A,5320.5172,N,00136.7348,W,0.000,0.00,271212,,A*6D
$GPGGA,105549.000,5320.5124,N,00136.7362,W,1,0,,387.0,M,,M,,*4C
$GPRMC,105549.000,A,5320.5124,N,00136.7362,W,0.000,0.00,271212,,A*6B
$GPGGA,105604.000,5320.5048,N,00136.7220,W,1,0,,387.0,M,,M,,*4A
$GPRMC,105604.000,A,5320.5048,N,00136.7220,W,0.000,0.00,271212,,A*6D
$GPGGA,105619.000,5320.5019,N,00136.7244,W,1,0,,387.0,M,,M,,*40
$GPRMC,105619.000,A,5320.5019,N,00136.7244,W,0.000,0.00,271212,,A*67
$GPGGA,105634.000,5320.4916,N,00136.7169,W,1,0,,387.0,M,,M,,*44
$GPRMC,105634.000,A,5320.4916,N,00136.7169,W,0.000,0.00,271212,,A*63
$GPGGA,105649.000,5320.4863,N,00136.7100,W,1,0,,387.0,M,,M,,*42
$GPRMC,105649.000,A,5320.4863,N,00136.7100,W,0.000,0.00,271212,,A*65
$GPGGA,105704.000,5320.4771,N,00136.6992,W,1,0,,388.0,M,,M,,*4B
$GPRMC,105704.000,A,5320.4771,N,00136.6992,W,0.000,0.00,271212,,A*63
$GPGGA,105720.000,5320.4696,N,00136.6967,W,1,0,,388.0,M,,M,,*4F
$GPRMC,105720.000,A,5320.4696,N,00136.6967,W,0.000,0.00,271212,,A*67
$GPGGA,105735.000,5320.4613,N,00136.6908,W,1,0,,388.0,M,,M,,*4F
$GPRMC,105735.000,A,5320.4613,N,00136.6908,W,0.000,0.00,271212,,A*67
$GPGGA,105750.000,5320.4515,N,00136.6897,W,1,0,,388.0,M,,M,,*4E
$GPRMC,105750.000,A,5320.4515,N,00136.6897,W,0.000,0.00,271212,,A*66
$GPGGA,105805.000,5320.4460,N,00136.6882,W,1,0,,388.0,M,,M,,*46
$GPRMC,105805.000,A,5320.4460,N,00136.6882,W,0.000,0.00,271212,,A*6E
$GPGGA,105821.000,5320.4424,N,00136.6928,W,1,0,,388.0,M,,M,,*41
$GPRMC,105821.000,A,5320.4424,N,00136.6928,W,0.000,0.00,271212,,A*69
$GPGGA,105836.000,5320.4373,N,00136.6958,W,1,0,,388.0,M,,M,,*45
$GPRMC,105836.000,A,5320.4373,N,00136.6958,W,0.000,0.00,271212,,A*6D
$GPGGA,105851.000,5320.4373,N,00136.7005,W,1,0,,388.0,M,,M,,*44
$GPRMC,105851.000,A,5320.4373,N,00136.7005,W,0.000,0.00,271212,,A*6C
$GPGGA,105906.000,5320.4314,N,00136.7089,W,1,0,,388.0,M,,M,,*42
$GPRMC,105906.000,A,5320.4314,N,00136.7089,W,0.000,0.00,271212,,A*6A
$GPGGA,105922.000,5320.4268,N,00136.7203,W,1,0,,387.0,M,,M,,*41
$GPRMC,105922.000,A,5320.4268,N,00136.7203,W,0.000,0.00,271212,,A*66
$GPGGA,105938.000,5320.4176,N,00136.7280,W,1,0,,387.0,M,,M,,*4D
$GPRMC,105938.000,A,5320.4176,N,00136.7280,W,0.000,0.00,271212,,A*6A
$GPGGA,105953.000,5320.4128,N,00136.7360,W,1,0,,388.0,M,,M,,*4B
$GPRMC,105953.000,A,5320.4128,N,00136.7360,W,0.000,0.00,271212,,A*63
$GPGGA,110009.000,5320.4060,N,00136.7492,W,1,0,,388.0,M,,M,,*4E
$GPRMC,110009.000,A,5320.4060,N,00136.7492,W,0.000,0.00,271212,,A*66
$GPGGA,110024.000,5320.3973,N,00136.7603,W,1,0,,388.0,M,,M,,*47
$GPRMC,110024.000,A,5320.3973,N,00136.7603,W,0.000,0.00,271212,,A*6F
$GPGGA,110039.000,5320.3874,N,00136.7649,W,1,0,,388.0,M,,M,,*43
$GPRMC,110039.000,A,5320.3874,N,00136.7649,W,0.000,0.00,271212,,A*6B
$GPGGA,110054.000,5320.3764,N,00136.7742,W,1,0,,388.0,M,,M,,*4C
$GPRMC,110054.000,A,5320.3764,N,00136.7742,W,0.000,0.00,271212,,A*64
$GPGGA,110109.000,5320.3696,N,00136.7782,W,1,0,,388.0,M,,M,,*45
$GPRMC,110109.000,A,5320.3696,N,00136.7782,W,0.000,0.00,271212,,A*6D
$GPGGA,110124.000,5320.3586,N,00136.7897,W,1,0,,388.0,M,,M,,*43
$GPRMC,110124.000,A,5320.3586,N,00136.7897,W,0.000,0.00,271212,,A*6B
$GPGGA,110139.000,5320.3517,N,00136.7919,W,1,0,,388.0,M,,M,,*40
$GPRMC,110139.000,A,5320.3517,N,00136.7919,W,0.000,0.00,271212,,A*68
$GPGGA,110155.000,5320.3368,N,00136.8035,W,1,0,,388.0,M,,M,,*4C
$GPRMC,110155.000,A,5320.3368,N,00136.8035,W,0.000,0.00,271212,,A*64
$GPGGA,110210.000,5320.3293,N,00136.8111,W,1,0,,388.0,M,,M,,*4C
$GPRMC,110210.000,A,5320.3293,N,00136.8111,W,0.000,0.00,271212,,A*64
$GPGGA,110225.000,5320.3220,N,00136.8126,W,1,0,,388.0,M,,M,,*46
$GPRMC,110225.000,A,5320.3220,N,00136.8126,W,0.000,0.00,271212,,A*6E
$GPGGA,110240.000,5320.3114,N,00136.8148,W,1,0,,388.0,M,,M,,*49
$GPRMC,110240.000,A,5320.3114,N,00136.8148,W,0.000,0.00,271212,,A*61
$GPGGA,110256.000,5320.3009,N,00136.8174,W,1,0,,388.0,M,,M,,*4C
$GPRMC,110256.000,A,5320.3009,N,00136.8174,W,0.000,0.00,271212,,A*64
$GPGGA,110312.000,5320.2931,N,00136.8240,W,1,0,,388.0,M,,M,,*4A
$GPRMC,110312.000,A,5320.2931,N,00136.8240,W,0.000,0.00,271212,,A*62
$GPGGA,110327.000,5320.2810,N,00136.8397,W,1,0,,388.0,M,,M,,*45
$GPRMC,110327.000,A,5320.2810,N,00136.8397,W,0.000,0.00,271212,,A*6D
$GPGGA,110342.000,5320.2700,N,00136.8411,W,1,0,,388.0,M,,M,,*41
$GPRMC,110342.000,A,5320.2700,N,00136.8411,W,0.000,0.00,271212,,A*69
$GPGGA,110357.000,5320.2613,N,00136.8440,W,1,0,,388.0,M,,M,,*42
$GPRMC,110357.000,A,5320.2613,N,00136.8440,W,0.000,0.00,271212,,A*6A
$GPGGA,110412.000,5320.2524,N,00136.8571,W,1,0,,388.0,M,,M,,*40
$GPRMC,110412.000,A,5320.2524,N,00136.8571,W,0.000,0.00,271212,,A*68
$GPGGA,110428.000,5320.2435,N,00136.8578,W,1,0,,388.0,M,,M,,*41
$GPRMC,110428.000,A,5320.2435,N,00136.8578,W,0.000,0.00,271212,,A*69
$GPGGA,110443.000,5320.2332,N,00136.8596,W,1,0,,389.0,M,,M,,*4D
$GPRMC,110443.000,A,5320.2332,N,00136.8596,W,0.000,0.00,271212,,A*64
$GPGGA,110458.000,5320.2226,N,00136.8661,W,1,0,,389.0,M,,M,,*48
$GPRMC,110458.000,A,5320.2226,N,00136.8661,W,0.000,0.00,271212,,A*61
$GPGGA,110513.000,5320.2160,N,00136.8672,W,1,0,,389.0,M,,M,,*45
$GPRMC,110513.000,A,5320.2160,N,00136.8672,W,0.000,0.00,271212,,A*6C
$GPGGA,110528.000,5320.2068,N,00136.8716,W,1,0,,389.0,M,,M,,*47
$GPRMC,110528.000,A,5320.2068,N,00136.8716,W,0.000,0.00,271212,,A*6E
$GPGGA,110544.000,5320.1997,N,00136.8758,W,1,0,,389.0,M,,M,,*4D
$GPRMC,110544.000,A,5320.1997,N,00136.8758,W,0.000,0.00,271212,,A*64
$GPGGA,110559.000,5320.1890,N,00136.8817,W,1,0,,389.0,M,,M,,*43
$GPRMC,110559.000,A,5320.1890,N,00136.8817,W,0.000,0.00,271212,,A*6A
$GPGGA,110614.000,5320.1833,N,00136.8844,W,1,0,,389.0,M,,M,,*46
$GPRMC,110614.000,A,5320.1833,N,00136.8844,W,0.000,0.00,271212,,A*6F
$GPGGA,110630.000,5320.1768,N,00136.8876,W,1,0,,389.0,M,,M,,*40
$GPRMC,110630.000,A,5320.1768,N,00136.8876,W,0.000,0.00,271212,,A*69
$GPGGA,110645.000,5320.1686,N,00136.8922,W,1,0,,389.0,M,,M,,*43
$GPRMC,110645.000,A,5320.1686,N,00136.8922,W,0.000,0.00,271212,,A*6A
$GPGGA,110700.000,5320.1528,N,00136.9009,W,1,0,,390.0,M,,M,,*4D
$GPRMC,110700.000,A,5320.1528,N,00136.9009,W,0.000,0.00,271212,,A*6C
$GPGGA,110715.000,5320.1498,N,00136.9018,W,1,0,,390.0,M,,M,,*43
$GPRMC,110715.000,A,5320.1498,N,00136.9018,W,0.000,0.00,271212,,A*62
$GPGGA,110730.000,5320.1414,N,00136.9026,W,1,0,,389.0,M,,M,,*45
$GPRMC,110730.000,A,5320.1414,N,00136.9026,W,0.000,0.00,271212,,A*6C
$GPGGA,110745.000,5320.1395,N,00136.9035,W,1,0,,390.0,M,,M,,*43
$GPRMC,110745.000,A,5320.1395,N,00136.9035,W,0.000,0.00,271212,,A*62
$GPGGA,110800.000,5320.1334,N,00136.9170,W,1,0,,390.0,M,,M,,*46
$GPRMC,110800.000,A,5320.1334,N,00136.9170,W,0.000,0.00,271212,,A*67
$GPGGA,110817.000,5320.1267,N,00136.9203,W,1,0,,391.0,M,,M,,*41
$GPRMC,110817.000,A,5320.1267,N,00136.9203,W,0.000,0.00,271212,,A*61
$GPGGA,110834.000,5320.1203,N,00136.9360,W,1,0,,391.0,M,,M,,*46
$GPRMC,110834.000,A,5320.1203,N,00136.9360,W,0.000,0.00,271212,,A*66
$GPGGA,110850.000,5320.1265,N,00136.9342,W,1,0,,391.0,M,,M,,*44
$GPRMC,110850.000,A,5320.1265,N,00136.9342,W,0.000,0.00,271212,,A*64
$GPGGA,110906.000,5320.1327,N,00136.9385,W,1,0,,391.0,M,,M,,*4A
$GPRMC,110906.000,A,5320.1327,N,00136.9385,W,0.000,0.00,271212,,A*6A
$GPGGA,110922.000,5320.1427,N,00136.9410,W,1,0,,391.0,M,,M,,*40
$GPRMC,110922.000,A,5320.1427,N,00136.9410,W,0.000,0.00,271212,,A*60
$GPGGA,110937.000,5320.1533,N,00136.9446,W,1,0,,391.0,M,,M,,*43
$GPRMC,110937.000,A,5320.1533,N,00136.9446,W,0.000,0.00,271212,,A*63
$GPGGA,110952.000,5320.1647,N,00136.9535,W,1,0,,391.0,M,,M,,*45
$GPRMC,110952.000,A,5320.1647,N,00136.9535,W,0.000,0.00,271212,,A*65
$GPGGA,111007.000,5320.1695,N,00136.9648,W,1,0,,390.0,M,,M,,*4A
$GPRMC,111007.000,A,5320.1695,N,00136.9648,W,0.000,0.00,271212,,A*6B
$GPGGA,111031.000,5320.1757,N,00136.9716,W,1,0,,390.0,M,,M,,*4A
$GPRMC,111031.000,A,5320.1757,N,00136.9716,W,0.000,0.00,271212,,A*6B
$GPGGA,111046.000,5320.1833,N,00136.9694,W,1,0,,390.0,M,,M,,*4C
$GPRMC,111046.000,A,5320.1833,N,00136.9694,W,0.000,0.00,271212,,A*6D
$GPGGA,111101.000,5320.1901,N,00136.9724,W,1,0,,390.0,M,,M,,*44
$GPRMC,111101.000,A,5320.1901,N,00136.9724,W,0.000,0.00,271212,,A*65
$GPGGA,111117.000,5320.1922,N,00136.9785,W,1,0,,389.0,M,,M,,*41
$GPRMC,111117.000,A,5320.1922,N,00136.9785,W,0.000,0.00,271212,,A*68
$GPGGA,111132.000,5320.2018,N,00136.9847,W,1,0,,390.0,M,,M,,*4C
$GPRMC,111132.000,A,5320.2018,N,00136.9847,W,0.000,0.00,271212,,A*6D
$GPGGA,111147.000,5320.2107,N,00136.9961,W,1,0,,390.0,M,,M,,*44
$GPRMC,111147.000,A,5320.2107,N,00136.9961,W,0.000,0.00,271212,,A*65
$GPGGA,111202.000,5320.2087,N,00137.0031,W,1,0,,388.0,M,,M,,*42
$GPRMC,111202.000,A,5320.2087,N,00137.0031,W,0.000,0.00,271212,,A*6A
$GPGGA,111217.000,5320.2123,N,00137.0070,W,1,0,,388.0,M,,M,,*4C
$GPRMC,111217.000,A,5320.2123,N,00137.0070,W,0.000,0.00,271212,,A*64
$GPGGA,111232.000,5320.2128,N,00137.0282,W,1,0,,388.0,M,,M,,*4F
$GPRMC,111232.000,A,5320.2128,N,00137.0282,W,0.000,0.00,271212,,A*67
$GPGGA,111256.000,5320.2167,N,00137.0437,W,1,0,,388.0,M,,M,,*4E
$GPRMC,111256.000,A,5320.2167,N,00137.0437,W,0.000,0.00,271212,,A*66
$GPGGA,111311.000,5320.2114,N,00137.0600,W,1,0,,388.0,M,,M,,*4E
$GPRMC,111311.000,A,5320.2114,N,00137.0600,W,0.000,0.00,271212,,A*66
$GPGGA,111326.000,5320.2041,N,00137.0759,W,1,0,,388.0,M,,M,,*46
$GPRMC,111326.000,A,5320.2041,N,00137.0759,W,0.000,0.00,271212,,A*6E
$GPGGA,111341.000,5320.2027,N,00137.0829,W,1,0,,387.0,M,,M,,*40
$GPRMC,111341.000,A,5320.2027,N,00137.0829,W,0.000,0.00,271212,,A*67
$GPGGA,111356.000,5320.1991,N,00137.1017,W,1,0,,388.0,M,,M,,*4A
$GPRMC,111356.000,A,5320.1991,N,00137.1017,W,0.000,0.00,271212,,A*62
$GPGGA,111411.000,5320.1888,N,00137.1185,W,1,0,,387.0,M,,M,,*42
$GPRMC,111411.000,A,5320.1888,N,00137.1185,W,0.000,0.00,271212,,A*65
$GPGGA,111426.000,5320.1871,N,00137.1247,W,1,0,,387.0,M,,M,,*4D
$GPRMC,111426.000,A,5320.1871,N,00137.1247,W,0.000,0.00,271212,,A*6A
$GPGGA,111442.000,5320.1883,N,00137.1395,W,1,0,,387.0,M,,M,,*4C
$GPRMC,111442.000,A,5320.1883,N,00137.1395,W,0.000,0.00,271212,,A*6B
$GPGGA,111457.000,5320.1846,N,00137.1492,W,1,0,,387.0,M,,M,,*41
$GPRMC,111457.000,A,5320.1846,N,00137.1492,W,0.000,0.00,271212,,A*66
$GPGGA,111512.000,5320.1817,N,00137.1600,W,1,0,,387.0,M,,M,,*4C
$GPRMC,111512.000,A,5320.1817,N,00137.1600,W,0.000,0.00,271212,,A*6B
$GPGGA,111528.000,5320.1782,N,00137.1694,W,1,0,,387.0,M,,M,,*4B
$GPRMC,111528.000,A,5320.1782,N,00137.1694,W,0.000,0.00,271212,,A*6C
$GPGGA,111543.000,5320.1734,N,00137.1825,W,1,0,,387.0,M,,M,,*4F
$GPRMC,111543.000,A,5320.1734,N,00137.1825,W,0.000,0.00,271212,,A*68
$GPGGA,111558.000,5320.1672,N,00137.1871,W,1,0,,387.0,M,,M,,*47
$GPRMC,111558.000,A,5320.1672,N,00137.1871,W,0.000,0.00,271212,,A*60
$GPGGA,111614.000,5320.1665,N,00137.1896,W,1,0,,387.0,M,,M,,*43
$GPRMC,111614.000,A,5320.1665,N,00137.1896,W,0.000,0.00,271212,,A*64
$GPGGA,111629.000,5320.1629,N,00137.2016,W,1,0,,387.0,M,,M,,*46
$GPRMC,111629.000,A,5320.1629,N,00137.2016,W,0.000,0.00,271212,,A*61
$GPGGA,111644.000,5320.1560,N,00137.2057,W,1,0,,386.0,M,,M,,*47
$GPRMC,111644.000,A,5320.1560,N,00137.2057,W,0.000,0.00,271212,,A*61
$GPGGA,111700.000,5320.1551,N,00137.2196,W,1,0,,386.0,M,,M,,*48
$GPRMC,111700.000,A,5320.1551,N,00137.2196,W,0.000,0.00,271212,,A*6E
$GPGGA,111715.000,5320.1494,N,00137.2325,W,1,0,,386.0,M,,M,,*4E
$GPRMC,111715.000,A,5320.1494,N,00137.2325,W,0.000,0.00,271212,,A*68
$GPGGA,111730.000,5320.1455,N,00137.2428,W,1,0,,385.0,M,,M,,*4D
$GPRMC,111730.000,A,5320.1455,N,00137.2428,W,0.000,0.00,271212,,A*68
$GPGGA,111746.000,5320.1448,N,00137.2477,W,1,0,,385.0,M,,M,,*4A
$GPRMC,111746.000,A,5320.1448,N,00137.2477,W,0.000,0.00,271212,,A*6F
$GPGGA,111801.000,5320.1421,N,00137.2724,W,1,0,,385.0,M,,M,,*4C
$GPRMC,111801.000,A,5320.1421,N,00137.2724,W,0.000,0.00,271212,,A*69
$GPGGA,111816.000,5320.1395,N,00137.2810,W,1,0,,385.0,M,,M,,*4A
$GPRMC,111816.000,A,5320.1395,N,00137.2810,W,0.000,0.00,271212,,A*6F
$GPGGA,111831.000,5320.1354,N,00137.2935,W,1,0,,385.0,M,,M,,*44
$GPRMC,111831.000,A,5320.1354,N,00137.2935,W,0.000,0.00,271212,,A*61
$GPGGA,111847.000,5320.1281,N,00137.3219,W,1,0,,384.0,M,,M,,*49
$GPRMC,111847.000,A,5320.1281,N,00137.3219,W,0.000,0.00,271212,,A*6D
$GPGGA,111902.000,5320.1281,N,00137.3314,W,1,0,,384.0,M,,M,,*45
$GPRMC,111902.000,A,5320.1281,N,00137.3314,W,0.000,0.00,271212,,A*61
$GPGGA,111917.000,5320.1247,N,00137.3386,W,1,0,,383.0,M,,M,,*47
$GPRMC,111917.000,A,5320.1247,N,00137.3386,W,0.000,0.00,271212,,A*64
$GPGGA,111933.000,5320.1137,N,00137.3461,W,1,0,,383.0,M,,M,,*4B
$GPRMC,111933.000,A,5320.1137,N,00137.3461,W,0.000,0.00,271212,,A*68
$GPGGA,111948.000,5320.1160,N,00137.3560,W,1,0,,382.0,M,,M,,*44
$GPRMC,111948.000,A,5320.1160,N,00137.3560,W,0.000,0.00,271212,,A*66
$GPGGA,112003.000,5320.1167,N,00137.3717,W,1,0,,382.0,M,,M,,*44
$GPRMC,112003.000,A,5320.1167,N,00137.3717,W,0.000,0.00,271212,,A*66
$GPGGA,112019.000,5320.1080,N,00137.3670,W,1,0,,382.0,M,,M,,*47
$GPRMC,112019.000,A,5320.1080,N,00137.3670,W,0.000,0.00,271212,,A*65
$GPGGA,112034.000,5320.1077,N,00137.3695,W,1,0,,381.0,M,,M,,*48
$GPRMC,112034.000,A,5320.1077,N,00137.3695,W,0.000,0.00,271212,,A*69
$GPGGA,112050.000,5320.1073,N,00137.3869,W,1,0,,381.0,M,,M,,*43
$GPRMC,112050.000,A,5320.1073,N,00137.3869,W,0.000,0.00,271212,,A*62
$GPGGA,112105.000,5320.1077,N,00137.3850,W,1,0,,381.0,M,,M,,*4C
$GPRMC,112105.000,A,5320.1077,N,00137.3850,W,0.000,0.00,271212,,A*6D
$GPGGA,112120.000,5320.1130,N,00137.3873,W,1,0,,381.0,M,,M,,*48
$GPRMC,112120.000,A,5320.1130,N,00137.3873,W,0.000,0.00,271212,,A*69
$GPGGA,112135.000,5320.0979,N,00137.3982,W,1,0,,380.0,M,,M,,*46
$GPRMC,112135.000,A,5320.0979,N,00137.3982,W,0.000,0.00,271212,,A*66
$GPGGA,112151.000,5320.0949,N,00137.4007,W,1,0,,379.0,M,,M,,*42
$GPRMC,112151.000,A,5320.0949,N,00137.4007,W,0.000,0.00,271212,,A*64
$GPGGA,112206.000,5320.0915,N,00137.4121,W,1,0,,379.0,M,,M,,*4F
$GPRMC,112206.000,A,5320.0915,N,00137.4121,W,0.000,0.00,271212,,A*69
$GPGGA,112221.000,5320.0906,N,00137.4163,W,1,0,,379.0,M,,M,,*4E
$GPRMC,112221.000,A,5320.0906,N,00137.4163,W,0.000,0.00,271212,,A*68
$GPGGA,112236.000,5320.0839,N,00137.4380,W,1,0,,378.0,M,,M,,*4B
$GPRMC,112236.000,A,5320.0839,N,00137.4380,W,0.000,0.00,271212,,A*6C
$GPGGA,112251.000,5320.0826,N,00137.4469,W,1,0,,377.0,M,,M,,*4B
$GPRMC,112251.000,A,5320.0826,N,00137.4469,W,0.000,0.00,271212,,A*63
$GPGGA,112307.000,5320.0736,N,00137.4635,W,1,0,,377.0,M,,M,,*4C
$GPRMC,112307.000,A,5320.0736,N,00137.4635,W,0.000,0.00,271212,,A*64
$GPGGA,112322.000,5320.0713,N,00137.4767,W,1,0,,377.0,M,,M,,*4A
$GPRMC,112322.000,A,5320.0713,N,00137.4767,W,0.000,0.00,271212,,A*62
$GPGGA,112338.000,5320.0608,N,00137.4752,W,1,0,,376.0,M,,M,,*4D
$GPRMC,112338.000,A,5320.0608,N,00137.4752,W,0.000,0.00,271212,,A*64
$GPGGA,112353.000,5320.0578,N,00137.4913,W,1,0,,375.0,M,,M,,*4C
$GPRMC,112353.000,A,5320.0578,N,00137.4913,W,0.000,0.00,271212,,A*66
$GPGGA,112408.000,5320.0494,N,00137.4944,W,1,0,,374.0,M,,M,,*45
$GPRMC,112408.000,A,5320.0494,N,00137.4944,W,0.000,0.00,271212,,A*6E
$GPGGA,112423.000,5320.0484,N,00137.5019,W,1,0,,374.0,M,,M,,*4D
$GPRMC,112423.000,A,5320.0484,N,00137.5019,W,0.000,0.00,271212,,A*66
$GPGGA,112438.000,5320.0427,N,00137.5364,W,1,0,,373.0,M,,M,,*40
$GPRMC,112438.000,A,5320.0427,N,00137.5364,W,0.000,0.00,271212,,A*6C
$GPGGA,112454.000,5320.0439,N,00137.5274,W,1,0,,373.0,M,,M,,*45
$GPRMC,112454.000,A,5320.0439,N,00137.5274,W,0.000,0.00,271212,,A*69
$GPGGA,112509.000,5320.0370,N,00137.5162,W,1,0,,373.0,M,,M,,*42
$GPRMC,112509.000,A,5320.0370,N,00137.5162,W,0.000,0.00,271212,,A*6E
$GPGGA,112524.000,5320.0363,N,00137.5270,W,1,0,,373.0,M,,M,,*4F
$GPRMC,112524.000,A,5320.0363,N,00137.5270,W,0.000,0.00,271212,,A*63
$GPGGA,112541.000,5320.0253,N,00137.5483,W,1,0,,371.0,M,,M,,*46
$GPRMC,112541.000,A,5320.0253,N,00137.5483,W,0.000,0.00,271212,,A*68
$GPGGA,112556.000,5320.0194,N,00137.5689,W,1,0,,371.0,M,,M,,*40
$GPRMC,112556.000,A,5320.0194,N,00137.5689,W,0.000,0.00,271212,,A*6E
$GPGGA,112611.000,5320.0027,N,00137.6028,W,1,0,,371.0,M,,M,,*47
$GPRMC,112611.000,A,5320.0027,N,00137.6028,W,0.000,0.00,271212,,A*69
$GPGGA,112626.000,5319.9912,N,00137.6281,W,1,0,,370.0,M,,M,,*4F
$GPRMC,112626.000,A,5319.9912,N,00137.6281,W,0.000,0.00,271212,,A*60
$GPGGA,112641.000,5319.9940,N,00137.6376,W,1,0,,371.0,M,,M,,*41
$GPRMC,112641.000,A,5319.9940,N,00137.6376,W,0.000,0.00,271212,,A*6F
$GPGGA,112656.000,5320.0153,N,00137.6234,W,1,0,,370.0,M,,M,,*48
$GPRMC,112656.000,A,5320.0153,N,00137.6234,W,0.000,0.00,271212,,A*67
$GPGGA,112711.000,5320.0196,N,00137.6282,W,1,0,,369.0,M,,M,,*46
$GPRMC,112711.000,A,5320.0196,N,00137.6282,W,0.000,0.00,271212,,A*61
$GPGGA,112727.000,5320.0134,N,00137.6447,W,1,0,,369.0,M,,M,,*44
$GPRMC,112727.000,A,5320.0134,N,00137.6447,W,0.000,0.00,271212,,A*63
$GPGGA,112742.000,5320.0077,N,00137.6604,W,1,0,,369.0,M,,M,,*44
$GPRMC,112742.000,A,5320.0077,N,00137.6604,W,0.000,0.00,271212,,A*63
$GPGGA,112758.000,5320.0061,N,00137.6840,W,1,0,,369.0,M,,M,,*46
$GPRMC,112758.000,A,5320.0061,N,00137.6840,W,0.000,0.00,271212,,A*61
$GPGGA,112813.000,5320.0066,N,00137.6920,W,1,0,,368.0,M,,M,,*47
$GPRMC,112813.000,A,5320.0066,N,00137.6920,W,0.000,0.00,271212,,A*61
$GPGGA,112828.000,5320.0072,N,00137.7056,W,1,0,,368.0,M,,M,,*43
$GPRMC,112828.000,A,5320.0072,N,00137.7056,W,0.000,0.00,271212,,A*65
$GPGGA,112844.000,5320.0013,N,00137.7164,W,1,0,,368.0,M,,M,,*4E
$GPRMC,112844.000,A,5320.0013,N,00137.7164,W,0.000,0.00,271212,,A*68
$GPGGA,112859.000,5320.0015,N,00137.7273,W,1,0,,367.0,M,,M,,*4E
$GPRMC,112859.000,A,5320.0015,N,00137.7273,W,0.000,0.00,271212,,A*67
$GPGGA,112914.000,5320.0134,N,00137.7789,W,1,0,,355.0,M,,M,,*45
$GPRMC,112914.000,A,5320.0134,N,00137.7789,W,0.000,0.00,271212,,A*6D
$GPGGA,112929.000,5319.9995,N,00137.7740,W,1,0,,365.0,M,,M,,*4D
$GPRMC,112929.000,A,5319.9995,N,00137.7740,W,0.000,0.00,271212,,A*66
$GPGGA,112945.000,5319.9871,N,00137.7535,W,1,0,,365.0,M,,M,,*4C
$GPRMC,112945.000,A,5319.9871,N,00137.7535,W,0.000,0.00,271212,,A*67
$GPGGA,113000.000,5319.9963,N,00137.7714,W,1,0,,365.0,M,,M,,*46
$GPRMC,113000.000,A,5319.9963,N,00137.7714,W,0.000,0.00,271212,,A*6D
$GPGGA,113015.000,5319.9926,N,00137.7830,W,1,0,,364.0,M,,M,,*4B
$GPRMC,113015.000,A,5319.9926,N,00137.7830,W,0.000,0.00,271212,,A*61
$GPGGA,113040.000,5319.9997,N,00137.7977,W,1,0,,363.0,M,,M,,*44
$GPRMC,113040.000,A,5319.9997,N,00137.7977,W,0.000,0.00,271212,,A*69
$GPGGA,113055.000,5320.0079,N,00137.8012,W,1,0,,361.0,M,,M,,*4D
$GPRMC,113055.000,A,5320.0079,N,00137.8012,W,0.000,0.00,271212,,A*62
$GPGGA,113112.000,5320.0205,N,00137.8165,W,1,0,,360.0,M,,M,,*46
$GPRMC,113112.000,A,5320.0205,N,00137.8165,W,0.000,0.00,271212,,A*68
$GPGGA,113127.000,5320.0290,N,00137.8203,W,1,0,,360.0,M,,M,,*4F
$GPRMC,113127.000,A,5320.0290,N,00137.8203,W,0.000,0.00,271212,,A*61
$GPGGA,113142.000,5320.0320,N,00137.8344,W,1,0,,359.0,M,,M,,*4E
$GPRMC,113142.000,A,5320.0320,N,00137.8344,W,0.000,0.00,271212,,A*6A
$GPGGA,113157.000,5320.0391,N,00137.8409,W,1,0,,358.0,M,,M,,*4F
$GPRMC,113157.000,A,5320.0391,N,00137.8409,W,0.000,0.00,271212,,A*6A
$GPGGA,113213.000,5320.0480,N,00137.8479,W,1,0,,357.0,M,,M,,*43
$GPRMC,113213.000,A,5320.0480,N,00137.8479,W,0.000,0.00,271212,,A*69
$GPGGA,113228.000,5320.0576,N,00137.8580,W,1,0,,356.0,M,,M,,*45
$GPRMC,113228.000,A,5320.0576,N,00137.8580,W,0.000,0.00,271212,,A*6E
$GPGGA,113243.000,5320.0684,N,00137.8785,W,1,0,,356.0,M,,M,,*41
$GPRMC,113243.000,A,5320.0684,N,00137.8785,W,0.000,0.00,271212,,A*6A
$GPGGA,113259.000,5320.0823,N,00137.8913,W,1,0,,355.0,M,,M,,*4B
$GPRMC,113259.000,A,5320.0823,N,00137.8913,W,0.000,0.00,271212,,A*63
$GPGGA,113314.000,5320.0832,N,00137.8965,W,1,0,,355.0,M,,M,,*42
$GPRMC,113314.000,A,5320.0832,N,00137.8965,W,0.000,0.00,271212,,A*6A
$GPGGA,113329.000,5320.0922,N,00137.9029,W,1,0,,354.0,M,,M,,*4D
$GPRMC,113329.000,A,5320.0922,N,00137.9029,W,0.000,0.00,271212,,A*64
$GPGGA,113344.000,5320.0977,N,00137.9070,W,1,0,,353.0,M,,M,,*4D
$GPRMC,113344.000,A,5320.0977,N,00137.9070,W,0.000,0.00,271212,,A*63
$GPGGA,113359.000,5320.1068,N,00137.9145,W,1,0,,353.0,M,,M,,*40
$GPRMC,113359.000,A,5320.1068,N,00137.9145,W,0.000,0.00,271212,,A*6E
$GPGGA,113414.000,5320.1173,N,00137.9298,W,1,0,,352.0,M,,M,,*47
$GPRMC,113414.000,A,5320.1173,N,00137.9298,W,0.000,0.00,271212,,A*68
$GPGGA,113429.000,5320.1270,N,00137.9261,W,1,0,,352.0,M,,M,,*4F
$GPRMC,113429.000,A,5320.1270,N,00137.9261,W,0.000,0.00,271212,,A*60
$GPGGA,113445.000,5320.1354,N,00137.9377,W,1,0,,351.0,M,,M,,*47
$GPRMC,113445.000,A,5320.1354,N,00137.9377,W,0.000,0.00,271212,,A*6B
$GPGGA,113500.000,5320.1469,N,00137.9365,W,1,0,,351.0,M,,M,,*4D
$GPRMC,113500.000,A,5320.1469,N,00137.9365,W,0.000,0.00,271212,,A*61
$GPGGA,113515.000,5320.1512,N,00137.9484,W,1,0,,350.0,M,,M,,*4D
$GPRMC,113515.000,A,5320.1512,N,00137.9484,W,0.000,0.00,271212,,A*60
$GPGGA,113531.000,5320.1636,N,00137.9533,W,1,0,,350.0,M,,M,,*43
$GPRMC,113531.000,A,5320.1636,N,00137.9533,W,0.000,0.00,271212,,A*6E
$GPGGA,113547.000,5320.1739,N,00137.9600,W,1,0,,350.0,M,,M,,*4F
$GPRMC,113547.000,A,5320.1739,N,00137.9600,W,0.000,0.00,271212,,A*62
$GPGGA,113602.000,5320.1867,N,00137.9657,W,1,0,,349.0,M,,M,,*43
$GPRMC,113602.000,A,5320.1867,N,00137.9657,W,0.000,0.00,271212,,A*66
$GPGGA,113617.000,5320.1883,N,00137.9734,W,1,0,,349.0,M,,M,,*49
$GPRMC,113617.000,A,5320.1883,N,00137.9734,W,0.000,0.00,271212,,A*6C
$GPGGA,113632.000,5320.1997,N,00137.9783,W,1,0,,348.0,M,,M,,*47
$GPRMC,113632.000,A,5320.1997,N,00137.9783,W,0.000,0.00,271212,,A*63
$GPGGA,113647.000,5320.2135,N,00137.9853,W,1,0,,348.0,M,,M,,*44
$GPRMC,113647.000,A,5320.2135,N,00137.9853,W,0.000,0.00,271212,,A*60
$GPGGA,113702.000,5320.2229,N,00137.9918,W,1,0,,348.0,M,,M,,*44
$GPRMC,113702.000,A,5320.2229,N,00137.9918,W,0.000,0.00,271212,,A*60
$GPGGA,113717.000,5320.2354,N,00138.0000,W,1,0,,347.0,M,,M,,*42
$GPRMC,113717.000,A,5320.2354,N,00138.0000,W,0.000,0.00,271212,,A*69
$GPGGA,113733.000,5320.2451,N,00138.0077,W,1,0,,347.0,M,,M,,*46
$GPRMC,113733.000,A,5320.2451,N,00138.0077,W,0.000,0.00,271212,,A*6D
$GPGGA,113748.000,5320.2494,N,00138.0108,W,1,0,,346.0,M,,M,,*4B
$GPRMC,113748.000,A,5320.2494,N,00138.0108,W,0.000,0.00,271212,,A*61
$GPGGA,113803.000,5320.2528,N,00138.0164,W,1,0,,347.0,M,,M,,*46
$GPRMC,113803.000,A,5320.2528,N,00138.0164,W,0.000,0.00,271212,,A*6D
$GPGGA,113819.000,5320.2471,N,00138.0429,W,1,0,,346.0,M,,M,,*4D
$GPRMC,113819.000,A,5320.2471,N,00138.0429,W,0.000,0.00,271212,,A*67
$GPGGA,113834.000,5320.2451,N,00138.0616,W,1,0,,346.0,M,,M,,*4E
$GPRMC,113834.000,A,5320.2451,N,00138.0616,W,0.000,0.00,271212,,A*64
$GPGGA,113849.000,5320.2462,N,00138.0814,W,1,0,,345.0,M,,M,,*4B
$GPRMC,113849.000,A,5320.2462,N,00138.0814,W,0.000,0.00,271212,,A*62
$GPGGA,113904.000,5320.2428,N,00138.0928,W,1,0,,345.0,M,,M,,*43
$GPRMC,113904.000,A,5320.2428,N,00138.0928,W,0.000,0.00,271212,,A*6A
$GPGGA,113920.000,5320.2423,N,00138.1079,W,1,0,,344.0,M,,M,,*43
$GPRMC,113920.000,A,5320.2423,N,00138.1079,W,0.000,0.00,271212,,A*6B
$GPGGA,113935.000,5320.2416,N,00138.1276,W,1,0,,344.0,M,,M,,*4C
$GPRMC,113935.000,A,5320.2416,N,00138.1276,W,0.000,0.00,271212,,A*64
$GPGGA,113950.000,5320.2432,N,00138.1386,W,1,0,,344.0,M,,M,,*47
$GPRMC,113950.000,A,5320.2432,N,00138.1386,W,0.000,0.00,271212,,A*6F
$GPGGA,114006.000,5320.2350,N,00138.1692,W,1,0,,344.0,M,,M,,*49
$GPRMC,114006.000,A,5320.2350,N,00138.1692,W,0.000,0.00,271212,,A*61
$GPGGA,114021.000,5320.2361,N,00138.1883,W,1,0,,341.0,M,,M,,*45
$GPRMC,114021.000,A,5320.2361,N,00138.1883,W,0.000,0.00,271212,,A*68
$GPGGA,114036.000,5320.2320,N,00138.2047,W,1,0,,345.0,M,,M,,*41
$GPRMC,114036.000,A,5320.2320,N,00138.2047,W,0.000,0.00,271212,,A*68
$GPGGA,114051.000,5320.2332,N,00138.2028,W,1,0,,344.0,M,,M,,*4B
$GPRMC,114051.000,A,5320.2332,N,00138.2028,W,0.000,0.00,271212,,A*63
$GPGGA,114111.000,5320.2304,N,00138.2199,W,1,0,,343.0,M,,M,,*47
$GPRMC,114111.000,A,5320.2304,N,00138.2199,W,0.000,0.00,271212,,A*68
$GPGGA,114127.000,5320.2272,N,00138.2322,W,1,0,,343.0,M,,M,,*40
$GPRMC,114127.000,A,5320.2272,N,00138.2322,W,0.000,0.00,271212,,A*6F
$GPGGA,114142.000,5320.2309,N,00138.2602,W,1,0,,343.0,M,,M,,*49
$GPRMC,114142.000,A,5320.2309,N,00138.2602,W,0.000,0.00,271212,,A*66
$GPGGA,114158.000,5320.2341,N,00138.2616,W,1,0,,343.0,M,,M,,*4B
$GPRMC,114158.000,A,5320.2341,N,00138.2616,W,0.000,0.00,271212,,A*64
$GPGGA,114213.000,5320.2359,N,00138.2695,W,1,0,,343.0,M,,M,,*45
$GPRMC,114213.000,A,5320.2359,N,00138.2695,W,0.000,0.00,271212,,A*6A
$GPGGA,114228.000,5320.2348,N,00138.2669,W,1,0,,343.0,M,,M,,*4E
$GPRMC,114228.000,A,5320.2348,N,00138.2669,W,0.000,0.00,271212,,A*61
$GPGGA,114243.000,5320.2345,N,00138.2634,W,1,0,,343.0,M,,M,,*46
$GPRMC,114243.000,A,5320.2345,N,00138.2634,W,0.000,0.00,271212,,A*69
$GPGGA,114258.000,5320.2311,N,00138.2682,W,1,0,,342.0,M,,M,,*41
$GPRMC,114258.000,A,5320.2311,N,00138.2682,W,0.000,0.00,271212,,A*6F
$GPGGA,114313.000,5320.2332,N,00138.2830,W,1,0,,342.0,M,,M,,*49
$GPRMC,114313.000,A,5320.2332,N,00138.2830,W,0.000,0.00,271212,,A*67
$GPGGA,114328.000,5320.2338,N,00138.2890,W,1,0,,341.0,M,,M,,*42
$GPRMC,114328.000,A,5320.2338,N,00138.2890,W,0.000,0.00,271212,,A*6F
$GPGGA,114344.000,5320.2398,N,00138.2983,W,1,0,,340.0,M,,M,,*40
$GPRMC,114344.000,A,5320.2398,N,00138.2983,W,0.000,0.00,271212,,A*6C
$GPGGA,114359.000,5320.2439,N,00138.3089,W,1,0,,339.0,M,,M,,*4C
$GPRMC,114359.000,A,5320.2439,N,00138.3089,W,0.000,0.00,271212,,A*6E
$GPGGA,114414.000,5320.2480,N,00138.3209,W,1,0,,339.0,M,,M,,*4A
$GPRMC,114414.000,A,5320.2480,N,00138.3209,W,0.000,0.00,271212,,A*68
$GPGGA,114430.000,5320.2489,N,00138.3350,W,1,0,,339.0,M,,M,,*48
$GPRMC,114430.000,A,5320.2489,N,00138.3350,W,0.000,0.00,271212,,A*6A
$GPGGA,114445.000,5320.2485,N,00138.3555,W,1,0,,338.0,M,,M,,*44
$GPRMC,114445.000,A,5320.2485,N,00138.3555,W,0.000,0.00,271212,,A*67
$GPGGA,114501.000,5320.2473,N,00138.3689,W,1,0,,337.0,M,,M,,*41
$GPRMC,114501.000,A,5320.2473,N,00138.3689,W,0.000,0.00,271212,,A*6D
$GPGGA,114516.000,5320.2432,N,00138.3759,W,1,0,,337.0,M,,M,,*4E
$GPRMC,114516.000,A,5320.2432,N,00138.3759,W,0.000,0.00,271212,,A*62
$GPGGA,114531.000,5320.2405,N,00138.3798,W,1,0,,336.0,M,,M,,*43
$GPRMC,114531.000,A,5320.2405,N,00138.3798,W,0.000,0.00,271212,,A*6E
$GPGGA,114546.000,5320.2309,N,00138.4083,W,1,0,,336.0,M,,M,,*42
$GPRMC,114546.000,A,5320.2309,N,00138.4083,W,0.000,0.00,271212,,A*6F
$GPGGA,114601.000,5320.2288,N,00138.4196,W,1,0,,335.0,M,,M,,*4C
$GPRMC,114601.000,A,5320.2288,N,00138.4196,W,0.000,0.00,271212,,A*62
$GPGGA,114616.000,5320.2256,N,00138.4206,W,1,0,,334.0,M,,M,,*42
$GPRMC,114616.000,A,5320.2256,N,00138.4206,W,0.000,0.00,271212,,A*6D
$GPGGA,114632.000,5320.2164,N,00138.4425,W,1,0,,334.0,M,,M,,*41
$GPRMC,114632.000,A,5320.2164,N,00138.4425,W,0.000,0.00,271212,,A*6E
$GPGGA,114647.000,5320.2201,N,00138.4587,W,1,0,,333.0,M,,M,,*4D
$GPRMC,114647.000,A,5320.2201,N,00138.4587,W,0.000,0.00,271212,,A*65
$GPGGA,114703.000,5320.2002,N,00138.4617,W,1,0,,333.0,M,,M,,*47
$GPRMC,114703.000,A,5320.2002,N,00138.4617,W,0.000,0.00,271212,,A*6F
$GPGGA,114718.000,5320.2105,N,00138.4890,W,1,0,,332.0,M,,M,,*4B
$GPRMC,114718.000,A,5320.2105,N,00138.4890,W,0.000,0.00,271212,,A*62
$GPGGA,114733.000,5320.2025,N,00138.4972,W,1,0,,332.0,M,,M,,*4C
$GPRMC,114733.000,A,5320.2025,N,00138.4972,W,0.000,0.00,271212,,A*65
$GPGGA,114748.000,5320.1949,N,00138.4657,W,1,0,,332.0,M,,M,,*48
$GPRMC,114748.000,A,5320.1949,N,00138.4657,W,0.000,0.00,271212,,A*61
$GPGGA,114803.000,5320.1817,N,00138.4818,W,1,0,,332.0,M,,M,,*47
$GPRMC,114803.000,A,5320.1817,N,00138.4818,W,0.000,0.00,271212,,A*6E
$GPGGA,114819.000,5320.1750,N,00138.5053,W,1,0,,332.0,M,,M,,*46
$GPRMC,114819.000,A,5320.1750,N,00138.5053,W,0.000,0.00,271212,,A*6F
$GPGGA,114836.000,5320.1775,N,00138.4855,W,1,0,,331.0,M,,M,,*40
$GPRMC,114836.000,A,5320.1775,N,00138.4855,W,0.000,0.00,271212,,A*6A
$GPGGA,114851.000,5320.1931,N,00138.4997,W,1,0,,331.0,M,,M,,*40
$GPRMC,114851.000,A,5320.1931,N,00138.4997,W,0.000,0.00,271212,,A*6A
$GPGGA,114906.000,5320.1844,N,00138.5140,W,1,0,,332.0,M,,M,,*40
$GPRMC,114906.000,A,5320.1844,N,00138.5140,W,0.000,0.00,271212,,A*69
$GPGGA,114921.000,5320.1727,N,00138.5199,W,1,0,,331.0,M,,M,,*48
$GPRMC,114921.000,A,5320.1727,N,00138.5199,W,0.000,0.00,271212,,A*62
$GPGGA,114936.000,5320.1688,N,00138.5245,W,1,0,,331.0,M,,M,,*48
$GPRMC,114936.000,A,5320.1688,N,00138.5245,W,0.000,0.00,271212,,A*62
$GPGGA,114951.000,5320.1482,N,00138.5394,W,1,0,,330.0,M,,M,,*4D
$GPRMC,114951.000,A,5320.1482,N,00138.5394,W,0.000,0.00,271212,,A*66
$GPGGA,115006.000,5320.1492,N,00138.5294,W,1,0,,330.0,M,,M,,*47
$GPRMC,115006.000,A,5320.1492,N,00138.5294,W,0.000,0.00,271212,,A*6C
$GPGGA,115021.000,5320.1469,N,00138.5514,W,1,0,,329.0,M,,M,,*41
$GPRMC,115021.000,A,5320.1469,N,00138.5514,W,0.000,0.00,271212,,A*62
$GPGGA,115036.000,5320.1315,N,00138.5486,W,1,0,,329.0,M,,M,,*41
$GPRMC,115036.000,A,5320.1315,N,00138.5486,W,0.000,0.00,271212,,A*62
$GPGGA,115051.000,5320.1212,N,00138.5684,W,1,0,,328.0,M,,M,,*47
$GPRMC,115051.000,A,5320.1212,N,00138.5684,W,0.000,0.00,271212,,A*65
$GPGGA,115107.000,5320.1240,N,00138.5774,W,1,0,,327.0,M,,M,,*43
$GPRMC,115107.000,A,5320.1240,N,00138.5774,W,0.000,0.00,271212,,A*6E
$GPGGA,115122.000,5320.1132,N,00138.6084,W,1,0,,326.0,M,,M,,*48
$GPRMC,115122.000,A,5320.1132,N,00138.6084,W,0.000,0.00,271212,,A*64
$GPGGA,115137.000,5320.1018,N,00138.6226,W,1,0,,326.0,M,,M,,*4F
$GPRMC,115137.000,A,5320.1018,N,00138.6226,W,0.000,0.00,271212,,A*63
$GPGGA,115153.000,5320.0931,N,00138.6443,W,1,0,,326.0,M,,M,,*4B
$GPRMC,115153.000,A,5320.0931,N,00138.6443,W,0.000,0.00,271212,,A*67
$GPGGA,115209.000,5320.0990,N,00138.6521,W,1,0,,325.0,M,,M,,*4A
$GPRMC,115209.000,A,5320.0990,N,00138.6521,W,0.000,0.00,271212,,A*65
$GPGGA,115224.000,5320.0942,N,00138.6600,W,1,0,,325.0,M,,M,,*4A
$GPRMC,115224.000,A,5320.0942,N,00138.6600,W,0.000,0.00,271212,,A*65
$GPGGA,115239.000,5320.0912,N,00138.6728,W,1,0,,325.0,M,,M,,*48
$GPRMC,115239.000,A,5320.0912,N,00138.6728,W,0.000,0.00,271212,,A*67
$GPGGA,115255.000,5320.0787,N,00138.7100,W,1,0,,325.0,M,,M,,*4D
$GPRMC,115255.000,A,5320.0787,N,00138.7100,W,0.000,0.00,271212,,A*62
$GPGGA,115310.000,5320.0787,N,00138.7146,W,1,0,,324.0,M,,M,,*4E
$GPRMC,115310.000,A,5320.0787,N,00138.7146,W,0.000,0.00,271212,,A*60
$GPGGA,115325.000,5320.0517,N,00138.7206,W,1,0,,324.0,M,,M,,*44
$GPRMC,115325.000,A,5320.0517,N,00138.7206,W,0.000,0.00,271212,,A*6A
$GPGGA,115340.000,5320.0409,N,00138.7250,W,1,0,,324.0,M,,M,,*4A
$GPRMC,115340.000,A,5320.0409,N,00138.7250,W,0.000,0.00,271212,,A*64
$GPGGA,115356.000,5320.0260,N,00138.7649,W,1,0,,324.0,M,,M,,*48
$GPRMC,115356.000,A,5320.0260,N,00138.7649,W,0.000,0.00,271212,,A*66
$GPGGA,115411.000,5320.0267,N,00138.7695,W,1,0,,324.0,M,,M,,*4A
$GPRMC,115411.000,A,5320.0267,N,00138.7695,W,0.000,0.00,271212,,A*64
$GPGGA,115426.000,5320.0214,N,00138.7864,W,1,0,,324.0,M,,M,,*4A
$GPRMC,115426.000,A,5320.0214,N,00138.7864,W,0.000,0.00,271212,,A*64
$GPGGA,115441.000,5320.0169,N,00138.8011,W,1,0,,324.0,M,,M,,*47
$GPRMC,115441.000,A,5320.0169,N,00138.8011,W,0.000,0.00,271212,,A*69
$GPGGA,115458.000,5319.9926,N,00138.8351,W,1,0,,324.0,M,,M,,*48
$GPRMC,115458.000,A,5319.9926,N,00138.8351,W,0.000,0.00,271212,,A*66
$GPGGA,115513.000,5319.9866,N,00138.8447,W,1,0,,324.0,M,,M,,*43
$GPRMC,115513.000,A,5319.9866,N,00138.8447,W,0.000,0.00,271212,,A*6D
$GPGGA,115529.000,5319.9798,N,00138.8756,W,1,0,,324.0,M,,M,,*47
$GPRMC,115529.000,A,5319.9798,N,00138.8756,W,0.000,0.00,271212,,A*69
$GPGGA,115545.000,5319.9743,N,00138.8965,W,1,0,,324.0,M,,M,,*45
$GPRMC,115545.000,A,5319.9743,N,00138.8965,W,0.000,0.00,271212,,A*6B
$GPGGA,115601.000,5319.9702,N,00138.9042,W,1,0,,323.0,M,,M,,*49
$GPRMC,115601.000,A,5319.9702,N,00138.9042,W,0.000,0.00,271212,,A*60
$GPGGA,115616.000,5319.9592,N,00138.8965,W,1,0,,323.0,M,,M,,*49
$GPRMC,115616.000,A,5319.9592,N,00138.8965,W,0.000,0.00,271212,,A*60
$GPGGA,115631.000,5319.9464,N,00138.9158,W,1,0,,323.0,M,,M,,*43
$GPRMC,115631.000,A,5319.9464,N,00138.9158,W,0.000,0.00,271212,,A*6A
$GPGGA,115647.000,5319.9681,N,00138.9137,W,1,0,,323.0,M,,M,,*42
$GPRMC,115647.000,A,5319.9681,N,00138.9137,W,0.000,0.00,271212,,A*6B
$GPGGA,115702.000,5319.9544,N,00138.9199,W,1,0,,323.0,M,,M,,*4C
$GPRMC,115702.000,A,5319.9544,N,00138.9199,W,0.000,0.00,271212,,A*65
$GPGGA,115717.000,5319.9466,N,00138.9280,W,1,0,,323.0,M,,M,,*42
$GPRMC,115717.000,A,5319.9466,N,00138.9280,W,0.000,0.00,271212,,A*6B
$GPGGA,115732.000,5319.9368,N,00138.9376,W,1,0,,323.0,M,,M,,*44
$GPRMC,115732.000,A,5319.9368,N,00138.9376,W,0.000,0.00,271212,,A*6D
$GPGGA,115747.000,5319.9006,N,00138.9316,W,1,0,,323.0,M,,M,,*4B
$GPRMC,115747.000,A,5319.9006,N,00138.9316,W,0.000,0.00,271212,,A*62
$GPGGA,115803.000,5319.8976,N,00138.9425,W,1,0,,323.0,M,,M,,*4C
$GPRMC,115803.000,A,5319.8976,N,00138.9425,W,0.000,0.00,271212,,A*65
$GPGGA,115818.000,5319.9015,N,00138.9532,W,1,0,,322.0,M,,M,,*4D
$GPRMC,115818.000,A,5319.9015,N,00138.9532,W,0.000,0.00,271212,,A*65
$GPGGA,115834.000,5319.9118,N,00138.9668,W,1,0,,322.0,M,,M,,*43
$GPRMC,115834.000,A,5319.9118,N,00138.9668,W,0.000,0.00,271212,,A*6B
$GPGGA,115849.000,5319.9214,N,00138.9732,W,1,0,,322.0,M,,M,,*48
$GPRMC,115849.000,A,5319.9214,N,00138.9732,W,0.000,0.00,271212,,A*60
$GPGGA,115904.000,5319.9136,N,00138.9899,W,1,0,,322.0,M,,M,,*4D
$GPRMC,115904.000,A,5319.9136,N,00138.9899,W,0.000,0.00,271212,,A*65
$GPGGA,115919.000,5319.9129,N,00138.9911,W,1,0,,322.0,M,,M,,*4E
$GPRMC,115919.000,A,5319.9129,N,00138.9911,W,0.000,0.00,271212,,A*66
$GPGGA,115934.000,5319.9061,N,00139.0084,W,1,0,,322.0,M,,M,,*41
$GPRMC,115934.000,A,5319.9061,N,00139.0084,W,0.000,0.00,271212,,A*69
$GPGGA,115949.000,5319.9020,N,00139.0240,W,1,0,,322.0,M,,M,,*44
$GPRMC,115949.000,A,5319.9020,N,00139.0240,W,0.000,0.00,271212,,A*6C
$GPGGA,120004.000,5319.8898,N,00139.0393,W,1,0,,322.0,M,,M,,*47
$GPRMC,120004.000,A,5319.8898,N,00139.0393,W,0.000,0.00,271212,,A*6F
$GPGGA,120019.000,5319.8864,N,00139.0537,W,1,0,,321.0,M,,M,,*43
$GPRMC,120019.000,A,5319.8864,N,00139.0537,W,0.000,0.00,271212,,A*68
$GPGGA,120034.000,5319.8816,N,00139.0686,W,1,0,,321.0,M,,M,,*40
$GPRMC,120034.000,A,5319.8816,N,00139.0686,W,0.000,0.00,271212,,A*6B
$GPGGA,120050.000,5319.8839,N,00139.0855,W,1,0,,321.0,M,,M,,*4F
$GPRMC,120050.000,A,5319.8839,N,00139.0855,W,0.000,0.00,271212,,A*64
$GPGGA,120105.000,5319.8823,N,00139.0921,W,1,0,,321.0,M,,M,,*47
$GPRMC,120105.000,A,5319.8823,N,00139.0921,W,0.000,0.00,271212,,A*6C
$GPGGA,120124.000,5319.8978,N,00139.1244,W,1,0,,321.0,M,,M,,*42
$GPRMC,120124.000,A,5319.8978,N,00139.1244,W,0.000,0.00,271212,,A*69
$GPGGA,120139.000,5319.8981,N,00139.1340,W,1,0,,321.0,M,,M,,*4D
$GPRMC,120139.000,A,5319.8981,N,00139.1340,W,0.000,0.00,271212,,A*66
$GPGGA,120154.000,5319.9368,N,00139.2255,W,1,0,,321.0,M,,M,,*4C
$GPRMC,120154.000,A,5319.9368,N,00139.2255,W,0.000,0.00,271212,,A*67
$GPGGA,120209.000,5319.9384,N,00139.2502,W,1,0,,321.0,M,,M,,*40
$GPRMC,120209.000,A,5319.9384,N,00139.2502,W,0.000,0.00,271212,,A*6B
$GPGGA,120225.000,5319.9313,N,00139.2625,W,1,0,,321.0,M,,M,,*46
$GPRMC,120225.000,A,5319.9313,N,00139.2625,W,0.000,0.00,271212,,A*6D
$GPGGA,120240.000,5319.9242,N,00139.2588,W,1,0,,321.0,M,,M,,*44
$GPRMC,120240.000,A,5319.9242,N,00139.2588,W,0.000,0.00,271212,,A*6F
$GPGGA,120306.000,5319.9178,N,00139.2639,W,1,0,,320.0,M,,M,,*45
$GPRMC,120306.000,A,5319.9178,N,00139.2639,W,0.000,0.00,271212,,A*6F
$GPGGA,120323.000,5319.9097,N,00139.2469,W,1,0,,320.0,M,,M,,*45
$GPRMC,120323.000,A,5319.9097,N,00139.2469,W,0.000,0.00,271212,,A*6F
$GPGGA,120338.000,5319.9070,N,00139.2493,W,1,0,,320.0,M,,M,,*43
$GPRMC,120338.000,A,5319.9070,N,00139.2493,W,0.000,0.00,271212,,A*69
$GPGGA,120354.000,5319.8699,N,00139.2357,W,1,0,,320.0,M,,M,,*46
$GPRMC,120354.000,A,5319.8699,N,00139.2357,W,0.000,0.00,271212,,A*6C
$GPGGA,120409.000,5319.8642,N,00139.2290,W,1,0,,319.0,M,,M,,*4F
$GPRMC,120409.000,A,5319.8642,N,00139.2290,W,0.000,0.00,271212,,A*6F
$GPGGA,120430.000,5319.8299,N,00139.2030,W,1,0,,319.0,M,,M,,*4F
$GPRMC,120430.000,A,5319.8299,N,00139.2030,W,0.000,0.00,271212,,A*6F
$GPGGA,120445.000,5319.8196,N,00139.2074,W,1,0,,319.0,M,,M,,*41
$GPRMC,120445.000,A,5319.8196,N,00139.2074,W,0.000,0.00,271212,,A*61
$GPGGA,120500.000,5319.7987,N,00139.2000,W,1,0,,319.0,M,,M,,*45
$GPRMC,120500.000,A,5319.7987,N,00139.2000,W,0.000,0.00,271212,,A*65
$GPGGA,120515.000,5319.7971,N,00139.2066,W,1,0,,319.0,M,,M,,*48
$GPRMC,120515.000,A,5319.7971,N,00139.2066,W,0.000,0.00,271212,,A*68
$GPGGA,120530.000,5319.7953,N,00139.2198,W,1,0,,319.0,M,,M,,*4F
$GPRMC,120530.000,A,5319.7953,N,00139.2198,W,0.000,0.00,271212,,A*6F
$GPGGA,120551.000,5319.7932,N,00139.2124,W,1,0,,319.0,M,,M,,*48
$GPRMC,120551.000,A,5319.7932,N,00139.2124,W,0.000,0.00,271212,,A*68
$GPGGA,120606.000,5319.7907,N,00139.2073,W,1,0,,319.0,M,,M,,*4C
$GPRMC,120606.000,A,5319.7907,N,00139.2073,W,0.000,0.00,271212,,A*6C
$GPGGA,120636.000,5319.7976,N,00139.1948,W,1,0,,318.0,M,,M,,*4A
$GPRMC,120636.000,A,5319.7976,N,00139.1948,W,0.000,0.00,271212,,A*6B
$GPGGA,120653.000,5319.7905,N,00139.2122,W,1,0,,319.0,M,,M,,*4B
$GPRMC,120653.000,A,5319.7905,N,00139.2122,W,0.000,0.00,271212,,A*6B
$GPGGA,120708.000,5319.7891,N,00139.2122,W,1,0,,318.0,M,,M,,*49
$GPRMC,120708.000,A,5319.7891,N,00139.2122,W,0.000,0.00,271212,,A*68
$GPGGA,120727.000,5319.7841,N,00139.2141,W,1,0,,318.0,M,,M,,*4C
$GPRMC,120727.000,A,5319.7841,N,00139.2141,W,0.000,0.00,271212,,A*6D
$GPGGA,120800.000,5319.7401,N,00139.2481,W,1,0,,318.0,M,,M,,*47
$GPRMC,120800.000,A,5319.7401,N,00139.2481,W,0.000,0.00,271212,,A*66
$GPGGA,120816.000,5319.7411,N,00139.2470,W,1,0,,318.0,M,,M,,*4F
$GPRMC,120816.000,A,5319.7411,N,00139.2470,W,0.000,0.00,271212,,A*6E
$GPGGA,120831.000,5319.7491,N,00139.2328,W,1,0,,318.0,M,,M,,*48
$GPRMC,120831.000,A,5319.7491,N,00139.2328,W,0.000,0.00,271212,,A*69
$GPGGA,120846.000,5319.7536,N,00139.2328,W,1,0,,318.0,M,,M,,*44
$GPRMC,120846.000,A,5319.7536,N,00139.2328,W,0.000,0.00,271212,,A*65
$GPGGA,120901.000,5319.7621,N,00139.2332,W,1,0,,318.0,M,,M,,*48
$GPRMC,120901.000,A,5319.7621,N,00139.2332,W,0.000,0.00,271212,,A*69
$GPGGA,120916.000,5319.7706,N,00139.2400,W,1,0,,318.0,M,,M,,*4C
$GPRMC,120916.000,A,5319.7706,N,00139.2400,W,0.000,0.00,271212,,A*6D
$GPGGA,120931.000,5319.7564,N,00139.2400,W,1,0,,318.0,M,,M,,*4F
$GPRMC,120931.000,A,5319.7564,N,00139.2400,W,0.000,0.00,271212,,A*6E
$GPGGA,124512.000,5319.8422,N,00139.2229,W,1,0,,134.0,M,,M,,*4B
$GPRMC,124512.000,A,5319.8422,N,00139.2229,W,0.000,0.00,271212,,A*66
$GPGGA,124527.000,5319.8390,N,00139.2219,W,1,0,,147.0,M,,M,,*44
$GPRMC,124527.000,A,5319.8390,N,00139.2219,W,0.000,0.00,271212,,A*6D
$GPGGA,124542.000,5319.8395,N,00139.2213,W,1,0,,146.0,M,,M,,*49
$GPRMC,124542.000,A,5319.8395,N,00139.2213,W,0.000,0.00,271212,,A*61
$GPGGA,124558.000,5319.8386,N,00139.2177,W,1,0,,146.0,M,,M,,*41
$GPRMC,124558.000,A,5319.8386,N,00139.2177,W,0.000,0.00,271212,,A*69
$GPGGA,124614.000,5319.8381,N,00139.2195,W,1,0,,146.0,M,,M,,*41
$GPRMC,124614.000,A,5319.8381,N,00139.2195,W,0.000,0.00,271212,,A*69
$GPGGA,124629.000,5319.8399,N,00139.2205,W,1,0,,146.0,M,,M,,*4C
$GPRMC,124629.000,A,5319.8399,N,00139.2205,W,0.000,0.00,271212,,A*64
$GPGGA,124644.000,5319.8409,N,00139.2172,W,1,0,,146.0,M,,M,,*4A
$GPRMC,124644.000,A,5319.8409,N,00139.2172,W,0.000,0.00,271212,,A*62
$GPGGA,124700.000,5319.8404,N,00139.2183,W,1,0,,146.0,M,,M,,*48
$GPRMC,124700.000,A,5319.8404,N,00139.2183,W,0.000,0.00,271212,,A*60
$GPGGA,124715.000,5319.8409,N,00139.2180,W,1,0,,146.0,M,,M,,*42
$GPRMC,124715.000,A,5319.8409,N,00139.2180,W,0.000,0.00,271212,,A*6A
$GPGGA,124730.000,5319.8402,N,00139.2157,W,1,0,,146.0,M,,M,,*44
$GPRMC,124730.000,A,5319.8402,N,00139.2157,W,0.000,0.00,271212,,A*6C
$GPGGA,124745.000,5319.8411,N,00139.2186,W,1,0,,146.0,M,,M,,*48
$GPRMC,124745.000,A,5319.8411,N,00139.2186,W,0.000,0.00,271212,,A*60
$GPGGA,124801.000,5319.8409,N,00139.2231,W,1,0,,146.0,M,,M,,*41
$GPRMC,124801.000,A,5319.8409,N,00139.2231,W,0.000,0.00,271212,,A*69
$GPGGA,124816.000,5319.8418,N,00139.2233,W,1,0,,146.0,M,,M,,*45
$GPRMC,124816.000,A,5319.8418,N,00139.2233,W,0.000,0.00,271212,,A*6D
$GPGGA,124831.000,5319.8383,N,00139.2209,W,1,0,,146.0,M,,M,,*4C
$GPRMC,124831.000,A,5319.8383,N,00139.2209,W,0.000,0.00,271212,,A*64
$GPGGA,124846.000,5319.8397,N,00139.2227,W,1,0,,146.0,M,,M,,*45
$GPRMC,124846.000,A,5319.8397,N,00139.2227,W,0.000,0.00,271212,,A*6D
$GPGGA,124902.000,5319.8399,N,00139.2280,W,1,0,,146.0,M,,M,,*47
$GPRMC,124902.000,A,5319.8399,N,00139.2280,W,0.000,0.00,271212,,A*6F
$GPGGA,124917.000,5319.8413,N,00139.2281,W,1,0,,146.0,M,,M,,*47
$GPRMC,124917.000,A,5319.8413,N,00139.2281,W,0.000,0.00,271212,,A*6F
$GPGGA,124933.000,5319.8404,N,00139.2244,W,1,0,,146.0,M,,M,,*4E
$GPRMC,124933.000,A,5319.8404,N,00139.2244,W,0.000,0.00,271212,,A*66
$GPGGA,124948.000,5319.8383,N,00139.2177,W,1,0,,146.0,M,,M,,*49
$GPRMC,124948.000,A,5319.8383,N,00139.2177,W,0.000,0.00,271212,,A*61
$GPGGA,125004.000,5319.8381,N,00139.2127,W,1,0,,145.0,M,,M,,*4D
$GPRMC,125004.000,A,5319.8381,N,00139.2127,W,0.000,0.00,271212,,A*66
$GPGGA,125037.000,5319.8388,N,00139.2221,W,1,0,,146.0,M,,M,,*42
$GPRMC,125037.000,A,5319.8388,N,00139.2221,W,0.000,0.00,271212,,A*6A
$GPGGA,125053.000,5319.8388,N,00139.2218,W,1,0,,146.0,M,,M,,*4A
$GPRMC,125053.000,A,5319.8388,N,00139.2218,W,0.000,0.00,271212,,A*62
$GPGGA,125108.000,5319.8379,N,00139.2211,W,1,0,,146.0,M,,M,,*42
$GPRMC,125108.000,A,5319.8379,N,00139.2211,W,0.000,0.00,271212,,A*6A
$GPGGA,125123.000,5319.8367,N,00139.2233,W,1,0,,146.0,M,,M,,*44
$GPRMC,125123.000,A,5319.8367,N,00139.2233,W,0.000,0.00,271212,,A*6C
$GPGGA,125141.000,5319.8422,N,00139.2106,W,1,0,,146.0,M,,M,,*43
$GPRMC,125141.000,A,5319.8422,N,00139.2106,W,0.000,0.00,271212,,A*6B
$GPGGA,125209.000,5319.8452,N,00139.2120,W,1,0,,146.0,M,,M,,*4F
