@Sonygps/ver3.0/wgs-84/
$GPGGA,103533.000,5321.8999,N,00148.9020,W,1,0,,261.0,M,,M,,*4E
$GPRMC,103533.000,A,5321.8999,N,00148.9020,W,0.000,0.00,140812,,A*6B
$GPGGA,103548.000,5321.8976,N,00148.8985,W,1,0,,254.0,M,,M,,*42
$GPRMC,103548.000,A,5321.8976,N,00148.8985,W,0.000,0.00,140812,,A*61
$GPGGA,103608.000,5321.8951,N,00148.8999,W,1,0,,252.0,M,,M,,*4B
$GPRMC,103608.000,A,5321.8951,N,00148.8999,W,0.000,0.00,140812,,A*6E
$GPGGA,103623.000,5321.8951,N,00148.8988,W,1,0,,252.0,M,,M,,*42
$GPRMC,103623.000,A,5321.8951,N,00148.8988,W,0.000,0.00,140812,,A*67
$GPGGA,103640.000,5321.8944,N,00148.8922,W,1,0,,252.0,M,,M,,*43
$GPRMC,103640.000,A,5321.8944,N,00148.8922,W,0.000,0.00,140812,,A*66
$GPGGA,103655.000,5321.8939,N,00148.8953,W,1,0,,252.0,M,,M,,*4B
$GPRMC,103655.000,A,5321.8939,N,00148.8953,W,0.000,0.00,140812,,A*6E
$GPGGA,103710.000,5321.8928,N,00148.8985,W,1,0,,252.0,M,,M,,*40
$GPRMC,103710.000,A,5321.8928,N,00148.8985,W,0.000,0.00,140812,,A*65
$GPGGA,103725.000,5321.8887,N,00148.9001,W,1,0,,253.0,M,,M,,*47
$GPRMC,103725.000,A,5321.8887,N,00148.9001,W,0.000,0.00,140812,,A*63
$GPGGA,103740.000,5321.8861,N,00148.8977,W,1,0,,252.0,M,,M,,*44
$GPRMC,103740.000,A,5321.8861,N,00148.8977,W,0.000,0.00,140812,,A*61
$GPGGA,103756.000,5321.8893,N,00148.8990,W,1,0,,252.0,M,,M,,*47
$GPRMC,103756.000,A,5321.8893,N,00148.8990,W,0.000,0.00,140812,,A*62
$GPGGA,103812.000,5321.8884,N,00148.9027,W,1,0,,252.0,M,,M,,*4A
$GPRMC,103812.000,A,5321.8884,N,00148.9027,W,0.000,0.00,140812,,A*6F
$GPGGA,103828.000,5321.8969,N,00148.8911,W,1,0,,252.0,M,,M,,*4C
$GPRMC,103828.000,A,5321.8969,N,00148.8911,W,0.000,0.00,140812,,A*69
$GPGGA,103843.000,5321.8960,N,00148.8867,W,1,0,,252.0,M,,M,,*48
$GPRMC,103843.000,A,5321.8960,N,00148.8867,W,0.000,0.00,140812,,A*6D
$GPGGA,103858.000,5321.8958,N,00148.8883,W,1,0,,252.0,M,,M,,*43
$GPRMC,103858.000,A,5321.8958,N,00148.8883,W,0.000,0.00,140812,,A*66
$GPGGA,103913.000,5321.8935,N,00148.8934,W,1,0,,252.0,M,,M,,*4B
$GPRMC,103913.000,A,5321.8935,N,00148.8934,W,0.000,0.00,140812,,A*6E
$GPGGA,103929.000,5321.8900,N,00148.8958,W,1,0,,252.0,M,,M,,*4E
$GPRMC,103929.000,A,5321.8900,N,00148.8958,W,0.000,0.00,140812,,A*6B
$GPGGA,103944.000,5321.8887,N,00148.8985,W,1,0,,251.0,M,,M,,*48
$GPRMC,103944.000,A,5321.8887,N,00148.8985,W,0.000,0.00,140812,,A*6E
$GPGGA,103959.000,5321.8889,N,00148.8997,W,1,0,,251.0,M,,M,,*49
$GPRMC,103959.000,A,5321.8889,N,00148.8997,W,0.000,0.00,140812,,A*6F
$GPGGA,104014.000,5321.8850,N,00148.9047,W,1,0,,251.0,M,,M,,*4F
$GPRMC,104014.000,A,5321.8850,N,00148.9047,W,0.000,0.00,140812,,A*69
$GPGGA,104030.000,5321.8818,N,00148.9161,W,1,0,,251.0,M,,M,,*40
$GPRMC,104030.000,A,5321.8818,N,00148.9161,W,0.000,0.00,140812,,A*66
$GPGGA,104045.000,5321.8816,N,00148.9233,W,1,0,,251.0,M,,M,,*48
$GPRMC,104045.000,A,5321.8816,N,00148.9233,W,0.000,0.00,140812,,A*6E
$GPGGA,104100.000,5321.8841,N,00148.9338,W,1,0,,251.0,M,,M,,*40
$GPRMC,104100.000,A,5321.8841,N,00148.9338,W,0.000,0.00,140812,,A*66
$GPGGA,104115.000,5321.8836,N,00148.9387,W,1,0,,251.0,M,,M,,*40
$GPRMC,104115.000,A,5321.8836,N,00148.9387,W,0.000,0.00,140812,,A*66
$GPGGA,104140.000,5321.8832,N,00148.9335,W,1,0,,250.0,M,,M,,*4C
$GPRMC,104140.000,A,5321.8832,N,00148.9335,W,0.000,0.00,140812,,A*6B
$GPGGA,104209.000,5321.8761,N,00148.9338,W,1,0,,250.0,M,,M,,*46
$GPRMC,104209.000,A,5321.8761,N,00148.9338,W,0.000,0.00,140812,,A*61
$GPGGA,104225.000,5321.8930,N,00148.9561,W,1,0,,250.0,M,,M,,*48
$GPRMC,104225.000,A,5321.8930,N,00148.9561,W,0.000,0.00,140812,,A*6F
$GPGGA,104240.000,5321.8958,N,00148.9640,W,1,0,,250.0,M,,M,,*45
$GPRMC,104240.000,A,5321.8958,N,00148.9640,W,0.000,0.00,140812,,A*62
$GPGGA,104258.000,5321.8994,N,00148.9707,W,1,0,,250.0,M,,M,,*4E
$GPRMC,104258.000,A,5321.8994,N,00148.9707,W,0.000,0.00,140812,,A*69
$GPGGA,104316.000,5321.9051,N,00148.9722,W,1,0,,250.0,M,,M,,*43
$GPRMC,104316.000,A,5321.9051,N,00148.9722,W,0.000,0.00,140812,,A*64
$GPGGA,104333.000,5321.9015,N,00149.0175,W,1,0,,250.0,M,,M,,*48
$GPRMC,104333.000,A,5321.9015,N,00149.0175,W,0.000,0.00,140812,,A*6F
$GPGGA,104401.000,5321.8990,N,00149.0224,W,1,0,,250.0,M,,M,,*4C
$GPRMC,104401.000,A,5321.8990,N,00149.0224,W,0.000,0.00,140812,,A*6B
$GPGGA,104416.000,5321.8974,N,00149.0268,W,1,0,,250.0,M,,M,,*48
$GPRMC,104416.000,A,5321.8974,N,00149.0268,W,0.000,0.00,140812,,A*6F
$GPGGA,104432.000,5321.8962,N,00149.0286,W,1,0,,250.0,M,,M,,*49
$GPRMC,104432.000,A,5321.8962,N,00149.0286,W,0.000,0.00,140812,,A*6E
$GPGGA,104450.000,5321.8967,N,00149.0389,W,1,0,,250.0,M,,M,,*46
$GPRMC,104450.000,A,5321.8967,N,00149.0389,W,0.000,0.00,140812,,A*61
$GPGGA,104505.000,5321.8946,N,00149.0370,W,1,0,,250.0,M,,M,,*42
$GPRMC,104505.000,A,5321.8946,N,00149.0370,W,0.000,0.00,140812,,A*65
$GPGGA,104520.000,5321.8868,N,00149.0486,W,1,0,,249.0,M,,M,,*4E
$GPRMC,104520.000,A,5321.8868,N,00149.0486,W,0.000,0.00,140812,,A*61
$GPGGA,104535.000,5321.8887,N,00149.0465,W,1,0,,250.0,M,,M,,*4E
$GPRMC,104535.000,A,5321.8887,N,00149.0465,W,0.000,0.00,140812,,A*69
$GPGGA,104550.000,5321.8932,N,00149.0422,W,1,0,,250.0,M,,M,,*41
$GPRMC,104550.000,A,5321.8932,N,00149.0422,W,0.000,0.00,140812,,A*66
$GPGGA,104605.000,5321.8953,N,00149.0364,W,1,0,,249.0,M,,M,,*48
$GPRMC,104605.000,A,5321.8953,N,00149.0364,W,0.000,0.00,140812,,A*67
$GPGGA,104620.000,5321.8962,N,00149.0407,W,1,0,,250.0,M,,M,,*47
$GPRMC,104620.000,A,5321.8962,N,00149.0407,W,0.000,0.00,140812,,A*60
$GPGGA,104636.000,5321.8939,N,00149.0430,W,1,0,,249.0,M,,M,,*42
$GPRMC,104636.000,A,5321.8939,N,00149.0430,W,0.000,0.00,140812,,A*6D
$GPGGA,104653.000,5321.8941,N,00149.0424,W,1,0,,249.0,M,,M,,*4B
$GPRMC,104653.000,A,5321.8941,N,00149.0424,W,0.000,0.00,140812,,A*64
$GPGGA,104725.000,5321.8969,N,00149.0180,W,1,0,,249.0,M,,M,,*4A
$GPRMC,104725.000,A,5321.8969,N,00149.0180,W,0.000,0.00,140812,,A*65
$GPGGA,104740.000,5321.9157,N,00148.9915,W,1,0,,249.0,M,,M,,*41
$GPRMC,104740.000,A,5321.9157,N,00148.9915,W,0.000,0.00,140812,,A*6E
$GPGGA,104756.000,5321.9081,N,00148.9761,W,1,0,,249.0,M,,M,,*41
$GPRMC,104756.000,A,5321.9081,N,00148.9761,W,0.000,0.00,140812,,A*6E
$GPGGA,104812.000,5321.9033,N,00148.9591,W,1,0,,249.0,M,,M,,*4A
$GPRMC,104812.000,A,5321.9033,N,00148.9591,W,0.000,0.00,140812,,A*65
$GPGGA,104828.000,5321.8916,N,00148.9583,W,1,0,,249.0,M,,M,,*4F
$GPRMC,104828.000,A,5321.8916,N,00148.9583,W,0.000,0.00,140812,,A*60
$GPGGA,104843.000,5321.8797,N,00148.9514,W,1,0,,249.0,M,,M,,*4B
$GPRMC,104843.000,A,5321.8797,N,00148.9514,W,0.000,0.00,140812,,A*64
$GPGGA,104858.000,5321.8768,N,00148.9367,W,1,0,,249.0,M,,M,,*43
$GPRMC,104858.000,A,5321.8768,N,00148.9367,W,0.000,0.00,140812,,A*6C
$GPGGA,104913.000,5321.8790,N,00148.9313,W,1,0,,249.0,M,,M,,*49
$GPRMC,104913.000,A,5321.8790,N,00148.9313,W,0.000,0.00,140812,,A*66
$GPGGA,104929.000,5321.8795,N,00148.9244,W,1,0,,249.0,M,,M,,*46
$GPRMC,104929.000,A,5321.8795,N,00148.9244,W,0.000,0.00,140812,,A*69
$GPGGA,104944.000,5321.8861,N,00148.9052,W,1,0,,249.0,M,,M,,*4C
$GPRMC,104944.000,A,5321.8861,N,00148.9052,W,0.000,0.00,140812,,A*63
$GPGGA,104959.000,5321.8861,N,00148.9036,W,1,0,,249.0,M,,M,,*42
$GPRMC,104959.000,A,5321.8861,N,00148.9036,W,0.000,0.00,140812,,A*6D
$GPGGA,105014.000,5321.8912,N,00148.8958,W,1,0,,249.0,M,,M,,*46
$GPRMC,105014.000,A,5321.8912,N,00148.8958,W,0.000,0.00,140812,,A*69
$GPGGA,105030.000,5321.8900,N,00148.8912,W,1,0,,249.0,M,,M,,*4D
$GPRMC,105030.000,A,5321.8900,N,00148.8912,W,0.000,0.00,140812,,A*62
$GPGGA,105045.000,5321.8912,N,00148.8903,W,1,0,,249.0,M,,M,,*4C
$GPRMC,105045.000,A,5321.8912,N,00148.8903,W,0.000,0.00,140812,,A*63
$GPGGA,105100.000,5321.8923,N,00148.8935,W,1,0,,249.0,M,,M,,*4B
$GPRMC,105100.000,A,5321.8923,N,00148.8935,W,0.000,0.00,140812,,A*64
$GPGGA,105116.000,5321.8937,N,00148.8952,W,1,0,,249.0,M,,M,,*48
$GPRMC,105116.000,A,5321.8937,N,00148.8952,W,0.000,0.00,140812,,A*67
$GPGGA,105131.000,5321.8900,N,00148.8976,W,1,0,,249.0,M,,M,,*4F
$GPRMC,105131.000,A,5321.8900,N,00148.8976,W,0.000,0.00,140812,,A*60
$GPGGA,105147.000,5321.8845,N,00148.8986,W,1,0,,249.0,M,,M,,*41
$GPRMC,105147.000,A,5321.8845,N,00148.8986,W,0.000,0.00,140812,,A*6E
$GPGGA,105202.000,5321.8713,N,00148.8895,W,1,0,,249.0,M,,M,,*4C
$GPRMC,105202.000,A,5321.8713,N,00148.8895,W,0.000,0.00,140812,,A*63
$GPGGA,105219.000,5321.8653,N,00148.8999,W,1,0,,249.0,M,,M,,*4E
$GPRMC,105219.000,A,5321.8653,N,00148.8999,W,0.000,0.00,140812,,A*61
$GPGGA,105234.000,5321.8571,N,00148.9078,W,1,0,,249.0,M,,M,,*45
$GPRMC,105234.000,A,5321.8571,N,00148.9078,W,0.000,0.00,140812,,A*6A
$GPGGA,105250.000,5321.8527,N,00148.9185,W,1,0,,249.0,M,,M,,*47
$GPRMC,105250.000,A,5321.8527,N,00148.9185,W,0.000,0.00,140812,,A*68
$GPGGA,105306.000,5321.8424,N,00148.9326,W,1,0,,249.0,M,,M,,*4C
$GPRMC,105306.000,A,5321.8424,N,00148.9326,W,0.000,0.00,140812,,A*63
$GPGGA,105322.000,5321.8365,N,00148.9435,W,1,0,,249.0,M,,M,,*4D
$GPRMC,105322.000,A,5321.8365,N,00148.9435,W,0.000,0.00,140812,,A*62
$GPGGA,105350.000,5321.8195,N,00148.9605,W,1,0,,249.0,M,,M,,*44
$GPRMC,105350.000,A,5321.8195,N,00148.9605,W,0.000,0.00,140812,,A*6B
$GPGGA,105405.000,5321.8033,N,00148.9739,W,1,0,,249.0,M,,M,,*40
$GPRMC,105405.000,A,5321.8033,N,00148.9739,W,0.000,0.00,140812,,A*6F
$GPGGA,105420.000,5321.8001,N,00148.9729,W,1,0,,249.0,M,,M,,*47
$GPRMC,105420.000,A,5321.8001,N,00148.9729,W,0.000,0.00,140812,,A*68
$GPGGA,105436.000,5321.7884,N,00148.9636,W,1,0,,249.0,M,,M,,*45
$GPRMC,105436.000,A,5321.7884,N,00148.9636,W,0.000,0.00,140812,,A*6A
$GPGGA,105451.000,5321.7795,N,00148.9464,W,1,0,,249.0,M,,M,,*4E
$GPRMC,105451.000,A,5321.7795,N,00148.9464,W,0.000,0.00,140812,,A*61
$GPGGA,105506.000,5321.7708,N,00148.9346,W,1,0,,249.0,M,,M,,*4E
$GPRMC,105506.000,A,5321.7708,N,00148.9346,W,0.000,0.00,140812,,A*61
$GPGGA,105521.000,5321.7575,N,00148.9294,W,1,0,,249.0,M,,M,,*4D
$GPRMC,105521.000,A,5321.7575,N,00148.9294,W,0.000,0.00,140812,,A*62
$GPGGA,105536.000,5321.7465,N,00148.9256,W,1,0,,248.0,M,,M,,*44
$GPRMC,105536.000,A,5321.7465,N,00148.9256,W,0.000,0.00,140812,,A*6A
$GPGGA,105551.000,5321.7399,N,00148.9220,W,1,0,,248.0,M,,M,,*40
$GPRMC,105551.000,A,5321.7399,N,00148.9220,W,0.000,0.00,140812,,A*6E
$GPGGA,105606.000,5321.7284,N,00148.9231,W,1,0,,249.0,M,,M,,*4D
$GPRMC,105606.000,A,5321.7284,N,00148.9231,W,0.000,0.00,140812,,A*62
$GPGGA,105622.000,5321.7184,N,00148.9211,W,1,0,,249.0,M,,M,,*4A
$GPRMC,105622.000,A,5321.7184,N,00148.9211,W,0.000,0.00,140812,,A*65
$GPGGA,105637.000,5321.7062,N,00148.9196,W,1,0,,248.0,M,,M,,*4A
$GPRMC,105637.000,A,5321.7062,N,00148.9196,W,0.000,0.00,140812,,A*64
$GPGGA,105652.000,5321.6950,N,00148.9171,W,1,0,,248.0,M,,M,,*49
$GPRMC,105652.000,A,5321.6950,N,00148.9171,W,0.000,0.00,140812,,A*67
$GPGGA,105709.000,5321.6765,N,00148.9098,W,1,0,,248.0,M,,M,,*48
$GPRMC,105709.000,A,5321.6765,N,00148.9098,W,0.000,0.00,140812,,A*66
$GPGGA,105724.000,5321.6625,N,00148.9042,W,1,0,,249.0,M,,M,,*44
$GPRMC,105724.000,A,5321.6625,N,00148.9042,W,0.000,0.00,140812,,A*6B
$GPGGA,105739.000,5321.6557,N,00148.9013,W,1,0,,248.0,M,,M,,*4B
$GPRMC,105739.000,A,5321.6557,N,00148.9013,W,0.000,0.00,140812,,A*65
$GPGGA,105754.000,5321.6435,N,00148.8954,W,1,0,,248.0,M,,M,,*4E
$GPRMC,105754.000,A,5321.6435,N,00148.8954,W,0.000,0.00,140812,,A*60
$GPGGA,105809.000,5321.6385,N,00148.8903,W,1,0,,248.0,M,,M,,*47
$GPRMC,105809.000,A,5321.6385,N,00148.8903,W,0.000,0.00,140812,,A*69
$GPGGA,105824.000,5321.6286,N,00148.8814,W,1,0,,249.0,M,,M,,*4C
$GPRMC,105824.000,A,5321.6286,N,00148.8814,W,0.000,0.00,140812,,A*63
$GPGGA,105840.000,5321.6115,N,00148.8763,W,1,0,,248.0,M,,M,,*49
$GPRMC,105840.000,A,5321.6115,N,00148.8763,W,0.000,0.00,140812,,A*67
$GPGGA,105855.000,5321.6032,N,00148.8761,W,1,0,,248.0,M,,M,,*4B
$GPRMC,105855.000,A,5321.6032,N,00148.8761,W,0.000,0.00,140812,,A*65
$GPGGA,105910.000,5321.5959,N,00148.8772,W,1,0,,249.0,M,,M,,*4F
$GPRMC,105910.000,A,5321.5959,N,00148.8772,W,0.000,0.00,140812,,A*60
$GPGGA,105925.000,5321.5815,N,00148.8814,W,1,0,,248.0,M,,M,,*4E
$GPRMC,105925.000,A,5321.5815,N,00148.8814,W,0.000,0.00,140812,,A*60
$GPGGA,105941.000,5321.5705,N,00148.8849,W,1,0,,248.0,M,,M,,*4A
$GPRMC,105941.000,A,5321.5705,N,00148.8849,W,0.000,0.00,140812,,A*64
$GPGGA,105958.000,5321.5497,N,00148.9012,W,1,0,,248.0,M,,M,,*4D
$GPRMC,105958.000,A,5321.5497,N,00148.9012,W,0.000,0.00,140812,,A*63
$GPGGA,110021.000,5321.5332,N,00148.9008,W,1,0,,248.0,M,,M,,*4D
$GPRMC,110021.000,A,5321.5332,N,00148.9008,W,0.000,0.00,140812,,A*63
$GPGGA,110036.000,5321.5247,N,00148.9010,W,1,0,,248.0,M,,M,,*41
$GPRMC,110036.000,A,5321.5247,N,00148.9010,W,0.000,0.00,140812,,A*6F
$GPGGA,110052.000,5321.5183,N,00148.9053,W,1,0,,248.0,M,,M,,*4F
$GPRMC,110052.000,A,5321.5183,N,00148.9053,W,0.000,0.00,140812,,A*61
$GPGGA,110107.000,5321.5014,N,00148.9031,W,1,0,,248.0,M,,M,,*45
$GPRMC,110107.000,A,5321.5014,N,00148.9031,W,0.000,0.00,140812,,A*6B
$GPGGA,110122.000,5321.4948,N,00148.9036,W,1,0,,248.0,M,,M,,*44
$GPRMC,110122.000,A,5321.4948,N,00148.9036,W,0.000,0.00,140812,,A*6A
$GPGGA,110138.000,5321.4803,N,00148.8879,W,1,0,,248.0,M,,M,,*43
$GPRMC,110138.000,A,5321.4803,N,00148.8879,W,0.000,0.00,140812,,A*6D
$GPGGA,110154.000,5321.4758,N,00148.8841,W,1,0,,248.0,M,,M,,*43
$GPRMC,110154.000,A,5321.4758,N,00148.8841,W,0.000,0.00,140812,,A*6D
$GPGGA,110209.000,5321.4700,N,00148.8746,W,1,0,,248.0,M,,M,,*4D
$GPRMC,110209.000,A,5321.4700,N,00148.8746,W,0.000,0.00,140812,,A*63
$GPGGA,110225.000,5321.4742,N,00148.8587,W,1,0,,248.0,M,,M,,*4A
$GPRMC,110225.000,A,5321.4742,N,00148.8587,W,0.000,0.00,140812,,A*64
$GPGGA,110241.000,5321.4680,N,00148.8345,W,1,0,,248.0,M,,M,,*4F
$GPRMC,110241.000,A,5321.4680,N,00148.8345,W,0.000,0.00,140812,,A*61
$GPGGA,110256.000,5321.4584,N,00148.8082,W,1,0,,248.0,M,,M,,*46
$GPRMC,110256.000,A,5321.4584,N,00148.8082,W,0.000,0.00,140812,,A*68
$GPGGA,110311.000,5321.4611,N,00148.7856,W,1,0,,248.0,M,,M,,*45
$GPRMC,110311.000,A,5321.4611,N,00148.7856,W,0.000,0.00,140812,,A*6B
$GPGGA,110326.000,5321.4572,N,00148.7862,W,1,0,,248.0,M,,M,,*40
$GPRMC,110326.000,A,5321.4572,N,00148.7862,W,0.000,0.00,140812,,A*6E
$GPGGA,110342.000,5321.4414,N,00148.7765,W,1,0,,248.0,M,,M,,*4B
$GPRMC,110342.000,A,5321.4414,N,00148.7765,W,0.000,0.00,140812,,A*65
$GPGGA,110358.000,5321.4343,N,00148.7806,W,1,0,,249.0,M,,M,,*4E
$GPRMC,110358.000,A,5321.4343,N,00148.7806,W,0.000,0.00,140812,,A*61
$GPGGA,110414.000,5321.4256,N,00148.7783,W,1,0,,248.0,M,,M,,*47
$GPRMC,110414.000,A,5321.4256,N,00148.7783,W,0.000,0.00,140812,,A*69
$GPGGA,110430.000,5321.4126,N,00148.7914,W,1,0,,248.0,M,,M,,*45
$GPRMC,110430.000,A,5321.4126,N,00148.7914,W,0.000,0.00,140812,,A*6B
$GPGGA,110445.000,5321.4149,N,00148.7977,W,1,0,,248.0,M,,M,,*4B
$GPRMC,110445.000,A,5321.4149,N,00148.7977,W,0.000,0.00,140812,,A*65
$GPGGA,110512.000,5321.4133,N,00148.8025,W,1,0,,248.0,M,,M,,*44
$GPRMC,110512.000,A,5321.4133,N,00148.8025,W,0.000,0.00,140812,,A*6A
$GPGGA,110528.000,5321.4062,N,00148.8103,W,1,0,,248.0,M,,M,,*4D
$GPRMC,110528.000,A,5321.4062,N,00148.8103,W,0.000,0.00,140812,,A*63
$GPGGA,110545.000,5321.3769,N,00148.8009,W,1,0,,249.0,M,,M,,*47
$GPRMC,110545.000,A,5321.3769,N,00148.8009,W,0.000,0.00,140812,,A*68
$GPGGA,110601.000,5321.3716,N,00148.7983,W,1,0,,249.0,M,,M,,*48
$GPRMC,110601.000,A,5321.3716,N,00148.7983,W,0.000,0.00,140812,,A*67
$GPGGA,110617.000,5321.3766,N,00148.7962,W,1,0,,250.0,M,,M,,*4F
$GPRMC,110617.000,A,5321.3766,N,00148.7962,W,0.000,0.00,140812,,A*68
$GPGGA,110632.000,5321.3638,N,00148.7777,W,1,0,,250.0,M,,M,,*48
$GPRMC,110632.000,A,5321.3638,N,00148.7777,W,0.000,0.00,140812,,A*6F
$GPGGA,110647.000,5321.3645,N,00148.7812,W,1,0,,250.0,M,,M,,*4C
$GPRMC,110647.000,A,5321.3645,N,00148.7812,W,0.000,0.00,140812,,A*6B
$GPGGA,110702.000,5321.3611,N,00148.7698,W,1,0,,250.0,M,,M,,*41
$GPRMC,110702.000,A,5321.3611,N,00148.7698,W,0.000,0.00,140812,,A*66
$GPGGA,110717.000,5321.3627,N,00148.7676,W,1,0,,250.0,M,,M,,*40
$GPRMC,110717.000,A,5321.3627,N,00148.7676,W,0.000,0.00,140812,,A*67
$GPGGA,110732.000,5321.3570,N,00148.7606,W,1,0,,250.0,M,,M,,*41
$GPRMC,110732.000,A,5321.3570,N,00148.7606,W,0.000,0.00,140812,,A*66
$GPGGA,110747.000,5321.3448,N,00148.7350,W,1,0,,250.0,M,,M,,*4F
$GPRMC,110747.000,A,5321.3448,N,00148.7350,W,0.000,0.00,140812,,A*68
$GPGGA,110803.000,5321.3446,N,00148.7426,W,1,0,,250.0,M,,M,,*48
$GPRMC,110803.000,A,5321.3446,N,00148.7426,W,0.000,0.00,140812,,A*6F
$GPGGA,110819.000,5321.3316,N,00148.7465,W,1,0,,251.0,M,,M,,*47
$GPRMC,110819.000,A,5321.3316,N,00148.7465,W,0.000,0.00,140812,,A*61
$GPGGA,110834.000,5321.3261,N,00148.7498,W,1,0,,251.0,M,,M,,*4B
$GPRMC,110834.000,A,5321.3261,N,00148.7498,W,0.000,0.00,140812,,A*6D
$GPGGA,110849.000,5321.3240,N,00148.7610,W,1,0,,251.0,M,,M,,*40
$GPRMC,110849.000,A,5321.3240,N,00148.7610,W,0.000,0.00,140812,,A*66
$GPGGA,110905.000,5321.3105,N,00148.7590,W,1,0,,252.0,M,,M,,*43
$GPRMC,110905.000,A,5321.3105,N,00148.7590,W,0.000,0.00,140812,,A*66
$GPGGA,110920.000,5321.2979,N,00148.7650,W,1,0,,252.0,M,,M,,*49
$GPRMC,110920.000,A,5321.2979,N,00148.7650,W,0.000,0.00,140812,,A*6C
$GPGGA,110948.000,5321.2949,N,00148.7799,W,1,0,,252.0,M,,M,,*40
$GPRMC,110948.000,A,5321.2949,N,00148.7799,W,0.000,0.00,140812,,A*65
$GPGGA,111003.000,5321.2913,N,00148.7879,W,1,0,,252.0,M,,M,,*49
$GPRMC,111003.000,A,5321.2913,N,00148.7879,W,0.000,0.00,140812,,A*6C
$GPGGA,111019.000,5321.2821,N,00148.8026,W,1,0,,252.0,M,,M,,*4F
$GPRMC,111019.000,A,5321.2821,N,00148.8026,W,0.000,0.00,140812,,A*6A
$GPGGA,111037.000,5321.2789,N,00148.8261,W,1,0,,253.0,M,,M,,*4E
$GPRMC,111037.000,A,5321.2789,N,00148.8261,W,0.000,0.00,140812,,A*6A
$GPGGA,111052.000,5321.2684,N,00148.8277,W,1,0,,253.0,M,,M,,*46
$GPRMC,111052.000,A,5321.2684,N,00148.8277,W,0.000,0.00,140812,,A*62
$GPGGA,111107.000,5321.2597,N,00148.8278,W,1,0,,253.0,M,,M,,*49
$GPRMC,111107.000,A,5321.2597,N,00148.8278,W,0.000,0.00,140812,,A*6D
$GPGGA,111123.000,5321.2455,N,00148.8245,W,1,0,,254.0,M,,M,,*49
$GPRMC,111123.000,A,5321.2455,N,00148.8245,W,0.000,0.00,140812,,A*6A
$GPGGA,111138.000,5321.2354,N,00148.8248,W,1,0,,254.0,M,,M,,*48
$GPRMC,111138.000,A,5321.2354,N,00148.8248,W,0.000,0.00,140812,,A*6B
$GPGGA,111153.000,5321.2315,N,00148.8164,W,1,0,,255.0,M,,M,,*4C
$GPRMC,111153.000,A,5321.2315,N,00148.8164,W,0.000,0.00,140812,,A*6E
$GPGGA,111208.000,5321.2276,N,00148.8092,W,1,0,,255.0,M,,M,,*4D
$GPRMC,111208.000,A,5321.2276,N,00148.8092,W,0.000,0.00,140812,,A*6F
$GPGGA,111224.000,5321.2263,N,00148.8056,W,1,0,,255.0,M,,M,,*4F
$GPRMC,111224.000,A,5321.2263,N,00148.8056,W,0.000,0.00,140812,,A*6D
$GPGGA,111239.000,5321.2240,N,00148.8100,W,1,0,,255.0,M,,M,,*40
$GPRMC,111239.000,A,5321.2240,N,00148.8100,W,0.000,0.00,140812,,A*62
$GPGGA,111254.000,5321.2169,N,00148.8139,W,1,0,,255.0,M,,M,,*49
$GPRMC,111254.000,A,5321.2169,N,00148.8139,W,0.000,0.00,140812,,A*6B
$GPGGA,111309.000,5321.2119,N,00148.8162,W,1,0,,255.0,M,,M,,*49
$GPRMC,111309.000,A,5321.2119,N,00148.8162,W,0.000,0.00,140812,,A*6B
$GPGGA,111324.000,5321.2093,N,00148.8169,W,1,0,,256.0,M,,M,,*4D
$GPRMC,111324.000,A,5321.2093,N,00148.8169,W,0.000,0.00,140812,,A*6C
$GPGGA,111340.000,5321.2045,N,00148.8200,W,1,0,,256.0,M,,M,,*48
$GPRMC,111340.000,A,5321.2045,N,00148.8200,W,0.000,0.00,140812,,A*69
$GPGGA,111355.000,5321.2032,N,00148.8194,W,1,0,,256.0,M,,M,,*42
$GPRMC,111355.000,A,5321.2032,N,00148.8194,W,0.000,0.00,140812,,A*63
$GPGGA,111410.000,5321.2018,N,00148.8211,W,1,0,,256.0,M,,M,,*42
$GPRMC,111410.000,A,5321.2018,N,00148.8211,W,0.000,0.00,140812,,A*63
$GPGGA,111425.000,5321.2050,N,00148.8164,W,1,0,,256.0,M,,M,,*49
$GPRMC,111425.000,A,5321.2050,N,00148.8164,W,0.000,0.00,140812,,A*68
$GPGGA,111441.000,5321.2045,N,00148.8176,W,1,0,,256.0,M,,M,,*4C
$GPRMC,111441.000,A,5321.2045,N,00148.8176,W,0.000,0.00,140812,,A*6D
$GPGGA,111456.000,5321.2004,N,00148.8214,W,1,0,,257.0,M,,M,,*49
$GPRMC,111456.000,A,5321.2004,N,00148.8214,W,0.000,0.00,140812,,A*69
$GPGGA,111513.000,5321.2016,N,00148.8195,W,1,0,,257.0,M,,M,,*40
$GPRMC,111513.000,A,5321.2016,N,00148.8195,W,0.000,0.00,140812,,A*60
$GPGGA,111528.000,5321.1903,N,00148.8222,W,1,0,,258.0,M,,M,,*46
$GPRMC,111528.000,A,5321.1903,N,00148.8222,W,0.000,0.00,140812,,A*69
$GPGGA,111543.000,5321.1826,N,00148.8183,W,1,0,,258.0,M,,M,,*45
$GPRMC,111543.000,A,5321.1826,N,00148.8183,W,0.000,0.00,140812,,A*6A
$GPGGA,111559.000,5321.1775,N,00148.8244,W,1,0,,258.0,M,,M,,*4F
$GPRMC,111559.000,A,5321.1775,N,00148.8244,W,0.000,0.00,140812,,A*60
$GPGGA,111614.000,5321.1674,N,00148.8355,W,1,0,,258.0,M,,M,,*44
$GPRMC,111614.000,A,5321.1674,N,00148.8355,W,0.000,0.00,140812,,A*6B
$GPGGA,111629.000,5321.1610,N,00148.8399,W,1,0,,258.0,M,,M,,*48
$GPRMC,111629.000,A,5321.1610,N,00148.8399,W,0.000,0.00,140812,,A*67
$GPGGA,111646.000,5321.1551,N,00148.8564,W,1,0,,259.0,M,,M,,*42
$GPRMC,111646.000,A,5321.1551,N,00148.8564,W,0.000,0.00,140812,,A*6C
$GPGGA,111703.000,5321.1544,N,00148.8609,W,1,0,,259.0,M,,M,,*4E
$GPRMC,111703.000,A,5321.1544,N,00148.8609,W,0.000,0.00,140812,,A*60
$GPGGA,111718.000,5321.1517,N,00148.8642,W,1,0,,260.0,M,,M,,*47
$GPRMC,111718.000,A,5321.1517,N,00148.8642,W,0.000,0.00,140812,,A*63
$GPGGA,111734.000,5321.1501,N,00148.8829,W,1,0,,260.0,M,,M,,*4D
$GPRMC,111734.000,A,5321.1501,N,00148.8829,W,0.000,0.00,140812,,A*69
$GPGGA,111749.000,5321.1551,N,00148.8951,W,1,0,,260.0,M,,M,,*4C
$GPRMC,111749.000,A,5321.1551,N,00148.8951,W,0.000,0.00,140812,,A*68
$GPGGA,111804.000,5321.1542,N,00148.8917,W,1,0,,260.0,M,,M,,*4A
$GPRMC,111804.000,A,5321.1542,N,00148.8917,W,0.000,0.00,140812,,A*6E
$GPGGA,111821.000,5321.1450,N,00148.9051,W,1,0,,261.0,M,,M,,*44
$GPRMC,111821.000,A,5321.1450,N,00148.9051,W,0.000,0.00,140812,,A*61
$GPGGA,111836.000,5321.1480,N,00148.9121,W,1,0,,261.0,M,,M,,*49
$GPRMC,111836.000,A,5321.1480,N,00148.9121,W,0.000,0.00,140812,,A*6C
$GPGGA,111852.000,5321.1031,N,00148.8438,W,1,0,,260.0,M,,M,,*48
$GPRMC,111852.000,A,5321.1031,N,00148.8438,W,0.000,0.00,140812,,A*6C
$GPGGA,111907.000,5321.0862,N,00148.8292,W,1,0,,260.0,M,,M,,*40
$GPRMC,111907.000,A,5321.0862,N,00148.8292,W,0.000,0.00,140812,,A*64
$GPGGA,111923.000,5321.0764,N,00148.8044,W,1,0,,260.0,M,,M,,*46
$GPRMC,111923.000,A,5321.0764,N,00148.8044,W,0.000,0.00,140812,,A*62
$GPGGA,111938.000,5321.0741,N,00148.8191,W,1,0,,260.0,M,,M,,*42
$GPRMC,111938.000,A,5321.0741,N,00148.8191,W,0.000,0.00,140812,,A*66
$GPGGA,111953.000,5321.0709,N,00148.8298,W,1,0,,261.0,M,,M,,*48
$GPRMC,111953.000,A,5321.0709,N,00148.8298,W,0.000,0.00,140812,,A*6D
$GPGGA,112008.000,5321.0713,N,00148.8286,W,1,0,,261.0,M,,M,,*48
$GPRMC,112008.000,A,5321.0713,N,00148.8286,W,0.000,0.00,140812,,A*6D
$GPGGA,112024.000,5321.0839,N,00148.8086,W,1,0,,261.0,M,,M,,*43
$GPRMC,112024.000,A,5321.0839,N,00148.8086,W,0.000,0.00,140812,,A*66
$GPGGA,112039.000,5321.0741,N,00148.8182,W,1,0,,262.0,M,,M,,*49
$GPRMC,112039.000,A,5321.0741,N,00148.8182,W,0.000,0.00,140812,,A*6F
$GPGGA,112056.000,5321.0713,N,00148.8182,W,1,0,,262.0,M,,M,,*47
$GPRMC,112056.000,A,5321.0713,N,00148.8182,W,0.000,0.00,140812,,A*61
$GPGGA,112112.000,5321.0681,N,00148.8208,W,1,0,,262.0,M,,M,,*4D
$GPRMC,112112.000,A,5321.0681,N,00148.8208,W,0.000,0.00,140812,,A*6B
$GPGGA,112127.000,5321.0734,N,00148.8219,W,1,0,,263.0,M,,M,,*45
$GPRMC,112127.000,A,5321.0734,N,00148.8219,W,0.000,0.00,140812,,A*62
$GPGGA,112142.000,5321.0688,N,00148.8230,W,1,0,,263.0,M,,M,,*4B
$GPRMC,112142.000,A,5321.0688,N,00148.8230,W,0.000,0.00,140812,,A*6C
$GPGGA,112158.000,5321.0638,N,00148.8239,W,1,0,,263.0,M,,M,,*42
$GPRMC,112158.000,A,5321.0638,N,00148.8239,W,0.000,0.00,140812,,A*65
$GPGGA,112213.000,5321.0562,N,00148.8296,W,1,0,,263.0,M,,M,,*47
$GPRMC,112213.000,A,5321.0562,N,00148.8296,W,0.000,0.00,140812,,A*60
$GPGGA,112228.000,5321.0496,N,00148.8270,W,1,0,,264.0,M,,M,,*4A
$GPRMC,112228.000,A,5321.0496,N,00148.8270,W,0.000,0.00,140812,,A*6A
$GPGGA,112243.000,5321.0459,N,00148.8269,W,1,0,,264.0,M,,M,,*4C
$GPRMC,112243.000,A,5321.0459,N,00148.8269,W,0.000,0.00,140812,,A*6C
$GPGGA,112259.000,5321.0448,N,00148.8234,W,1,0,,264.0,M,,M,,*4F
$GPRMC,112259.000,A,5321.0448,N,00148.8234,W,0.000,0.00,140812,,A*6F
$GPGGA,112314.000,5321.0507,N,00148.8329,W,1,0,,265.0,M,,M,,*41
$GPRMC,112314.000,A,5321.0507,N,00148.8329,W,0.000,0.00,140812,,A*60
$GPGGA,112330.000,5321.0397,N,00148.8253,W,1,0,,265.0,M,,M,,*44
$GPRMC,112330.000,A,5321.0397,N,00148.8253,W,0.000,0.00,140812,,A*65
$GPGGA,112345.000,5321.0619,N,00148.8136,W,1,0,,265.0,M,,M,,*45
$GPRMC,112345.000,A,5321.0619,N,00148.8136,W,0.000,0.00,140812,,A*64
$GPGGA,112400.000,5321.0507,N,00148.8070,W,1,0,,266.0,M,,M,,*4F
$GPRMC,112400.000,A,5321.0507,N,00148.8070,W,0.000,0.00,140812,,A*6D
$GPGGA,112415.000,5321.0519,N,00148.8027,W,1,0,,266.0,M,,M,,*46
$GPRMC,112415.000,A,5321.0519,N,00148.8027,W,0.000,0.00,140812,,A*64
$GPGGA,112430.000,5321.0683,N,00148.8077,W,1,0,,266.0,M,,M,,*44
$GPRMC,112430.000,A,5321.0683,N,00148.8077,W,0.000,0.00,140812,,A*66
$GPGGA,112446.000,5321.0624,N,00148.8140,W,1,0,,267.0,M,,M,,*4C
$GPRMC,112446.000,A,5321.0624,N,00148.8140,W,0.000,0.00,140812,,A*6F
$GPGGA,112501.000,5321.0574,N,00148.8148,W,1,0,,267.0,M,,M,,*40
$GPRMC,112501.000,A,5321.0574,N,00148.8148,W,0.000,0.00,140812,,A*63
$GPGGA,112516.000,5321.0537,N,00148.8128,W,1,0,,267.0,M,,M,,*47
$GPRMC,112516.000,A,5321.0537,N,00148.8128,W,0.000,0.00,140812,,A*64
$GPGGA,112534.000,5321.0500,N,00148.8128,W,1,0,,267.0,M,,M,,*43
$GPRMC,112534.000,A,5321.0500,N,00148.8128,W,0.000,0.00,140812,,A*60
$GPGGA,112550.000,5321.0331,N,00148.8065,W,1,0,,267.0,M,,M,,*4D
$GPRMC,112550.000,A,5321.0331,N,00148.8065,W,0.000,0.00,140812,,A*6E
$GPGGA,112605.000,5321.0228,N,00148.7977,W,1,0,,267.0,M,,M,,*42
$GPRMC,112605.000,A,5321.0228,N,00148.7977,W,0.000,0.00,140812,,A*61
$GPGGA,112620.000,5321.0098,N,00148.7967,W,1,0,,267.0,M,,M,,*4D
$GPRMC,112620.000,A,5321.0098,N,00148.7967,W,0.000,0.00,140812,,A*6E
$GPGGA,112635.000,5320.9898,N,00148.7918,W,1,0,,267.0,M,,M,,*41
$GPRMC,112635.000,A,5320.9898,N,00148.7918,W,0.000,0.00,140812,,A*62
$GPGGA,112651.000,5320.9827,N,00148.7839,W,1,0,,268.0,M,,M,,*4A
$GPRMC,112651.000,A,5320.9827,N,00148.7839,W,0.000,0.00,140812,,A*66
$GPGGA,112706.000,5320.9635,N,00148.7723,W,1,0,,268.0,M,,M,,*40
$GPRMC,112706.000,A,5320.9635,N,00148.7723,W,0.000,0.00,140812,,A*6C
$GPGGA,112721.000,5320.9484,N,00148.7642,W,1,0,,268.0,M,,M,,*4B
$GPRMC,112721.000,A,5320.9484,N,00148.7642,W,0.000,0.00,140812,,A*67
$GPGGA,112737.000,5320.9393,N,00148.7582,W,1,0,,268.0,M,,M,,*42
$GPRMC,112737.000,A,5320.9393,N,00148.7582,W,0.000,0.00,140812,,A*6E
$GPGGA,112752.000,5320.9367,N,00148.7604,W,1,0,,268.0,M,,M,,*47
$GPRMC,112752.000,A,5320.9367,N,00148.7604,W,0.000,0.00,140812,,A*6B
$GPGGA,112807.000,5320.9251,N,00148.7697,W,1,0,,268.0,M,,M,,*46
$GPRMC,112807.000,A,5320.9251,N,00148.7697,W,0.000,0.00,140812,,A*6A
$GPGGA,112823.000,5320.9262,N,00148.7716,W,1,0,,268.0,M,,M,,*48
$GPRMC,112823.000,A,5320.9262,N,00148.7716,W,0.000,0.00,140812,,A*64
$GPGGA,112838.000,5320.9246,N,00148.7782,W,1,0,,268.0,M,,M,,*49
$GPRMC,112838.000,A,5320.9246,N,00148.7782,W,0.000,0.00,140812,,A*65
$GPGGA,112853.000,5320.9104,N,00148.7774,W,1,0,,268.0,M,,M,,*48
$GPRMC,112853.000,A,5320.9104,N,00148.7774,W,0.000,0.00,140812,,A*64
$GPGGA,112908.000,5320.9015,N,00148.7813,W,1,0,,268.0,M,,M,,*48
$GPRMC,112908.000,A,5320.9015,N,00148.7813,W,0.000,0.00,140812,,A*64
$GPGGA,112924.000,5320.8944,N,00148.7857,W,1,0,,269.0,M,,M,,*4B
$GPRMC,112924.000,A,5320.8944,N,00148.7857,W,0.000,0.00,140812,,A*66
$GPGGA,112939.000,5320.8974,N,00148.7966,W,1,0,,269.0,M,,M,,*47
$GPRMC,112939.000,A,5320.8974,N,00148.7966,W,0.000,0.00,140812,,A*6A
$GPGGA,112955.000,5320.8825,N,00148.7970,W,1,0,,269.0,M,,M,,*4F
$GPRMC,112955.000,A,5320.8825,N,00148.7970,W,0.000,0.00,140812,,A*62
$GPGGA,113010.000,5320.8795,N,00148.8029,W,1,0,,269.0,M,,M,,*48
$GPRMC,113010.000,A,5320.8795,N,00148.8029,W,0.000,0.00,140812,,A*65
$GPGGA,113025.000,5320.8667,N,00148.8038,W,1,0,,269.0,M,,M,,*42
$GPRMC,113025.000,A,5320.8667,N,00148.8038,W,0.000,0.00,140812,,A*6F
$GPGGA,113040.000,5320.8591,N,00148.7984,W,1,0,,269.0,M,,M,,*4A
$GPRMC,113040.000,A,5320.8591,N,00148.7984,W,0.000,0.00,140812,,A*67
$GPGGA,113055.000,5320.8569,N,00148.7946,W,1,0,,269.0,M,,M,,*47
$GPRMC,113055.000,A,5320.8569,N,00148.7946,W,0.000,0.00,140812,,A*6A
$GPGGA,113111.000,5320.8546,N,00148.7914,W,1,0,,269.0,M,,M,,*4C
$GPRMC,113111.000,A,5320.8546,N,00148.7914,W,0.000,0.00,140812,,A*61
$GPGGA,113126.000,5320.8553,N,00148.7943,W,1,0,,270.0,M,,M,,*46
$GPRMC,113126.000,A,5320.8553,N,00148.7943,W,0.000,0.00,140812,,A*63
$GPGGA,113141.000,5320.8504,N,00148.7804,W,1,0,,270.0,M,,M,,*47
$GPRMC,113141.000,A,5320.8504,N,00148.7804,W,0.000,0.00,140812,,A*62
$GPGGA,113157.000,5320.8610,N,00148.7797,W,1,0,,270.0,M,,M,,*43
$GPRMC,113157.000,A,5320.8610,N,00148.7797,W,0.000,0.00,140812,,A*66
$GPGGA,113212.000,5320.8653,N,00148.7652,W,1,0,,270.0,M,,M,,*4E
$GPRMC,113212.000,A,5320.8653,N,00148.7652,W,0.000,0.00,140812,,A*6B
$GPGGA,113227.000,5320.8823,N,00148.7702,W,1,0,,270.0,M,,M,,*45
$GPRMC,113227.000,A,5320.8823,N,00148.7702,W,0.000,0.00,140812,,A*60
$GPGGA,113242.000,5320.8914,N,00148.7735,W,1,0,,270.0,M,,M,,*47
$GPRMC,113242.000,A,5320.8914,N,00148.7735,W,0.000,0.00,140812,,A*62
$GPGGA,113258.000,5320.8916,N,00148.7585,W,1,0,,271.0,M,,M,,*46
$GPRMC,113258.000,A,5320.8916,N,00148.7585,W,0.000,0.00,140812,,A*62
$GPGGA,113313.000,5320.8781,N,00148.7552,W,1,0,,271.0,M,,M,,*42
$GPRMC,113313.000,A,5320.8781,N,00148.7552,W,0.000,0.00,140812,,A*66
$GPGGA,113328.000,5320.8921,N,00148.7760,W,1,0,,271.0,M,,M,,*4D
$GPRMC,113328.000,A,5320.8921,N,00148.7760,W,0.000,0.00,140812,,A*69
$GPGGA,113344.000,5320.8324,N,00148.7931,W,1,0,,272.0,M,,M,,*41
$GPRMC,113344.000,A,5320.8324,N,00148.7931,W,0.000,0.00,140812,,A*66
$GPGGA,113359.000,5320.8342,N,00148.7908,W,1,0,,272.0,M,,M,,*47
$GPRMC,113359.000,A,5320.8342,N,00148.7908,W,0.000,0.00,140812,,A*60
$GPGGA,113414.000,5320.8349,N,00148.7857,W,1,0,,272.0,M,,M,,*49
$GPRMC,113414.000,A,5320.8349,N,00148.7857,W,0.000,0.00,140812,,A*6E
$GPGGA,113429.000,5320.9516,N,00148.6992,W,1,0,,273.0,M,,M,,*42
$GPRMC,113429.000,A,5320.9516,N,00148.6992,W,0.000,0.00,140812,,A*64
$GPGGA,113444.000,5320.9484,N,00148.7621,W,1,0,,273.0,M,,M,,*45
$GPRMC,113444.000,A,5320.9484,N,00148.7621,W,0.000,0.00,140812,,A*63
$GPGGA,113459.000,5320.9521,N,00148.7712,W,1,0,,273.0,M,,M,,*46
$GPRMC,113459.000,A,5320.9521,N,00148.7712,W,0.000,0.00,140812,,A*60
$GPGGA,113514.000,5320.9610,N,00148.7646,W,1,0,,273.0,M,,M,,*4F
$GPRMC,113514.000,A,5320.9610,N,00148.7646,W,0.000,0.00,140812,,A*69
$GPGGA,113530.000,5320.9525,N,00148.7516,W,1,0,,273.0,M,,M,,*4A
$GPRMC,113530.000,A,5320.9525,N,00148.7516,W,0.000,0.00,140812,,A*6C
$GPGGA,113545.000,5320.9649,N,00148.7483,W,1,0,,273.0,M,,M,,*4C
$GPRMC,113545.000,A,5320.9649,N,00148.7483,W,0.000,0.00,140812,,A*6A
$GPGGA,113600.000,5320.9734,N,00148.7297,W,1,0,,273.0,M,,M,,*46
$GPRMC,113600.000,A,5320.9734,N,00148.7297,W,0.000,0.00,140812,,A*60
$GPGGA,113615.000,5320.9821,N,00148.7007,W,1,0,,273.0,M,,M,,*42
$GPRMC,113615.000,A,5320.9821,N,00148.7007,W,0.000,0.00,140812,,A*64
$GPGGA,113630.000,5320.9871,N,00148.7074,W,1,0,,274.0,M,,M,,*43
$GPRMC,113630.000,A,5320.9871,N,00148.7074,W,0.000,0.00,140812,,A*62
$GPGGA,113647.000,5320.9848,N,00148.7132,W,1,0,,274.0,M,,M,,*4A
$GPRMC,113647.000,A,5320.9848,N,00148.7132,W,0.000,0.00,140812,,A*6B
$GPGGA,113702.000,5320.9978,N,00148.7034,W,1,0,,274.0,M,,M,,*4F
$GPRMC,113702.000,A,5320.9978,N,00148.7034,W,0.000,0.00,140812,,A*6E
$GPGGA,113717.000,5320.9969,N,00148.7118,W,1,0,,274.0,M,,M,,*44
$GPRMC,113717.000,A,5320.9969,N,00148.7118,W,0.000,0.00,140812,,A*65
$GPGGA,113732.000,5320.9981,N,00148.7124,W,1,0,,274.0,M,,M,,*4A
$GPRMC,113732.000,A,5320.9981,N,00148.7124,W,0.000,0.00,140812,,A*6B
$GPGGA,113747.000,5320.9951,N,00148.7113,W,1,0,,274.0,M,,M,,*41
$GPRMC,113747.000,A,5320.9951,N,00148.7113,W,0.000,0.00,140812,,A*60
$GPGGA,113803.000,5320.9880,N,00148.7060,W,1,0,,275.0,M,,M,,*47
$GPRMC,113803.000,A,5320.9880,N,00148.7060,W,0.000,0.00,140812,,A*67
$GPGGA,113818.000,5320.9965,N,00148.7101,W,1,0,,275.0,M,,M,,*41
$GPRMC,113818.000,A,5320.9965,N,00148.7101,W,0.000,0.00,140812,,A*61
$GPGGA,113833.000,5320.9953,N,00148.7008,W,1,0,,275.0,M,,M,,*45
$GPRMC,113833.000,A,5320.9953,N,00148.7008,W,0.000,0.00,140812,,A*65
$GPGGA,113849.000,5321.0022,N,00148.6486,W,1,0,,276.0,M,,M,,*4F
$GPRMC,113849.000,A,5321.0022,N,00148.6486,W,0.000,0.00,140812,,A*6C
$GPGGA,113904.000,5320.9988,N,00148.6536,W,1,0,,276.0,M,,M,,*4C
$GPRMC,113904.000,A,5320.9988,N,00148.6536,W,0.000,0.00,140812,,A*6F
$GPGGA,113919.000,5320.9887,N,00148.6624,W,1,0,,276.0,M,,M,,*4E
$GPRMC,113919.000,A,5320.9887,N,00148.6624,W,0.000,0.00,140812,,A*6D
$GPGGA,113935.000,5320.9887,N,00148.6691,W,1,0,,275.0,M,,M,,*4D
$GPRMC,113935.000,A,5320.9887,N,00148.6691,W,0.000,0.00,140812,,A*6D
$GPGGA,113950.000,5320.9873,N,00148.6753,W,1,0,,275.0,M,,M,,*4A
$GPRMC,113950.000,A,5320.9873,N,00148.6753,W,0.000,0.00,140812,,A*6A
$GPGGA,114005.000,5320.9864,N,00148.6814,W,1,0,,275.0,M,,M,,*4E
$GPRMC,114005.000,A,5320.9864,N,00148.6814,W,0.000,0.00,140812,,A*6E
$GPGGA,114020.000,5320.9859,N,00148.6869,W,1,0,,276.0,M,,M,,*4E
$GPRMC,114020.000,A,5320.9859,N,00148.6869,W,0.000,0.00,140812,,A*6D
$GPGGA,114036.000,5320.9859,N,00148.6896,W,1,0,,276.0,M,,M,,*49
$GPRMC,114036.000,A,5320.9859,N,00148.6896,W,0.000,0.00,140812,,A*6A
$GPGGA,114051.000,5320.9855,N,00148.6943,W,1,0,,275.0,M,,M,,*4E
$GPRMC,114051.000,A,5320.9855,N,00148.6943,W,0.000,0.00,140812,,A*6E
$GPGGA,114106.000,5320.9875,N,00148.6905,W,1,0,,275.0,M,,M,,*4D
$GPRMC,114106.000,A,5320.9875,N,00148.6905,W,0.000,0.00,140812,,A*6D
$GPGGA,114121.000,5320.9873,N,00148.6901,W,1,0,,276.0,M,,M,,*49
$GPRMC,114121.000,A,5320.9873,N,00148.6901,W,0.000,0.00,140812,,A*6A
$GPGGA,114136.000,5320.9869,N,00148.6901,W,1,0,,276.0,M,,M,,*44
$GPRMC,114136.000,A,5320.9869,N,00148.6901,W,0.000,0.00,140812,,A*67
$GPGGA,114151.000,5320.9903,N,00148.6945,W,1,0,,276.0,M,,M,,*48
$GPRMC,114151.000,A,5320.9903,N,00148.6945,W,0.000,0.00,140812,,A*6B
$GPGGA,114206.000,5320.9914,N,00148.6856,W,1,0,,276.0,M,,M,,*4C
$GPRMC,114206.000,A,5320.9914,N,00148.6856,W,0.000,0.00,140812,,A*6F
$GPGGA,114221.000,5320.9889,N,00148.6835,W,1,0,,276.0,M,,M,,*49
$GPRMC,114221.000,A,5320.9889,N,00148.6835,W,0.000,0.00,140812,,A*6A
$GPGGA,114236.000,5320.9878,N,00148.6858,W,1,0,,276.0,M,,M,,*4A
$GPRMC,114236.000,A,5320.9878,N,00148.6858,W,0.000,0.00,140812,,A*69
$GPGGA,114252.000,5320.9859,N,00148.6953,W,1,0,,276.0,M,,M,,*41
$GPRMC,114252.000,A,5320.9859,N,00148.6953,W,0.000,0.00,140812,,A*62
$GPGGA,114307.000,5320.9839,N,00148.6933,W,1,0,,275.0,M,,M,,*43
$GPRMC,114307.000,A,5320.9839,N,00148.6933,W,0.000,0.00,140812,,A*63
$GPGGA,114323.000,5320.9827,N,00148.6951,W,1,0,,276.0,M,,M,,*4D
$GPRMC,114323.000,A,5320.9827,N,00148.6951,W,0.000,0.00,140812,,A*6E
$GPGGA,114338.000,5320.9171,N,00148.6087,W,1,0,,276.0,M,,M,,*4F
$GPRMC,114338.000,A,5320.9171,N,00148.6087,W,0.000,0.00,140812,,A*6C
$GPGGA,114353.000,5320.9171,N,00148.6043,W,1,0,,276.0,M,,M,,*4A
$GPRMC,114353.000,A,5320.9171,N,00148.6043,W,0.000,0.00,140812,,A*69
$GPGGA,114409.000,5320.9116,N,00148.6072,W,1,0,,276.0,M,,M,,*41
$GPRMC,114409.000,A,5320.9116,N,00148.6072,W,0.000,0.00,140812,,A*62
$GPGGA,114425.000,5320.8985,N,00148.6195,W,1,0,,277.0,M,,M,,*45
$GPRMC,114425.000,A,5320.8985,N,00148.6195,W,0.000,0.00,140812,,A*67
$GPGGA,114448.000,5320.9637,N,00148.6672,W,1,0,,277.0,M,,M,,*47
$GPRMC,114448.000,A,5320.9637,N,00148.6672,W,0.000,0.00,140812,,A*65
$GPGGA,114515.000,5320.9612,N,00148.6645,W,1,0,,277.0,M,,M,,*4D
$GPRMC,114515.000,A,5320.9612,N,00148.6645,W,0.000,0.00,140812,,A*6F
$GPGGA,114531.000,5320.9626,N,00148.6673,W,1,0,,277.0,M,,M,,*49
$GPRMC,114531.000,A,5320.9626,N,00148.6673,W,0.000,0.00,140812,,A*6B
$GPGGA,114547.000,5320.9466,N,00148.6495,W,1,0,,276.0,M,,M,,*45
$GPRMC,114547.000,A,5320.9466,N,00148.6495,W,0.000,0.00,140812,,A*66
$GPGGA,114602.000,5320.9585,N,00148.6722,W,1,0,,276.0,M,,M,,*44
$GPRMC,114602.000,A,5320.9585,N,00148.6722,W,0.000,0.00,140812,,A*67
$GPGGA,114618.000,5320.9647,N,00148.6840,W,1,0,,277.0,M,,M,,*48
$GPRMC,114618.000,A,5320.9647,N,00148.6840,W,0.000,0.00,140812,,A*6A
$GPGGA,114633.000,5320.9750,N,00148.6877,W,1,0,,277.0,M,,M,,*42
$GPRMC,114633.000,A,5320.9750,N,00148.6877,W,0.000,0.00,140812,,A*60
$GPGGA,114648.000,5320.9855,N,00148.6885,W,1,0,,277.0,M,,M,,*49
$GPRMC,114648.000,A,5320.9855,N,00148.6885,W,0.000,0.00,140812,,A*6B
$GPGGA,114705.000,5320.9692,N,00148.5907,W,1,0,,277.0,M,,M,,*4C
$GPRMC,114705.000,A,5320.9692,N,00148.5907,W,0.000,0.00,140812,,A*6E
$GPGGA,114720.000,5320.9647,N,00148.5885,W,1,0,,277.0,M,,M,,*48
$GPRMC,114720.000,A,5320.9647,N,00148.5885,W,0.000,0.00,140812,,A*6A
$GPGGA,114735.000,5320.9530,N,00148.5356,W,1,0,,278.0,M,,M,,*45
$GPRMC,114735.000,A,5320.9530,N,00148.5356,W,0.000,0.00,140812,,A*68
$GPGGA,114750.000,5320.9512,N,00148.5345,W,1,0,,278.0,M,,M,,*44
$GPRMC,114750.000,A,5320.9512,N,00148.5345,W,0.000,0.00,140812,,A*69
$GPGGA,114806.000,5320.9470,N,00148.5558,W,1,0,,278.0,M,,M,,*47
$GPRMC,114806.000,A,5320.9470,N,00148.5558,W,0.000,0.00,140812,,A*6A
$GPGGA,114821.000,5320.9438,N,00148.5647,W,1,0,,278.0,M,,M,,*43
$GPRMC,114821.000,A,5320.9438,N,00148.5647,W,0.000,0.00,140812,,A*6E
$GPGGA,114836.000,5320.9434,N,00148.5742,W,1,0,,278.0,M,,M,,*4D
$GPRMC,114836.000,A,5320.9434,N,00148.5742,W,0.000,0.00,140812,,A*60
$GPGGA,114852.000,5320.9395,N,00148.5856,W,1,0,,278.0,M,,M,,*49
$GPRMC,114852.000,A,5320.9395,N,00148.5856,W,0.000,0.00,140812,,A*64
$GPGGA,114907.000,5320.9356,N,00148.5955,W,1,0,,278.0,M,,M,,*45
$GPRMC,114907.000,A,5320.9356,N,00148.5955,W,0.000,0.00,140812,,A*68
$GPGGA,114922.000,5320.9322,N,00148.6026,W,1,0,,278.0,M,,M,,*4F
$GPRMC,114922.000,A,5320.9322,N,00148.6026,W,0.000,0.00,140812,,A*62
$GPGGA,114938.000,5320.9278,N,00148.6116,W,1,0,,278.0,M,,M,,*48
$GPRMC,114938.000,A,5320.9278,N,00148.6116,W,0.000,0.00,140812,,A*65
$GPGGA,114953.000,5320.9230,N,00148.6182,W,1,0,,278.0,M,,M,,*44
$GPRMC,114953.000,A,5320.9230,N,00148.6182,W,0.000,0.00,140812,,A*69
$GPGGA,115008.000,5320.9182,N,00148.6256,W,1,0,,278.0,M,,M,,*42
$GPRMC,115008.000,A,5320.9182,N,00148.6256,W,0.000,0.00,140812,,A*6F
$GPGGA,115024.000,5320.9177,N,00148.6383,W,1,0,,278.0,M,,M,,*4F
$GPRMC,115024.000,A,5320.9177,N,00148.6383,W,0.000,0.00,140812,,A*62
$GPGGA,115039.000,5320.9132,N,00148.6489,W,1,0,,278.0,M,,M,,*4F
$GPRMC,115039.000,A,5320.9132,N,00148.6489,W,0.000,0.00,140812,,A*62
$GPGGA,115054.000,5320.9079,N,00148.6596,W,1,0,,278.0,M,,M,,*45
$GPRMC,115054.000,A,5320.9079,N,00148.6596,W,0.000,0.00,140812,,A*68
$GPGGA,115110.000,5320.9031,N,00148.6711,W,1,0,,278.0,M,,M,,*45
$GPRMC,115110.000,A,5320.9031,N,00148.6711,W,0.000,0.00,140812,,A*68
$GPGGA,115126.000,5320.8981,N,00148.6968,W,1,0,,277.0,M,,M,,*4C
$GPRMC,115126.000,A,5320.8981,N,00148.6968,W,0.000,0.00,140812,,A*6E
$GPGGA,115141.000,5320.8825,N,00148.7022,W,1,0,,278.0,M,,M,,*4B
$GPRMC,115141.000,A,5320.8825,N,00148.7022,W,0.000,0.00,140812,,A*66
$GPGGA,115156.000,5320.8596,N,00148.7941,W,1,0,,303.0,M,,M,,*49
$GPRMC,115156.000,A,5320.8596,N,00148.7941,W,0.000,0.00,140812,,A*69
$GPGGA,115221.000,5320.8683,N,00148.7851,W,1,0,,280.0,M,,M,,*47
$GPRMC,115221.000,A,5320.8683,N,00148.7851,W,0.000,0.00,140812,,A*6D
$GPGGA,115240.000,5320.8802,N,00148.7272,W,1,0,,280.0,M,,M,,*4C
$GPRMC,115240.000,A,5320.8802,N,00148.7272,W,0.000,0.00,140812,,A*66
$GPGGA,115258.000,5320.8633,N,00148.7510,W,1,0,,281.0,M,,M,,*4B
$GPRMC,115258.000,A,5320.8633,N,00148.7510,W,0.000,0.00,140812,,A*60
$GPGGA,115313.000,5320.8575,N,00148.7542,W,1,0,,281.0,M,,M,,*43
$GPRMC,115313.000,A,5320.8575,N,00148.7542,W,0.000,0.00,140812,,A*68
$GPGGA,115328.000,5320.8571,N,00148.7407,W,1,0,,281.0,M,,M,,*4F
$GPRMC,115328.000,A,5320.8571,N,00148.7407,W,0.000,0.00,140812,,A*64
$GPGGA,115343.000,5320.7903,N,00148.7845,W,1,0,,281.0,M,,M,,*4E
$GPRMC,115343.000,A,5320.7903,N,00148.7845,W,0.000,0.00,140812,,A*65
$GPGGA,115359.000,5320.7930,N,00148.8310,W,1,0,,281.0,M,,M,,*41
$GPRMC,115359.000,A,5320.7930,N,00148.8310,W,0.000,0.00,140812,,A*6A
$GPGGA,115414.000,5320.7919,N,00148.8509,W,1,0,,282.0,M,,M,,*49
$GPRMC,115414.000,A,5320.7919,N,00148.8509,W,0.000,0.00,140812,,A*61
$GPGGA,115444.000,5320.7955,N,00148.8621,W,1,0,,282.0,M,,M,,*4D
$GPRMC,115444.000,A,5320.7955,N,00148.8621,W,0.000,0.00,140812,,A*65
$GPGGA,115500.000,5320.8006,N,00148.8810,W,1,0,,282.0,M,,M,,*40
$GPRMC,115500.000,A,5320.8006,N,00148.8810,W,0.000,0.00,140812,,A*68
$GPGGA,115515.000,5320.8031,N,00148.8874,W,1,0,,282.0,M,,M,,*42
$GPRMC,115515.000,A,5320.8031,N,00148.8874,W,0.000,0.00,140812,,A*6A
$GPGGA,115530.000,5320.7964,N,00148.8873,W,1,0,,283.0,M,,M,,*45
$GPRMC,115530.000,A,5320.7964,N,00148.8873,W,0.000,0.00,140812,,A*6C
$GPGGA,115545.000,5320.7891,N,00148.8908,W,1,0,,283.0,M,,M,,*41
$GPRMC,115545.000,A,5320.7891,N,00148.8908,W,0.000,0.00,140812,,A*68
$GPGGA,115601.000,5320.7751,N,00148.8807,W,1,0,,283.0,M,,M,,*4F
$GPRMC,115601.000,A,5320.7751,N,00148.8807,W,0.000,0.00,140812,,A*66
$GPGGA,115616.000,5320.7719,N,00148.8809,W,1,0,,283.0,M,,M,,*4B
$GPRMC,115616.000,A,5320.7719,N,00148.8809,W,0.000,0.00,140812,,A*62
$GPGGA,115631.000,5320.7584,N,00148.8732,W,1,0,,283.0,M,,M,,*4F
$GPRMC,115631.000,A,5320.7584,N,00148.8732,W,0.000,0.00,140812,,A*66
$GPGGA,115647.000,5320.7472,N,00148.8650,W,1,0,,283.0,M,,M,,*43
$GPRMC,115647.000,A,5320.7472,N,00148.8650,W,0.000,0.00,140812,,A*6A
$GPGGA,115702.000,5320.7385,N,00148.8569,W,1,0,,283.0,M,,M,,*45
$GPRMC,115702.000,A,5320.7385,N,00148.8569,W,0.000,0.00,140812,,A*6C
$GPGGA,115717.000,5320.7305,N,00148.8583,W,1,0,,283.0,M,,M,,*4D
$GPRMC,115717.000,A,5320.7305,N,00148.8583,W,0.000,0.00,140812,,A*64
$GPGGA,115733.000,5320.7246,N,00148.8556,W,1,0,,283.0,M,,M,,*45
$GPRMC,115733.000,A,5320.7246,N,00148.8556,W,0.000,0.00,140812,,A*6C
$GPGGA,115749.000,5320.7390,N,00148.8417,W,1,0,,283.0,M,,M,,*46
$GPRMC,115749.000,A,5320.7390,N,00148.8417,W,0.000,0.00,140812,,A*6F
$GPGGA,115804.000,5320.7296,N,00148.8409,W,1,0,,283.0,M,,M,,*48
$GPRMC,115804.000,A,5320.7296,N,00148.8409,W,0.000,0.00,140812,,A*61
$GPGGA,115819.000,5320.7275,N,00148.8417,W,1,0,,283.0,M,,M,,*46
$GPRMC,115819.000,A,5320.7275,N,00148.8417,W,0.000,0.00,140812,,A*6F
$GPGGA,115834.000,5320.7040,N,00148.8324,W,1,0,,283.0,M,,M,,*4A
$GPRMC,115834.000,A,5320.7040,N,00148.8324,W,0.000,0.00,140812,,A*63
$GPGGA,115850.000,5320.6898,N,00148.8041,W,1,0,,284.0,M,,M,,*43
$GPRMC,115850.000,A,5320.6898,N,00148.8041,W,0.000,0.00,140812,,A*6D
$GPGGA,115905.000,5320.6641,N,00148.7620,W,1,0,,284.0,M,,M,,*46
$GPRMC,115905.000,A,5320.6641,N,00148.7620,W,0.000,0.00,140812,,A*68
$GPGGA,115920.000,5320.6465,N,00148.7430,W,1,0,,284.0,M,,M,,*46
$GPRMC,115920.000,A,5320.6465,N,00148.7430,W,0.000,0.00,140812,,A*68
$GPGGA,115935.000,5320.6413,N,00148.7322,W,1,0,,284.0,M,,M,,*47
$GPRMC,115935.000,A,5320.6413,N,00148.7322,W,0.000,0.00,140812,,A*69
$GPGGA,115951.000,5320.6396,N,00148.7164,W,1,0,,284.0,M,,M,,*4F
$GPRMC,115951.000,A,5320.6396,N,00148.7164,W,0.000,0.00,140812,,A*61
$GPGGA,120006.000,5320.6264,N,00148.6965,W,1,0,,284.0,M,,M,,*46
$GPRMC,120006.000,A,5320.6264,N,00148.6965,W,0.000,0.00,140812,,A*68
$GPGGA,120021.000,5320.6248,N,00148.6837,W,1,0,,284.0,M,,M,,*4B
$GPRMC,120021.000,A,5320.6248,N,00148.6837,W,0.000,0.00,140812,,A*65
$GPGGA,120036.000,5320.6239,N,00148.6699,W,1,0,,284.0,M,,M,,*41
$GPRMC,120036.000,A,5320.6239,N,00148.6699,W,0.000,0.00,140812,,A*6F
$GPGGA,120052.000,5320.6197,N,00148.6510,W,1,0,,284.0,M,,M,,*46
$GPRMC,120052.000,A,5320.6197,N,00148.6510,W,0.000,0.00,140812,,A*68
$GPGGA,120107.000,5320.6115,N,00148.6340,W,1,0,,285.0,M,,M,,*4F
$GPRMC,120107.000,A,5320.6115,N,00148.6340,W,0.000,0.00,140812,,A*60
$GPGGA,120122.000,5320.6033,N,00148.6231,W,1,0,,285.0,M,,M,,*4A
$GPRMC,120122.000,A,5320.6033,N,00148.6231,W,0.000,0.00,140812,,A*65
$GPGGA,120137.000,5320.5989,N,00148.6164,W,1,0,,285.0,M,,M,,*46
$GPRMC,120137.000,A,5320.5989,N,00148.6164,W,0.000,0.00,140812,,A*69
$GPGGA,120153.000,5320.5994,N,00148.5964,W,1,0,,285.0,M,,M,,*43
$GPRMC,120153.000,A,5320.5994,N,00148.5964,W,0.000,0.00,140812,,A*6C
$GPGGA,120208.000,5320.5968,N,00148.5858,W,1,0,,285.0,M,,M,,*43
$GPRMC,120208.000,A,5320.5968,N,00148.5858,W,0.000,0.00,140812,,A*6C
$GPGGA,120223.000,5320.5998,N,00148.5765,W,1,0,,285.0,M,,M,,*44
$GPRMC,120223.000,A,5320.5998,N,00148.5765,W,0.000,0.00,140812,,A*6B
$GPGGA,120239.000,5320.5918,N,00148.5671,W,1,0,,285.0,M,,M,,*43
$GPRMC,120239.000,A,5320.5918,N,00148.5671,W,0.000,0.00,140812,,A*6C
$GPGGA,120254.000,5320.5790,N,00148.5441,W,1,0,,285.0,M,,M,,*47
$GPRMC,120254.000,A,5320.5790,N,00148.5441,W,0.000,0.00,140812,,A*68
$GPGGA,120309.000,5320.5863,N,00148.5290,W,1,0,,285.0,M,,M,,*47
$GPRMC,120309.000,A,5320.5863,N,00148.5290,W,0.000,0.00,140812,,A*68
$GPGGA,120324.000,5320.5849,N,00148.5168,W,1,0,,285.0,M,,M,,*44
$GPRMC,120324.000,A,5320.5849,N,00148.5168,W,0.000,0.00,140812,,A*6B
$GPGGA,120340.000,5320.5827,N,00148.5002,W,1,0,,285.0,M,,M,,*43
$GPRMC,120340.000,A,5320.5827,N,00148.5002,W,0.000,0.00,140812,,A*6C
$GPGGA,120355.000,5320.5776,N,00148.4756,W,1,0,,285.0,M,,M,,*4B
$GPRMC,120355.000,A,5320.5776,N,00148.4756,W,0.000,0.00,140812,,A*64
$GPGGA,120410.000,5320.5788,N,00148.4648,W,1,0,,285.0,M,,M,,*42
$GPRMC,120410.000,A,5320.5788,N,00148.4648,W,0.000,0.00,140812,,A*6D
$GPGGA,120425.000,5320.5785,N,00148.4485,W,1,0,,286.0,M,,M,,*49
$GPRMC,120425.000,A,5320.5785,N,00148.4485,W,0.000,0.00,140812,,A*65
$GPGGA,120440.000,5320.5708,N,00148.4353,W,1,0,,286.0,M,,M,,*43
$GPRMC,120440.000,A,5320.5708,N,00148.4353,W,0.000,0.00,140812,,A*6F
$GPGGA,120456.000,5320.5689,N,00148.4159,W,1,0,,286.0,M,,M,,*44
$GPRMC,120456.000,A,5320.5689,N,00148.4159,W,0.000,0.00,140812,,A*68
$GPGGA,120511.000,5320.5685,N,00148.4039,W,1,0,,286.0,M,,M,,*4D
$GPRMC,120511.000,A,5320.5685,N,00148.4039,W,0.000,0.00,140812,,A*61
$GPGGA,120526.000,5320.5717,N,00148.3900,W,1,0,,286.0,M,,M,,*47
$GPRMC,120526.000,A,5320.5717,N,00148.3900,W,0.000,0.00,140812,,A*6B
$GPGGA,120542.000,5320.5712,N,00148.3852,W,1,0,,286.0,M,,M,,*46
$GPRMC,120542.000,A,5320.5712,N,00148.3852,W,0.000,0.00,140812,,A*6A
$GPGGA,120557.000,5320.5653,N,00148.3708,W,1,0,,286.0,M,,M,,*46
$GPRMC,120557.000,A,5320.5653,N,00148.3708,W,0.000,0.00,140812,,A*6A
$GPGGA,120612.000,5320.5456,N,00148.3547,W,1,0,,286.0,M,,M,,*4A
$GPRMC,120612.000,A,5320.5456,N,00148.3547,W,0.000,0.00,140812,,A*66
$GPGGA,120627.000,5320.5531,N,00148.3406,W,1,0,,286.0,M,,M,,*48
$GPRMC,120627.000,A,5320.5531,N,00148.3406,W,0.000,0.00,140812,,A*64
$GPGGA,120643.000,5320.5497,N,00148.3359,W,1,0,,286.0,M,,M,,*4A
$GPRMC,120643.000,A,5320.5497,N,00148.3359,W,0.000,0.00,140812,,A*66
$GPGGA,120658.000,5320.5492,N,00148.3312,W,1,0,,286.0,M,,M,,*4A
$GPRMC,120658.000,A,5320.5492,N,00148.3312,W,0.000,0.00,140812,,A*66
$GPGGA,120713.000,5320.5339,N,00148.2984,W,1,0,,287.0,M,,M,,*47
$GPRMC,120713.000,A,5320.5339,N,00148.2984,W,0.000,0.00,140812,,A*6A
$GPGGA,120729.000,5320.5362,N,00148.2881,W,1,0,,287.0,M,,M,,*44
$GPRMC,120729.000,A,5320.5362,N,00148.2881,W,0.000,0.00,140812,,A*69
$GPGGA,120744.000,5320.5307,N,00148.2708,W,1,0,,287.0,M,,M,,*42
$GPRMC,120744.000,A,5320.5307,N,00148.2708,W,0.000,0.00,140812,,A*6F
$GPGGA,120759.000,5320.5346,N,00148.2562,W,1,0,,287.0,M,,M,,*45
$GPRMC,120759.000,A,5320.5346,N,00148.2562,W,0.000,0.00,140812,,A*68
$GPGGA,120815.000,5320.5355,N,00148.2425,W,1,0,,287.0,M,,M,,*42
$GPRMC,120815.000,A,5320.5355,N,00148.2425,W,0.000,0.00,140812,,A*6F
$GPGGA,120830.000,5320.5328,N,00148.2356,W,1,0,,287.0,M,,M,,*4C
$GPRMC,120830.000,A,5320.5328,N,00148.2356,W,0.000,0.00,140812,,A*61
$GPGGA,120845.000,5320.5286,N,00148.2259,W,1,0,,287.0,M,,M,,*45
$GPRMC,120845.000,A,5320.5286,N,00148.2259,W,0.000,0.00,140812,,A*68
$GPGGA,120900.000,5320.5307,N,00148.2144,W,1,0,,287.0,M,,M,,*42
$GPRMC,120900.000,A,5320.5307,N,00148.2144,W,0.000,0.00,140812,,A*6F
$GPGGA,120916.000,5320.5337,N,00148.2039,W,1,0,,287.0,M,,M,,*4D
$GPRMC,120916.000,A,5320.5337,N,00148.2039,W,0.000,0.00,140812,,A*60
$GPGGA,120944.000,5320.5309,N,00148.1902,W,1,0,,288.0,M,,M,,*4A
$GPRMC,120944.000,A,5320.5309,N,00148.1902,W,0.000,0.00,140812,,A*68
$GPGGA,120959.000,5320.5314,N,00148.1807,W,1,0,,287.0,M,,M,,*41
$GPRMC,120959.000,A,5320.5314,N,00148.1807,W,0.000,0.00,140812,,A*6C
$GPGGA,121016.000,5320.5286,N,00148.1674,W,1,0,,288.0,M,,M,,*4D
$GPRMC,121016.000,A,5320.5286,N,00148.1674,W,0.000,0.00,140812,,A*6F
$GPGGA,121032.000,5320.5286,N,00148.1503,W,1,0,,288.0,M,,M,,*48
$GPRMC,121032.000,A,5320.5286,N,00148.1503,W,0.000,0.00,140812,,A*6A
$GPGGA,121100.000,5320.5204,N,00148.1399,W,1,0,,288.0,M,,M,,*47
$GPRMC,121100.000,A,5320.5204,N,00148.1399,W,0.000,0.00,140812,,A*65
$GPGGA,121115.000,5320.5172,N,00148.1377,W,1,0,,289.0,M,,M,,*40
$GPRMC,121115.000,A,5320.5172,N,00148.1377,W,0.000,0.00,140812,,A*63
$GPGGA,121131.000,5320.5183,N,00148.1309,W,1,0,,289.0,M,,M,,*41
$GPRMC,121131.000,A,5320.5183,N,00148.1309,W,0.000,0.00,140812,,A*62
$GPGGA,121147.000,5320.5025,N,00148.1097,W,1,0,,289.0,M,,M,,*49
$GPRMC,121147.000,A,5320.5025,N,00148.1097,W,0.000,0.00,140812,,A*6A
$GPGGA,121202.000,5320.4943,N,00148.0936,W,1,0,,289.0,M,,M,,*40
$GPRMC,121202.000,A,5320.4943,N,00148.0936,W,0.000,0.00,140812,,A*63
$GPGGA,121217.000,5320.4936,N,00148.0917,W,1,0,,289.0,M,,M,,*45
$GPRMC,121217.000,A,5320.4936,N,00148.0917,W,0.000,0.00,140812,,A*66
$GPGGA,121232.000,5320.4934,N,00148.0824,W,1,0,,290.0,M,,M,,*49
$GPRMC,121232.000,A,5320.4934,N,00148.0824,W,0.000,0.00,140812,,A*62
$GPGGA,121247.000,5320.4939,N,00148.0755,W,1,0,,290.0,M,,M,,*4F
$GPRMC,121247.000,A,5320.4939,N,00148.0755,W,0.000,0.00,140812,,A*64
$GPGGA,121302.000,5320.4771,N,00148.0570,W,1,0,,290.0,M,,M,,*48
$GPRMC,121302.000,A,5320.4771,N,00148.0570,W,0.000,0.00,140812,,A*63
$GPGGA,121318.000,5320.4698,N,00148.0380,W,1,0,,290.0,M,,M,,*4C
$GPRMC,121318.000,A,5320.4698,N,00148.0380,W,0.000,0.00,140812,,A*67
$GPGGA,121333.000,5320.4648,N,00148.0306,W,1,0,,290.0,M,,M,,*46
$GPRMC,121333.000,A,5320.4648,N,00148.0306,W,0.000,0.00,140812,,A*6D
$GPGGA,121348.000,5320.4602,N,00148.0214,W,1,0,,290.0,M,,M,,*46
$GPRMC,121348.000,A,5320.4602,N,00148.0214,W,0.000,0.00,140812,,A*6D
$GPGGA,121404.000,5320.4565,N,00148.0003,W,1,0,,290.0,M,,M,,*4F
$GPRMC,121404.000,A,5320.4565,N,00148.0003,W,0.000,0.00,140812,,A*64
$GPGGA,121419.000,5320.4554,N,00147.9858,W,1,0,,290.0,M,,M,,*41
$GPRMC,121419.000,A,5320.4554,N,00147.9858,W,0.000,0.00,140812,,A*6A
$GPGGA,121434.000,5320.4524,N,00147.9808,W,1,0,,290.0,M,,M,,*4C
$GPRMC,121434.000,A,5320.4524,N,00147.9808,W,0.000,0.00,140812,,A*67
$GPGGA,121449.000,5320.4499,N,00147.9720,W,1,0,,290.0,M,,M,,*44
$GPRMC,121449.000,A,5320.4499,N,00147.9720,W,0.000,0.00,140812,,A*6F
$GPGGA,121505.000,5320.4449,N,00147.9440,W,1,0,,291.0,M,,M,,*44
$GPRMC,121505.000,A,5320.4449,N,00147.9440,W,0.000,0.00,140812,,A*6E
$GPGGA,121520.000,5320.4421,N,00147.9385,W,1,0,,291.0,M,,M,,*43
$GPRMC,121520.000,A,5320.4421,N,00147.9385,W,0.000,0.00,140812,,A*69
$GPGGA,121535.000,5320.4387,N,00147.9266,W,1,0,,291.0,M,,M,,*40
$GPRMC,121535.000,A,5320.4387,N,00147.9266,W,0.000,0.00,140812,,A*6A
$GPGGA,121551.000,5320.4364,N,00147.9131,W,1,0,,291.0,M,,M,,*4E
$GPRMC,121551.000,A,5320.4364,N,00147.9131,W,0.000,0.00,140812,,A*64
$GPGGA,121606.000,5320.4316,N,00147.9049,W,1,0,,291.0,M,,M,,*44
$GPRMC,121606.000,A,5320.4316,N,00147.9049,W,0.000,0.00,140812,,A*6E
$GPGGA,121624.000,5320.4387,N,00147.8803,W,1,0,,291.0,M,,M,,*4B
$GPRMC,121624.000,A,5320.4387,N,00147.8803,W,0.000,0.00,140812,,A*61
$GPGGA,121653.000,5320.4169,N,00147.8567,W,1,0,,291.0,M,,M,,*46
$GPRMC,121653.000,A,5320.4169,N,00147.8567,W,0.000,0.00,140812,,A*6C
$GPGGA,121708.000,5320.4131,N,00147.8513,W,1,0,,291.0,M,,M,,*47
$GPRMC,121708.000,A,5320.4131,N,00147.8513,W,0.000,0.00,140812,,A*6D
$GPGGA,121724.000,5320.4060,N,00147.8380,W,1,0,,291.0,M,,M,,*40
$GPRMC,121724.000,A,5320.4060,N,00147.8380,W,0.000,0.00,140812,,A*6A
$GPGGA,121740.000,5320.4080,N,00147.8301,W,1,0,,291.0,M,,M,,*45
$GPRMC,121740.000,A,5320.4080,N,00147.8301,W,0.000,0.00,140812,,A*6F
$GPGGA,121807.000,5320.4117,N,00147.8093,W,1,0,,291.0,M,,M,,*4E
$GPRMC,121807.000,A,5320.4117,N,00147.8093,W,0.000,0.00,140812,,A*64
$GPGGA,121823.000,5320.4153,N,00147.7907,W,1,0,,291.0,M,,M,,*43
$GPRMC,121823.000,A,5320.4153,N,00147.7907,W,0.000,0.00,140812,,A*69
$GPGGA,121840.000,5320.4247,N,00147.7732,W,1,0,,291.0,M,,M,,*48
$GPRMC,121840.000,A,5320.4247,N,00147.7732,W,0.000,0.00,140812,,A*62
$GPGGA,121855.000,5320.4286,N,00147.7581,W,1,0,,291.0,M,,M,,*4B
$GPRMC,121855.000,A,5320.4286,N,00147.7581,W,0.000,0.00,140812,,A*61
$GPGGA,121911.000,5320.4318,N,00147.7395,W,1,0,,291.0,M,,M,,*4F
$GPRMC,121911.000,A,5320.4318,N,00147.7395,W,0.000,0.00,140812,,A*65
$GPGGA,121927.000,5320.4433,N,00147.7259,W,1,0,,291.0,M,,M,,*45
$GPRMC,121927.000,A,5320.4433,N,00147.7259,W,0.000,0.00,140812,,A*6F
$GPGGA,121955.000,5320.4545,N,00147.6985,W,1,0,,291.0,M,,M,,*4B
$GPRMC,121955.000,A,5320.4545,N,00147.6985,W,0.000,0.00,140812,,A*61
$GPGGA,122010.000,5320.4604,N,00147.6829,W,1,0,,291.0,M,,M,,*41
$GPRMC,122010.000,A,5320.4604,N,00147.6829,W,0.000,0.00,140812,,A*6B
$GPGGA,122025.000,5320.4650,N,00147.6700,W,1,0,,291.0,M,,M,,*42
$GPRMC,122025.000,A,5320.4650,N,00147.6700,W,0.000,0.00,140812,,A*68
$GPGGA,122040.000,5320.4682,N,00147.6575,W,1,0,,291.0,M,,M,,*4E
$GPRMC,122040.000,A,5320.4682,N,00147.6575,W,0.000,0.00,140812,,A*64
$GPGGA,122056.000,5320.4719,N,00147.6415,W,1,0,,291.0,M,,M,,*4D
$GPRMC,122056.000,A,5320.4719,N,00147.6415,W,0.000,0.00,140812,,A*67
$GPGGA,122112.000,5320.4769,N,00147.6211,W,1,0,,291.0,M,,M,,*49
$GPRMC,122112.000,A,5320.4769,N,00147.6211,W,0.000,0.00,140812,,A*63
$GPGGA,122128.000,5320.4884,N,00147.5967,W,1,0,,291.0,M,,M,,*45
$GPRMC,122128.000,A,5320.4884,N,00147.5967,W,0.000,0.00,140812,,A*6F
$GPGGA,122144.000,5320.4913,N,00147.5803,W,1,0,,291.0,M,,M,,*43
$GPRMC,122144.000,A,5320.4913,N,00147.5803,W,0.000,0.00,140812,,A*69
$GPGGA,122213.000,5320.4955,N,00147.5635,W,1,0,,291.0,M,,M,,*4B
$GPRMC,122213.000,A,5320.4955,N,00147.5635,W,0.000,0.00,140812,,A*61
$GPGGA,122228.000,5320.4959,N,00147.5450,W,1,0,,291.0,M,,M,,*4E
$GPRMC,122228.000,A,5320.4959,N,00147.5450,W,0.000,0.00,140812,,A*64
$GPGGA,122244.000,5320.4932,N,00147.5235,W,1,0,,291.0,M,,M,,*4C
$GPRMC,122244.000,A,5320.4932,N,00147.5235,W,0.000,0.00,140812,,A*66
$GPGGA,122259.000,5320.5051,N,00147.5162,W,1,0,,291.0,M,,M,,*4C
$GPRMC,122259.000,A,5320.5051,N,00147.5162,W,0.000,0.00,140812,,A*66
$GPGGA,122315.000,5320.5005,N,00147.4912,W,1,0,,291.0,M,,M,,*4A
$GPRMC,122315.000,A,5320.5005,N,00147.4912,W,0.000,0.00,140812,,A*60
$GPGGA,122330.000,5320.5071,N,00147.4742,W,1,0,,291.0,M,,M,,*45
$GPRMC,122330.000,A,5320.5071,N,00147.4742,W,0.000,0.00,140812,,A*6F
$GPGGA,122346.000,5320.4952,N,00147.4628,W,1,0,,291.0,M,,M,,*40
$GPRMC,122346.000,A,5320.4952,N,00147.4628,W,0.000,0.00,140812,,A*6A
$GPGGA,122401.000,5320.4897,N,00147.4511,W,1,0,,291.0,M,,M,,*45
$GPRMC,122401.000,A,5320.4897,N,00147.4511,W,0.000,0.00,140812,,A*6F
$GPGGA,122423.000,5320.4854,N,00147.4344,W,1,0,,291.0,M,,M,,*4C
$GPRMC,122423.000,A,5320.4854,N,00147.4344,W,0.000,0.00,140812,,A*66
$GPGGA,122441.000,5320.4728,N,00147.4261,W,1,0,,291.0,M,,M,,*4A
$GPRMC,122441.000,A,5320.4728,N,00147.4261,W,0.000,0.00,140812,,A*60
$GPGGA,122456.000,5320.4682,N,00147.4029,W,1,0,,291.0,M,,M,,*43
$GPRMC,122456.000,A,5320.4682,N,00147.4029,W,0.000,0.00,140812,,A*69
$GPGGA,122512.000,5320.4671,N,00147.3905,W,1,0,,291.0,M,,M,,*4E
$GPRMC,122512.000,A,5320.4671,N,00147.3905,W,0.000,0.00,140812,,A*64
$GPGGA,122527.000,5320.4728,N,00147.3945,W,1,0,,291.0,M,,M,,*41
$GPRMC,122527.000,A,5320.4728,N,00147.3945,W,0.000,0.00,140812,,A*6B
$GPGGA,122542.000,5320.4771,N,00147.3942,W,1,0,,291.0,M,,M,,*49
$GPRMC,122542.000,A,5320.4771,N,00147.3942,W,0.000,0.00,140812,,A*63
$GPGGA,122557.000,5320.4678,N,00147.3849,W,1,0,,291.0,M,,M,,*4F
$GPRMC,122557.000,A,5320.4678,N,00147.3849,W,0.000,0.00,140812,,A*65
$GPGGA,122612.000,5320.4540,N,00147.3669,W,1,0,,291.0,M,,M,,*49
$GPRMC,122612.000,A,5320.4540,N,00147.3669,W,0.000,0.00,140812,,A*63
$GPGGA,122628.000,5320.4556,N,00147.3606,W,1,0,,291.0,M,,M,,*4E
$GPRMC,122628.000,A,5320.4556,N,00147.3606,W,0.000,0.00,140812,,A*64
$GPGGA,122643.000,5320.4419,N,00147.3191,W,1,0,,291.0,M,,M,,*40
$GPRMC,122643.000,A,5320.4419,N,00147.3191,W,0.000,0.00,140812,,A*6A
$GPGGA,122658.000,5320.4353,N,00147.3034,W,1,0,,292.0,M,,M,,*4E
$GPRMC,122658.000,A,5320.4353,N,00147.3034,W,0.000,0.00,140812,,A*67
$GPGGA,122713.000,5320.4293,N,00147.2956,W,1,0,,292.0,M,,M,,*41
$GPRMC,122713.000,A,5320.4293,N,00147.2956,W,0.000,0.00,140812,,A*68
$GPGGA,122728.000,5320.4227,N,00147.2775,W,1,0,,291.0,M,,M,,*4A
$GPRMC,122728.000,A,5320.4227,N,00147.2775,W,0.000,0.00,140812,,A*60
$GPGGA,122743.000,5320.4215,N,00147.2700,W,1,0,,290.0,M,,M,,*45
$GPRMC,122743.000,A,5320.4215,N,00147.2700,W,0.000,0.00,140812,,A*6E
$GPGGA,122758.000,5320.4144,N,00147.2564,W,1,0,,289.0,M,,M,,*40
$GPRMC,122758.000,A,5320.4144,N,00147.2564,W,0.000,0.00,140812,,A*63
$GPGGA,122813.000,5320.4080,N,00147.2460,W,1,0,,284.0,M,,M,,*41
$GPRMC,122813.000,A,5320.4080,N,00147.2460,W,0.000,0.00,140812,,A*6F
$GPGGA,122828.000,5320.4016,N,00147.2379,W,1,0,,278.0,M,,M,,*4A
$GPRMC,122828.000,A,5320.4016,N,00147.2379,W,0.000,0.00,140812,,A*67
$GPGGA,122843.000,5320.3931,N,00147.2280,W,1,0,,274.0,M,,M,,*47
$GPRMC,122843.000,A,5320.3931,N,00147.2280,W,0.000,0.00,140812,,A*66
$GPGGA,122858.000,5320.3899,N,00147.2196,W,1,0,,268.0,M,,M,,*47
$GPRMC,122858.000,A,5320.3899,N,00147.2196,W,0.000,0.00,140812,,A*6B
$GPGGA,122913.000,5320.3838,N,00147.2190,W,1,0,,262.0,M,,M,,*4E
$GPRMC,122913.000,A,5320.3838,N,00147.2190,W,0.000,0.00,140812,,A*68
$GPGGA,122933.000,5320.3785,N,00147.2077,W,1,0,,259.0,M,,M,,*45
$GPRMC,122933.000,A,5320.3785,N,00147.2077,W,0.000,0.00,140812,,A*6B
$GPGGA,122951.000,5320.3709,N,00147.1969,W,1,0,,258.0,M,,M,,*41
$GPRMC,122951.000,A,5320.3709,N,00147.1969,W,0.000,0.00,140812,,A*6E
$GPGGA,123006.000,5320.3671,N,00147.1859,W,1,0,,258.0,M,,M,,*47
$GPRMC,123006.000,A,5320.3671,N,00147.1859,W,0.000,0.00,140812,,A*68
$GPGGA,123022.000,5320.3627,N,00147.1699,W,1,0,,258.0,M,,M,,*40
$GPRMC,123022.000,A,5320.3627,N,00147.1699,W,0.000,0.00,140812,,A*6F
$GPGGA,123037.000,5320.3625,N,00147.1493,W,1,0,,258.0,M,,M,,*4E
$GPRMC,123037.000,A,5320.3625,N,00147.1493,W,0.000,0.00,140812,,A*61
$GPGGA,123052.000,5320.3561,N,00147.1398,W,1,0,,258.0,M,,M,,*42
$GPRMC,123052.000,A,5320.3561,N,00147.1398,W,0.000,0.00,140812,,A*6D
$GPGGA,123108.000,5320.3508,N,00147.1148,W,1,0,,258.0,M,,M,,*4C
$GPRMC,123108.000,A,5320.3508,N,00147.1148,W,0.000,0.00,140812,,A*63
$GPGGA,123123.000,5320.3526,N,00147.1049,W,1,0,,258.0,M,,M,,*49
$GPRMC,123123.000,A,5320.3526,N,00147.1049,W,0.000,0.00,140812,,A*66
$GPGGA,123139.000,5320.3542,N,00147.0895,W,1,0,,258.0,M,,M,,*48
$GPRMC,123139.000,A,5320.3542,N,00147.0895,W,0.000,0.00,140812,,A*67
$GPGGA,123154.000,5320.3581,N,00147.0763,W,1,0,,258.0,M,,M,,*4A
$GPRMC,123154.000,A,5320.3581,N,00147.0763,W,0.000,0.00,140812,,A*65
$GPGGA,123209.000,5320.3629,N,00147.0561,W,1,0,,257.0,M,,M,,*4F
$GPRMC,123209.000,A,5320.3629,N,00147.0561,W,0.000,0.00,140812,,A*6F
$GPGGA,123224.000,5320.3654,N,00147.0468,W,1,0,,257.0,M,,M,,*42
$GPRMC,123224.000,A,5320.3654,N,00147.0468,W,0.000,0.00,140812,,A*62
$GPGGA,123239.000,5320.3652,N,00147.0377,W,1,0,,257.0,M,,M,,*41
$GPRMC,123239.000,A,5320.3652,N,00147.0377,W,0.000,0.00,140812,,A*61
$GPGGA,123255.000,5320.3712,N,00147.0179,W,1,0,,257.0,M,,M,,*42
$GPRMC,123255.000,A,5320.3712,N,00147.0179,W,0.000,0.00,140812,,A*62
$GPGGA,123311.000,5320.3794,N,00146.9959,W,1,0,,258.0,M,,M,,*40
$GPRMC,123311.000,A,5320.3794,N,00146.9959,W,0.000,0.00,140812,,A*6F
$GPGGA,123327.000,5320.3828,N,00146.9857,W,1,0,,257.0,M,,M,,*4D
$GPRMC,123327.000,A,5320.3828,N,00146.9857,W,0.000,0.00,140812,,A*6D
$GPGGA,123343.000,5320.3931,N,00146.9785,W,1,0,,257.0,M,,M,,*46
$GPRMC,123343.000,A,5320.3931,N,00146.9785,W,0.000,0.00,140812,,A*66
$GPGGA,123358.000,5320.3989,N,00146.9676,W,1,0,,257.0,M,,M,,*42
$GPRMC,123358.000,A,5320.3989,N,00146.9676,W,0.000,0.00,140812,,A*62
$GPGGA,123413.000,5320.4062,N,00146.9499,W,1,0,,257.0,M,,M,,*42
$GPRMC,123413.000,A,5320.4062,N,00146.9499,W,0.000,0.00,140812,,A*62
$GPGGA,123428.000,5320.4082,N,00146.9413,W,1,0,,257.0,M,,M,,*46
$GPRMC,123428.000,A,5320.4082,N,00146.9413,W,0.000,0.00,140812,,A*66
$GPGGA,123443.000,5320.4142,N,00146.9284,W,1,0,,257.0,M,,M,,*4E
$GPRMC,123443.000,A,5320.4142,N,00146.9284,W,0.000,0.00,140812,,A*6E
$GPGGA,123500.000,5320.4234,N,00146.9078,W,1,0,,257.0,M,,M,,*4B
$GPRMC,123500.000,A,5320.4234,N,00146.9078,W,0.000,0.00,140812,,A*6B
$GPGGA,123515.000,5320.4268,N,00146.9022,W,1,0,,257.0,M,,M,,*49
