@Sonygps/ver3.0/wgs-84/
$GPGGA,104233.000,5417.3987,N,00050.4751,W,1,0,,134.0,M,,M,,*4F
$GPRMC,104233.000,A,5417.3987,N,00050.4751,W,0.000,0.00,260812,,A*68
$GPGGA,104248.000,5417.3893,N,00050.4781,W,1,0,,136.0,M,,M,,*48
$GPRMC,104248.000,A,5417.3893,N,00050.4781,W,0.000,0.00,260812,,A*6D
$GPGGA,104303.000,5417.3781,N,00050.4810,W,1,0,,136.0,M,,M,,*4D
$GPRMC,104303.000,A,5417.3781,N,00050.4810,W,0.000,0.00,260812,,A*68
$GPGGA,104331.000,5417.3607,N,00050.4875,W,1,0,,136.0,M,,M,,*40
$GPRMC,104331.000,A,5417.3607,N,00050.4875,W,0.000,0.00,260812,,A*65
$GPGGA,104346.000,5417.3563,N,00050.4964,W,1,0,,136.0,M,,M,,*40
$GPRMC,104346.000,A,5417.3563,N,00050.4964,W,0.000,0.00,260812,,A*65
$GPGGA,104401.000,5417.3547,N,00050.4994,W,1,0,,136.0,M,,M,,*4D
$GPRMC,104401.000,A,5417.3547,N,00050.4994,W,0.000,0.00,260812,,A*68
$GPGGA,104418.000,5417.3405,N,00050.5144,W,1,0,,136.0,M,,M,,*46
$GPRMC,104418.000,A,5417.3405,N,00050.5144,W,0.000,0.00,260812,,A*63
$GPGGA,104435.000,5417.3302,N,00050.5513,W,1,0,,136.0,M,,M,,*4F
$GPRMC,104435.000,A,5417.3302,N,00050.5513,W,0.000,0.00,260812,,A*6A
$GPGGA,104451.000,5417.3261,N,00050.5569,W,1,0,,136.0,M,,M,,*44
$GPRMC,104451.000,A,5417.3261,N,00050.5569,W,0.000,0.00,260812,,A*61
$GPGGA,104506.000,5417.3172,N,00050.5670,W,1,0,,136.0,M,,M,,*4D
$GPRMC,104506.000,A,5417.3172,N,00050.5670,W,0.000,0.00,260812,,A*68
$GPGGA,104522.000,5417.3039,N,00050.5881,W,1,0,,136.0,M,,M,,*45
$GPRMC,104522.000,A,5417.3039,N,00050.5881,W,0.000,0.00,260812,,A*60
$GPGGA,104537.000,5417.2984,N,00050.5938,W,1,0,,136.0,M,,M,,*4C
$GPRMC,104537.000,A,5417.2984,N,00050.5938,W,0.000,0.00,260812,,A*69
$GPGGA,104552.000,5417.2870,N,00050.6012,W,1,0,,136.0,M,,M,,*47
$GPRMC,104552.000,A,5417.2870,N,00050.6012,W,0.000,0.00,260812,,A*62
$GPGGA,104607.000,5417.2840,N,00050.6094,W,1,0,,136.0,M,,M,,*49
$GPRMC,104607.000,A,5417.2840,N,00050.6094,W,0.000,0.00,260812,,A*6C
$GPGGA,104623.000,5417.2627,N,00050.6114,W,1,0,,136.0,M,,M,,*49
$GPRMC,104623.000,A,5417.2627,N,00050.6114,W,0.000,0.00,260812,,A*6C
$GPGGA,104639.000,5417.2554,N,00050.6108,W,1,0,,136.0,M,,M,,*48
$GPRMC,104639.000,A,5417.2554,N,00050.6108,W,0.000,0.00,260812,,A*6D
$GPGGA,104654.000,5417.2460,N,00050.6070,W,1,0,,135.0,M,,M,,*48
$GPRMC,104654.000,A,5417.2460,N,00050.6070,W,0.000,0.00,260812,,A*6E
$GPGGA,104711.000,5417.2359,N,00050.6040,W,1,0,,136.0,M,,M,,*45
$GPRMC,104711.000,A,5417.2359,N,00050.6040,W,0.000,0.00,260812,,A*60
$GPGGA,104726.000,5417.2218,N,00050.6018,W,1,0,,135.0,M,,M,,*4B
$GPRMC,104726.000,A,5417.2218,N,00050.6018,W,0.000,0.00,260812,,A*6D
$GPGGA,104741.000,5417.2174,N,00050.5999,W,1,0,,135.0,M,,M,,*40
$GPRMC,104741.000,A,5417.2174,N,00050.5999,W,0.000,0.00,260812,,A*66
$GPGGA,104759.000,5417.2044,N,00050.5959,W,1,0,,135.0,M,,M,,*47
$GPRMC,104759.000,A,5417.2044,N,00050.5959,W,0.000,0.00,260812,,A*61
$GPGGA,104815.000,5417.1915,N,00050.5993,W,1,0,,135.0,M,,M,,*48
$GPRMC,104815.000,A,5417.1915,N,00050.5993,W,0.000,0.00,260812,,A*6E
$GPGGA,104830.000,5417.1796,N,00050.6082,W,1,0,,135.0,M,,M,,*40
$GPRMC,104830.000,A,5417.1796,N,00050.6082,W,0.000,0.00,260812,,A*66
$GPGGA,104846.000,5417.1652,N,00050.6077,W,1,0,,135.0,M,,M,,*42
$GPRMC,104846.000,A,5417.1652,N,00050.6077,W,0.000,0.00,260812,,A*64
$GPGGA,104902.000,5417.1622,N,00050.6086,W,1,0,,135.0,M,,M,,*4A
$GPRMC,104902.000,A,5417.1622,N,00050.6086,W,0.000,0.00,260812,,A*6C
$GPGGA,104917.000,5417.1574,N,00050.6127,W,1,0,,135.0,M,,M,,*44
$GPRMC,104917.000,A,5417.1574,N,00050.6127,W,0.000,0.00,260812,,A*62
$GPGGA,104933.000,5417.1421,N,00050.6107,W,1,0,,135.0,M,,M,,*41
$GPRMC,104933.000,A,5417.1421,N,00050.6107,W,0.000,0.00,260812,,A*67
$GPGGA,104948.000,5417.1336,N,00050.6138,W,1,0,,135.0,M,,M,,*40
$GPRMC,104948.000,A,5417.1336,N,00050.6138,W,0.000,0.00,260812,,A*66
$GPGGA,105015.000,5417.1158,N,00050.6230,W,1,0,,135.0,M,,M,,*41
$GPRMC,105015.000,A,5417.1158,N,00050.6230,W,0.000,0.00,260812,,A*67
$GPGGA,105030.000,5417.1016,N,00050.6376,W,1,0,,134.0,M,,M,,*4F
$GPRMC,105030.000,A,5417.1016,N,00050.6376,W,0.000,0.00,260812,,A*68
$GPGGA,105045.000,5417.0934,N,00050.6490,W,1,0,,134.0,M,,M,,*4A
$GPRMC,105045.000,A,5417.0934,N,00050.6490,W,0.000,0.00,260812,,A*6D
$GPGGA,105100.000,5417.0844,N,00050.6539,W,1,0,,134.0,M,,M,,*4E
$GPRMC,105100.000,A,5417.0844,N,00050.6539,W,0.000,0.00,260812,,A*69
$GPGGA,105115.000,5417.0755,N,00050.6692,W,1,0,,134.0,M,,M,,*47
$GPRMC,105115.000,A,5417.0755,N,00050.6692,W,0.000,0.00,260812,,A*60
$GPGGA,105130.000,5417.0677,N,00050.6725,W,1,0,,134.0,M,,M,,*4C
$GPRMC,105130.000,A,5417.0677,N,00050.6725,W,0.000,0.00,260812,,A*6B
$GPGGA,105145.000,5417.0595,N,00050.6829,W,1,0,,133.0,M,,M,,*45
$GPRMC,105145.000,A,5417.0595,N,00050.6829,W,0.000,0.00,260812,,A*65
$GPGGA,105215.000,5417.0446,N,00050.6888,W,1,0,,133.0,M,,M,,*47
$GPRMC,105215.000,A,5417.0446,N,00050.6888,W,0.000,0.00,260812,,A*67
$GPGGA,105231.000,5417.0270,N,00050.6949,W,1,0,,133.0,M,,M,,*4E
$GPRMC,105231.000,A,5417.0270,N,00050.6949,W,0.000,0.00,260812,,A*6E
$GPGGA,105246.000,5417.0251,N,00050.6955,W,1,0,,133.0,M,,M,,*40
$GPRMC,105246.000,A,5417.0251,N,00050.6955,W,0.000,0.00,260812,,A*60
$GPGGA,105315.000,5417.0107,N,00050.6953,W,1,0,,133.0,M,,M,,*41
$GPRMC,105315.000,A,5417.0107,N,00050.6953,W,0.000,0.00,260812,,A*61
$GPGGA,105330.000,5417.0000,N,00050.6916,W,1,0,,133.0,M,,M,,*41
$GPRMC,105330.000,A,5417.0000,N,00050.6916,W,0.000,0.00,260812,,A*61
$GPGGA,105345.000,5416.9858,N,00050.6893,W,1,0,,132.0,M,,M,,*43
$GPRMC,105345.000,A,5416.9858,N,00050.6893,W,0.000,0.00,260812,,A*62
$GPGGA,105400.000,5416.9821,N,00050.6864,W,1,0,,132.0,M,,M,,*43
$GPRMC,105400.000,A,5416.9821,N,00050.6864,W,0.000,0.00,260812,,A*62
$GPGGA,105415.000,5416.9814,N,00050.6850,W,1,0,,132.0,M,,M,,*46
$GPRMC,105415.000,A,5416.9814,N,00050.6850,W,0.000,0.00,260812,,A*67
$GPGGA,105430.000,5416.9803,N,00050.6842,W,1,0,,132.0,M,,M,,*44
$GPRMC,105430.000,A,5416.9803,N,00050.6842,W,0.000,0.00,260812,,A*65
$GPGGA,105445.000,5416.9698,N,00050.6909,W,1,0,,132.0,M,,M,,*44
$GPRMC,105445.000,A,5416.9698,N,00050.6909,W,0.000,0.00,260812,,A*65
$GPGGA,105500.000,5416.9636,N,00050.7044,W,1,0,,132.0,M,,M,,*41
$GPRMC,105500.000,A,5416.9636,N,00050.7044,W,0.000,0.00,260812,,A*60
$GPGGA,105515.000,5416.9590,N,00050.7206,W,1,0,,131.0,M,,M,,*4D
$GPRMC,105515.000,A,5416.9590,N,00050.7206,W,0.000,0.00,260812,,A*6F
$GPGGA,105530.000,5416.9512,N,00050.7362,W,1,0,,128.0,M,,M,,*4B
$GPRMC,105530.000,A,5416.9512,N,00050.7362,W,0.000,0.00,260812,,A*61
$GPGGA,105545.000,5416.9444,N,00050.7532,W,1,0,,118.0,M,,M,,*4B
$GPRMC,105545.000,A,5416.9444,N,00050.7532,W,0.000,0.00,260812,,A*62
$GPGGA,105600.000,5416.9485,N,00050.7831,W,1,0,,103.0,M,,M,,*40
$GPRMC,105600.000,A,5416.9485,N,00050.7831,W,0.000,0.00,260812,,A*63
$GPGGA,105615.000,5416.9446,N,00050.7867,W,1,0,,102.0,M,,M,,*49
$GPRMC,105615.000,A,5416.9446,N,00050.7867,W,0.000,0.00,260812,,A*6B
$GPGGA,105631.000,5416.9334,N,00050.7914,W,1,0,,102.0,M,,M,,*48
$GPRMC,105631.000,A,5416.9334,N,00050.7914,W,0.000,0.00,260812,,A*6A
$GPGGA,105647.000,5416.9189,N,00050.8104,W,1,0,,102.0,M,,M,,*4B
$GPRMC,105647.000,A,5416.9189,N,00050.8104,W,0.000,0.00,260812,,A*69
$GPGGA,105702.000,5416.9146,N,00050.8128,W,1,0,,102.0,M,,M,,*46
$GPRMC,105702.000,A,5416.9146,N,00050.8128,W,0.000,0.00,260812,,A*64
$GPGGA,105717.000,5416.9068,N,00050.8199,W,1,0,,102.0,M,,M,,*45
$GPRMC,105717.000,A,5416.9068,N,00050.8199,W,0.000,0.00,260812,,A*67
$GPGGA,105732.000,5416.9029,N,00050.8367,W,1,0,,102.0,M,,M,,*44
$GPRMC,105732.000,A,5416.9029,N,00050.8367,W,0.000,0.00,260812,,A*66
$GPGGA,105747.000,5416.8924,N,00050.8293,W,1,0,,102.0,M,,M,,*49
$GPRMC,105747.000,A,5416.8924,N,00050.8293,W,0.000,0.00,260812,,A*6B
$GPGGA,105802.000,5416.8993,N,00050.8330,W,1,0,,102.0,M,,M,,*43
$GPRMC,105802.000,A,5416.8993,N,00050.8330,W,0.000,0.00,260812,,A*61
$GPGGA,105818.000,5416.8999,N,00050.8383,W,1,0,,102.0,M,,M,,*4A
$GPRMC,105818.000,A,5416.8999,N,00050.8383,W,0.000,0.00,260812,,A*68
$GPGGA,105838.000,5416.9050,N,00050.8424,W,1,0,,102.0,M,,M,,*4F
$GPRMC,105838.000,A,5416.9050,N,00050.8424,W,0.000,0.00,260812,,A*6D
$GPGGA,105853.000,5416.9009,N,00050.8513,W,1,0,,102.0,M,,M,,*4B
$GPRMC,105853.000,A,5416.9009,N,00050.8513,W,0.000,0.00,260812,,A*69
$GPGGA,105909.000,5416.8963,N,00050.8649,W,1,0,,102.0,M,,M,,*4D
$GPRMC,105909.000,A,5416.8963,N,00050.8649,W,0.000,0.00,260812,,A*6F
$GPGGA,105924.000,5416.8933,N,00050.8805,W,1,0,,102.0,M,,M,,*41
$GPRMC,105924.000,A,5416.8933,N,00050.8805,W,0.000,0.00,260812,,A*63
$GPGGA,105939.000,5416.8906,N,00050.8851,W,1,0,,102.0,M,,M,,*4A
$GPRMC,105939.000,A,5416.8906,N,00050.8851,W,0.000,0.00,260812,,A*68
$GPGGA,105954.000,5416.8906,N,00050.8964,W,1,0,,102.0,M,,M,,*46
$GPRMC,105954.000,A,5416.8906,N,00050.8964,W,0.000,0.00,260812,,A*64
$GPGGA,110017.000,5416.8885,N,00050.8966,W,1,0,,102.0,M,,M,,*44
$GPRMC,110017.000,A,5416.8885,N,00050.8966,W,0.000,0.00,260812,,A*66
$GPGGA,110032.000,5416.8853,N,00050.8962,W,1,0,,102.0,M,,M,,*4C
$GPRMC,110032.000,A,5416.8853,N,00050.8962,W,0.000,0.00,260812,,A*6E
$GPGGA,110047.000,5416.8846,N,00050.9103,W,1,0,,102.0,M,,M,,*44
$GPRMC,110047.000,A,5416.8846,N,00050.9103,W,0.000,0.00,260812,,A*66
$GPGGA,110104.000,5416.8860,N,00050.9227,W,1,0,,102.0,M,,M,,*43
$GPRMC,110104.000,A,5416.8860,N,00050.9227,W,0.000,0.00,260812,,A*61
$GPGGA,110120.000,5416.8826,N,00050.9466,W,1,0,,102.0,M,,M,,*44
$GPRMC,110120.000,A,5416.8826,N,00050.9466,W,0.000,0.00,260812,,A*66
$GPGGA,110148.000,5416.8748,N,00050.9515,W,1,0,,102.0,M,,M,,*48
$GPRMC,110148.000,A,5416.8748,N,00050.9515,W,0.000,0.00,260812,,A*6A
$GPGGA,110204.000,5416.8626,N,00050.9629,W,1,0,,102.0,M,,M,,*46
$GPRMC,110204.000,A,5416.8626,N,00050.9629,W,0.000,0.00,260812,,A*64
$GPGGA,110219.000,5416.8581,N,00050.9661,W,1,0,,102.0,M,,M,,*48
$GPRMC,110219.000,A,5416.8581,N,00050.9661,W,0.000,0.00,260812,,A*6A
$GPGGA,110234.000,5416.8514,N,00050.9779,W,1,0,,102.0,M,,M,,*43
$GPRMC,110234.000,A,5416.8514,N,00050.9779,W,0.000,0.00,260812,,A*61
$GPGGA,110249.000,5416.8521,N,00050.9778,W,1,0,,102.0,M,,M,,*4E
$GPRMC,110249.000,A,5416.8521,N,00050.9778,W,0.000,0.00,260812,,A*6C
$GPGGA,110304.000,5416.8528,N,00050.9803,W,1,0,,102.0,M,,M,,*4C
$GPRMC,110304.000,A,5416.8528,N,00050.9803,W,0.000,0.00,260812,,A*6E
$GPGGA,110319.000,5416.8517,N,00050.9825,W,1,0,,102.0,M,,M,,*48
$GPRMC,110319.000,A,5416.8517,N,00050.9825,W,0.000,0.00,260812,,A*6A
$GPGGA,110335.000,5416.8464,N,00050.9860,W,1,0,,101.0,M,,M,,*41
$GPRMC,110335.000,A,5416.8464,N,00050.9860,W,0.000,0.00,260812,,A*60
$GPGGA,110350.000,5416.8368,N,00050.9902,W,1,0,,101.0,M,,M,,*4C
$GPRMC,110350.000,A,5416.8368,N,00050.9902,W,0.000,0.00,260812,,A*6D
$GPGGA,110405.000,5416.8320,N,00050.9933,W,1,0,,101.0,M,,M,,*45
$GPRMC,110405.000,A,5416.8320,N,00050.9933,W,0.000,0.00,260812,,A*64
$GPGGA,110421.000,5416.8304,N,00050.9881,W,1,0,,101.0,M,,M,,*4D
$GPRMC,110421.000,A,5416.8304,N,00050.9881,W,0.000,0.00,260812,,A*6C
$GPGGA,110436.000,5416.8311,N,00050.9916,W,1,0,,101.0,M,,M,,*40
$GPRMC,110436.000,A,5416.8311,N,00050.9916,W,0.000,0.00,260812,,A*61
$GPGGA,110451.000,5416.8306,N,00050.9948,W,1,0,,101.0,M,,M,,*4C
$GPRMC,110451.000,A,5416.8306,N,00050.9948,W,0.000,0.00,260812,,A*6D
$GPGGA,110506.000,5416.8285,N,00050.9945,W,1,0,,101.0,M,,M,,*48
$GPRMC,110506.000,A,5416.8285,N,00050.9945,W,0.000,0.00,260812,,A*69
$GPGGA,110521.000,5416.8258,N,00050.9952,W,1,0,,101.0,M,,M,,*4B
$GPRMC,110521.000,A,5416.8258,N,00050.9952,W,0.000,0.00,260812,,A*6A
$GPGGA,110538.000,5416.8262,N,00050.9936,W,1,0,,101.0,M,,M,,*48
$GPRMC,110538.000,A,5416.8262,N,00050.9936,W,0.000,0.00,260812,,A*69
$GPGGA,110553.000,5416.8205,N,00050.9947,W,1,0,,101.0,M,,M,,*42
$GPRMC,110553.000,A,5416.8205,N,00050.9947,W,0.000,0.00,260812,,A*63
$GPGGA,110608.000,5416.8237,N,00050.9976,W,1,0,,101.0,M,,M,,*4C
$GPRMC,110608.000,A,5416.8237,N,00050.9976,W,0.000,0.00,260812,,A*6D
$GPGGA,110623.000,5416.8276,N,00051.0024,W,1,0,,101.0,M,,M,,*46
$GPRMC,110623.000,A,5416.8276,N,00051.0024,W,0.000,0.00,260812,,A*67
$GPGGA,110639.000,5416.8285,N,00051.0126,W,1,0,,101.0,M,,M,,*42
$GPRMC,110639.000,A,5416.8285,N,00051.0126,W,0.000,0.00,260812,,A*63
$GPGGA,110654.000,5416.8251,N,00051.0163,W,1,0,,101.0,M,,M,,*41
$GPRMC,110654.000,A,5416.8251,N,00051.0163,W,0.000,0.00,260812,,A*60
$GPGGA,110709.000,5416.8210,N,00051.0297,W,1,0,,101.0,M,,M,,*45
$GPRMC,110709.000,A,5416.8210,N,00051.0297,W,0.000,0.00,260812,,A*64
$GPGGA,110725.000,5416.8137,N,00051.0491,W,1,0,,101.0,M,,M,,*4D
$GPRMC,110725.000,A,5416.8137,N,00051.0491,W,0.000,0.00,260812,,A*6C
$GPGGA,110741.000,5416.8063,N,00051.0578,W,1,0,,101.0,M,,M,,*49
$GPRMC,110741.000,A,5416.8063,N,00051.0578,W,0.000,0.00,260812,,A*68
$GPGGA,110756.000,5416.8050,N,00051.0632,W,1,0,,101.0,M,,M,,*42
$GPRMC,110756.000,A,5416.8050,N,00051.0632,W,0.000,0.00,260812,,A*63
$GPGGA,110812.000,5416.7931,N,00051.0914,W,1,0,,101.0,M,,M,,*47
$GPRMC,110812.000,A,5416.7931,N,00051.0914,W,0.000,0.00,260812,,A*66
$GPGGA,110841.000,5416.7834,N,00051.1153,W,1,0,,100.0,M,,M,,*4E
$GPRMC,110841.000,A,5416.7834,N,00051.1153,W,0.000,0.00,260812,,A*6E
$GPGGA,110857.000,5416.7818,N,00051.1248,W,1,0,,100.0,M,,M,,*4E
$GPRMC,110857.000,A,5416.7818,N,00051.1248,W,0.000,0.00,260812,,A*6E
$GPGGA,110913.000,5416.7754,N,00051.1386,W,1,0,,100.0,M,,M,,*4B
$GPRMC,110913.000,A,5416.7754,N,00051.1386,W,0.000,0.00,260812,,A*6B
$GPGGA,110942.000,5416.7720,N,00051.1652,W,1,0,,100.0,M,,M,,*40
$GPRMC,110942.000,A,5416.7720,N,00051.1652,W,0.000,0.00,260812,,A*60
$GPGGA,110957.000,5416.7640,N,00051.1819,W,1,0,,100.0,M,,M,,*42
$GPRMC,110957.000,A,5416.7640,N,00051.1819,W,0.000,0.00,260812,,A*62
$GPGGA,111013.000,5416.7555,N,00051.1826,W,1,0,,100.0,M,,M,,*41
$GPRMC,111013.000,A,5416.7555,N,00051.1826,W,0.000,0.00,260812,,A*61
$GPGGA,111029.000,5416.7471,N,00051.1939,W,1,0,,100.0,M,,M,,*40
$GPRMC,111029.000,A,5416.7471,N,00051.1939,W,0.000,0.00,260812,,A*60
$GPGGA,111056.000,5416.7413,N,00051.1965,W,1,0,,100.0,M,,M,,*45
$GPRMC,111056.000,A,5416.7413,N,00051.1965,W,0.000,0.00,260812,,A*65
$GPGGA,111113.000,5416.7326,N,00051.1977,W,1,0,,100.0,M,,M,,*47
$GPRMC,111113.000,A,5416.7326,N,00051.1977,W,0.000,0.00,260812,,A*67
$GPGGA,111128.000,5416.7269,N,00051.1980,W,1,0,,100.0,M,,M,,*4D
$GPRMC,111128.000,A,5416.7269,N,00051.1980,W,0.000,0.00,260812,,A*6D
$GPGGA,111143.000,5416.7267,N,00051.1999,W,1,0,,100.0,M,,M,,*46
$GPRMC,111143.000,A,5416.7267,N,00051.1999,W,0.000,0.00,260812,,A*66
$GPGGA,111200.000,5416.7221,N,00051.1928,W,1,0,,100.0,M,,M,,*4A
$GPRMC,111200.000,A,5416.7221,N,00051.1928,W,0.000,0.00,260812,,A*6A
$GPGGA,111216.000,5416.7175,N,00051.1923,W,1,0,,100.0,M,,M,,*44
$GPRMC,111216.000,A,5416.7175,N,00051.1923,W,0.000,0.00,260812,,A*64
$GPGGA,111243.000,5416.7040,N,00051.1938,W,1,0,,100.0,M,,M,,*49
$GPRMC,111243.000,A,5416.7040,N,00051.1938,W,0.000,0.00,260812,,A*69
$GPGGA,111258.000,5416.6985,N,00051.1898,W,1,0,,100.0,M,,M,,*49
$GPRMC,111258.000,A,5416.6985,N,00051.1898,W,0.000,0.00,260812,,A*69
$GPGGA,111315.000,5416.6869,N,00051.1832,W,1,0,,100.0,M,,M,,*42
$GPRMC,111315.000,A,5416.6869,N,00051.1832,W,0.000,0.00,260812,,A*62
$GPGGA,111330.000,5416.6791,N,00051.1857,W,1,0,,100.0,M,,M,,*4E
$GPRMC,111330.000,A,5416.6791,N,00051.1857,W,0.000,0.00,260812,,A*6E
$GPGGA,111345.000,5416.6786,N,00051.1855,W,1,0,,100.0,M,,M,,*48
$GPRMC,111345.000,A,5416.6786,N,00051.1855,W,0.000,0.00,260812,,A*68
$GPGGA,111401.000,5416.6768,N,00051.1826,W,1,0,,100.0,M,,M,,*4B
$GPRMC,111401.000,A,5416.6768,N,00051.1826,W,0.000,0.00,260812,,A*6B
$GPGGA,111416.000,5416.6692,N,00051.1818,W,1,0,,100.0,M,,M,,*44
$GPRMC,111416.000,A,5416.6692,N,00051.1818,W,0.000,0.00,260812,,A*64
$GPGGA,111435.000,5416.6626,N,00051.1823,W,1,0,,100.0,M,,M,,*42
$GPRMC,111435.000,A,5416.6626,N,00051.1823,W,0.000,0.00,260812,,A*62
$GPGGA,111507.000,5416.6486,N,00051.1769,W,1,0,,100.0,M,,M,,*4B
$GPRMC,111507.000,A,5416.6486,N,00051.1769,W,0.000,0.00,260812,,A*6B
$GPGGA,111522.000,5416.6452,N,00051.1804,W,1,0,,100.0,M,,M,,*41
$GPRMC,111522.000,A,5416.6452,N,00051.1804,W,0.000,0.00,260812,,A*61
$GPGGA,111537.000,5416.6431,N,00051.1833,W,1,0,,100.0,M,,M,,*44
$GPRMC,111537.000,A,5416.6431,N,00051.1833,W,0.000,0.00,260812,,A*64
$GPGGA,111552.000,5416.6191,N,00051.1898,W,1,0,,100.0,M,,M,,*49
$GPRMC,111552.000,A,5416.6191,N,00051.1898,W,0.000,0.00,260812,,A*69
$GPGGA,111607.000,5416.6273,N,00051.1976,W,1,0,,100.0,M,,M,,*44
$GPRMC,111607.000,A,5416.6273,N,00051.1976,W,0.000,0.00,260812,,A*64
$GPGGA,111623.000,5416.6246,N,00051.1977,W,1,0,,100.0,M,,M,,*45
$GPRMC,111623.000,A,5416.6246,N,00051.1977,W,0.000,0.00,260812,,A*65
$GPGGA,111638.000,5416.6035,N,00051.2027,W,1,0,,100.0,M,,M,,*46
$GPRMC,111638.000,A,5416.6035,N,00051.2027,W,0.000,0.00,260812,,A*66
$GPGGA,111653.000,5416.5896,N,00051.2036,W,1,0,,100.0,M,,M,,*49
$GPRMC,111653.000,A,5416.5896,N,00051.2036,W,0.000,0.00,260812,,A*69
$GPGGA,111708.000,5416.5839,N,00051.2020,W,1,0,,100.0,M,,M,,*44
$GPRMC,111708.000,A,5416.5839,N,00051.2020,W,0.000,0.00,260812,,A*64
$GPGGA,111725.000,5416.5726,N,00051.2004,W,1,0,,100.0,M,,M,,*4C
$GPRMC,111725.000,A,5416.5726,N,00051.2004,W,0.000,0.00,260812,,A*6C
$GPGGA,111740.000,5416.5662,N,00051.2028,W,1,0,,100.0,M,,M,,*40
$GPRMC,111740.000,A,5416.5662,N,00051.2028,W,0.000,0.00,260812,,A*60
$GPGGA,111756.000,5416.5580,N,00051.2052,W,1,0,,100.0,M,,M,,*45
$GPRMC,111756.000,A,5416.5580,N,00051.2052,W,0.000,0.00,260812,,A*65
$GPGGA,111811.000,5416.5555,N,00051.2088,W,1,0,,100.0,M,,M,,*46
$GPRMC,111811.000,A,5416.5555,N,00051.2088,W,0.000,0.00,260812,,A*66
$GPGGA,111827.000,5416.5413,N,00051.2046,W,1,0,,100.0,M,,M,,*42
$GPRMC,111827.000,A,5416.5413,N,00051.2046,W,0.000,0.00,260812,,A*62
$GPGGA,111842.000,5416.5356,N,00051.2106,W,1,0,,100.0,M,,M,,*42
$GPRMC,111842.000,A,5416.5356,N,00051.2106,W,0.000,0.00,260812,,A*62
$GPGGA,111900.000,5416.5324,N,00051.2163,W,1,0,,100.0,M,,M,,*43
$GPRMC,111900.000,A,5416.5324,N,00051.2163,W,0.000,0.00,260812,,A*63
$GPGGA,111915.000,5416.5234,N,00051.2172,W,1,0,,100.0,M,,M,,*47
$GPRMC,111915.000,A,5416.5234,N,00051.2172,W,0.000,0.00,260812,,A*67
$GPGGA,111933.000,5416.4978,N,00051.2329,W,1,0,,100.0,M,,M,,*4D
$GPRMC,111933.000,A,5416.4978,N,00051.2329,W,0.000,0.00,260812,,A*6D
$GPGGA,112001.000,5416.4953,N,00051.2463,W,1,0,,100.0,M,,M,,*46
$GPRMC,112001.000,A,5416.4953,N,00051.2463,W,0.000,0.00,260812,,A*66
$GPGGA,112016.000,5416.4770,N,00051.2482,W,1,0,,99.0,M,,M,,*71
$GPRMC,112016.000,A,5416.4770,N,00051.2482,W,0.000,0.00,260812,,A*60
$GPGGA,112031.000,5416.4745,N,00051.2529,W,1,0,,99.0,M,,M,,*72
$GPRMC,112031.000,A,5416.4745,N,00051.2529,W,0.000,0.00,260812,,A*63
$GPGGA,112047.000,5416.4701,N,00051.2697,W,1,0,,99.0,M,,M,,*75
$GPRMC,112047.000,A,5416.4701,N,00051.2697,W,0.000,0.00,260812,,A*64
$GPGGA,112103.000,5416.4623,N,00051.2746,W,1,0,,99.0,M,,M,,*78
$GPRMC,112103.000,A,5416.4623,N,00051.2746,W,0.000,0.00,260812,,A*69
$GPGGA,112119.000,5416.4594,N,00051.2923,W,1,0,,99.0,M,,M,,*71
$GPRMC,112119.000,A,5416.4594,N,00051.2923,W,0.000,0.00,260812,,A*60
$GPGGA,112134.000,5416.4481,N,00051.3064,W,1,0,,99.0,M,,M,,*70
$GPRMC,112134.000,A,5416.4481,N,00051.3064,W,0.000,0.00,260812,,A*61
$GPGGA,112151.000,5416.4417,N,00051.3295,W,1,0,,98.0,M,,M,,*71
$GPRMC,112151.000,A,5416.4417,N,00051.3295,W,0.000,0.00,260812,,A*61
$GPGGA,112207.000,5416.4349,N,00051.3321,W,1,0,,99.0,M,,M,,*72
$GPRMC,112207.000,A,5416.4349,N,00051.3321,W,0.000,0.00,260812,,A*63
$GPGGA,112225.000,5416.4220,N,00051.3384,W,1,0,,99.0,M,,M,,*73
$GPRMC,112225.000,A,5416.4220,N,00051.3384,W,0.000,0.00,260812,,A*62
$GPGGA,112240.000,5416.4113,N,00051.3415,W,1,0,,98.0,M,,M,,*7D
$GPRMC,112240.000,A,5416.4113,N,00051.3415,W,0.000,0.00,260812,,A*6D
$GPGGA,112255.000,5416.4021,N,00051.3454,W,1,0,,99.0,M,,M,,*7D
$GPRMC,112255.000,A,5416.4021,N,00051.3454,W,0.000,0.00,260812,,A*6C
$GPGGA,112311.000,5416.3918,N,00051.3473,W,1,0,,99.0,M,,M,,*7D
$GPRMC,112311.000,A,5416.3918,N,00051.3473,W,0.000,0.00,260812,,A*6C
$GPGGA,112327.000,5416.3772,N,00051.3553,W,1,0,,99.0,M,,M,,*79
$GPRMC,112327.000,A,5416.3772,N,00051.3553,W,0.000,0.00,260812,,A*68
$GPGGA,112342.000,5416.3570,N,00051.3631,W,1,0,,99.0,M,,M,,*7D
$GPRMC,112342.000,A,5416.3570,N,00051.3631,W,0.000,0.00,260812,,A*6C
$GPGGA,112359.000,5416.3506,N,00051.3598,W,1,0,,99.0,M,,M,,*76
$GPRMC,112359.000,A,5416.3506,N,00051.3598,W,0.000,0.00,260812,,A*67
$GPGGA,112415.000,5416.3422,N,00051.3597,W,1,0,,99.0,M,,M,,*71
$GPRMC,112415.000,A,5416.3422,N,00051.3597,W,0.000,0.00,260812,,A*60
$GPGGA,112430.000,5416.3374,N,00051.3560,W,1,0,,99.0,M,,M,,*7A
$GPRMC,112430.000,A,5416.3374,N,00051.3560,W,0.000,0.00,260812,,A*6B
$GPGGA,112458.000,5416.3277,N,00051.3569,W,1,0,,99.0,M,,M,,*7F
$GPRMC,112458.000,A,5416.3277,N,00051.3569,W,0.000,0.00,260812,,A*6E
$GPGGA,112515.000,5416.3067,N,00051.3585,W,1,0,,98.0,M,,M,,*77
$GPRMC,112515.000,A,5416.3067,N,00051.3585,W,0.000,0.00,260812,,A*67
$GPGGA,112531.000,5416.2994,N,00051.3595,W,1,0,,98.0,M,,M,,*74
$GPRMC,112531.000,A,5416.2994,N,00051.3595,W,0.000,0.00,260812,,A*64
$GPGGA,112546.000,5416.2932,N,00051.3587,W,1,0,,99.0,M,,M,,*7A
$GPRMC,112546.000,A,5416.2932,N,00051.3587,W,0.000,0.00,260812,,A*6B
$GPGGA,112602.000,5416.2881,N,00051.3641,W,1,0,,99.0,M,,M,,*79
$GPRMC,112602.000,A,5416.2881,N,00051.3641,W,0.000,0.00,260812,,A*68
$GPGGA,112630.000,5416.2593,N,00051.3727,W,1,0,,99.0,M,,M,,*77
$GPRMC,112630.000,A,5416.2593,N,00051.3727,W,0.000,0.00,260812,,A*66
$GPGGA,112646.000,5416.2559,N,00051.3777,W,1,0,,98.0,M,,M,,*74
$GPRMC,112646.000,A,5416.2559,N,00051.3777,W,0.000,0.00,260812,,A*64
$GPGGA,112701.000,5416.2499,N,00051.3844,W,1,0,,98.0,M,,M,,*74
$GPRMC,112701.000,A,5416.2499,N,00051.3844,W,0.000,0.00,260812,,A*64
$GPGGA,112717.000,5416.2463,N,00051.3879,W,1,0,,98.0,M,,M,,*78
$GPRMC,112717.000,A,5416.2463,N,00051.3879,W,0.000,0.00,260812,,A*68
$GPGGA,112732.000,5416.2481,N,00051.3922,W,1,0,,98.0,M,,M,,*7C
$GPRMC,112732.000,A,5416.2481,N,00051.3922,W,0.000,0.00,260812,,A*6C
$GPGGA,112748.000,5416.2298,N,00051.3946,W,1,0,,98.0,M,,M,,*7D
$GPRMC,112748.000,A,5416.2298,N,00051.3946,W,0.000,0.00,260812,,A*6D
$GPGGA,112803.000,5416.2227,N,00051.3943,W,1,0,,98.0,M,,M,,*7C
$GPRMC,112803.000,A,5416.2227,N,00051.3943,W,0.000,0.00,260812,,A*6C
$GPGGA,112819.000,5416.2112,N,00051.3917,W,1,0,,98.0,M,,M,,*73
$GPRMC,112819.000,A,5416.2112,N,00051.3917,W,0.000,0.00,260812,,A*63
$GPGGA,112834.000,5416.2028,N,00051.3938,W,1,0,,98.0,M,,M,,*79
$GPRMC,112834.000,A,5416.2028,N,00051.3938,W,0.000,0.00,260812,,A*69
$GPGGA,112849.000,5416.1888,N,00051.3916,W,1,0,,98.0,M,,M,,*7E
$GPRMC,112849.000,A,5416.1888,N,00051.3916,W,0.000,0.00,260812,,A*6E
$GPGGA,112904.000,5416.1732,N,00051.3860,W,1,0,,98.0,M,,M,,*78
$GPRMC,112904.000,A,5416.1732,N,00051.3860,W,0.000,0.00,260812,,A*68
$GPGGA,112920.000,5416.1696,N,00051.3880,W,1,0,,98.0,M,,M,,*7F
$GPRMC,112920.000,A,5416.1696,N,00051.3880,W,0.000,0.00,260812,,A*6F
$GPGGA,112936.000,5416.1552,N,00051.3828,W,1,0,,98.0,M,,M,,*71
$GPRMC,112936.000,A,5416.1552,N,00051.3828,W,0.000,0.00,260812,,A*61
$GPGGA,112951.000,5416.1433,N,00051.3949,W,1,0,,98.0,M,,M,,*70
$GPRMC,112951.000,A,5416.1433,N,00051.3949,W,0.000,0.00,260812,,A*60
$GPGGA,113006.000,5416.1396,N,00051.4010,W,1,0,,97.0,M,,M,,*7F
$GPRMC,113006.000,A,5416.1396,N,00051.4010,W,0.000,0.00,260812,,A*60
$GPGGA,113021.000,5416.1320,N,00051.4151,W,1,0,,97.0,M,,M,,*73
$GPRMC,113021.000,A,5416.1320,N,00051.4151,W,0.000,0.00,260812,,A*6C
$GPGGA,113036.000,5416.1243,N,00051.4283,W,1,0,,96.0,M,,M,,*7C
$GPRMC,113036.000,A,5416.1243,N,00051.4283,W,0.000,0.00,260812,,A*62
$GPGGA,113051.000,5416.1229,N,00051.4370,W,1,0,,96.0,M,,M,,*7C
$GPRMC,113051.000,A,5416.1229,N,00051.4370,W,0.000,0.00,260812,,A*62
$GPGGA,113107.000,5416.1160,N,00051.4461,W,1,0,,96.0,M,,M,,*77
$GPRMC,113107.000,A,5416.1160,N,00051.4461,W,0.000,0.00,260812,,A*69
$GPGGA,113122.000,5416.1060,N,00051.4365,W,1,0,,96.0,M,,M,,*72
$GPRMC,113122.000,A,5416.1060,N,00051.4365,W,0.000,0.00,260812,,A*6C
$GPGGA,113137.000,5416.0982,N,00051.4269,W,1,0,,96.0,M,,M,,*7F
$GPRMC,113137.000,A,5416.0982,N,00051.4269,W,0.000,0.00,260812,,A*61
$GPGGA,113153.000,5416.0909,N,00051.4156,W,1,0,,96.0,M,,M,,*71
$GPRMC,113153.000,A,5416.0909,N,00051.4156,W,0.000,0.00,260812,,A*6F
$GPGGA,113208.000,5416.0794,N,00051.4078,W,1,0,,96.0,M,,M,,*7B
$GPRMC,113208.000,A,5416.0794,N,00051.4078,W,0.000,0.00,260812,,A*65
$GPGGA,113223.000,5416.0719,N,00051.3999,W,1,0,,96.0,M,,M,,*76
$GPRMC,113223.000,A,5416.0719,N,00051.3999,W,0.000,0.00,260812,,A*68
$GPGGA,113239.000,5416.0579,N,00051.3900,W,1,0,,96.0,M,,M,,*79
$GPRMC,113239.000,A,5416.0579,N,00051.3900,W,0.000,0.00,260812,,A*67
$GPGGA,113258.000,5416.0368,N,00051.3792,W,1,0,,95.0,M,,M,,*7E
$GPRMC,113258.000,A,5416.0368,N,00051.3792,W,0.000,0.00,260812,,A*63
$GPGGA,113313.000,5416.0311,N,00051.3740,W,1,0,,95.0,M,,M,,*71
$GPRMC,113313.000,A,5416.0311,N,00051.3740,W,0.000,0.00,260812,,A*6C
$GPGGA,113329.000,5416.0199,N,00051.3602,W,1,0,,95.0,M,,M,,*7D
$GPRMC,113329.000,A,5416.0199,N,00051.3602,W,0.000,0.00,260812,,A*60
$GPGGA,113344.000,5416.0114,N,00051.3549,W,1,0,,94.0,M,,M,,*7E
$GPRMC,113344.000,A,5416.0114,N,00051.3549,W,0.000,0.00,260812,,A*62
$GPGGA,113359.000,5416.0011,N,00051.3546,W,1,0,,94.0,M,,M,,*79
$GPRMC,113359.000,A,5416.0011,N,00051.3546,W,0.000,0.00,260812,,A*65
$GPGGA,113415.000,5415.9835,N,00051.3414,W,1,0,,93.0,M,,M,,*73
$GPRMC,113415.000,A,5415.9835,N,00051.3414,W,0.000,0.00,260812,,A*68
$GPGGA,113430.000,5415.9787,N,00051.3412,W,1,0,,94.0,M,,M,,*73
$GPRMC,113430.000,A,5415.9787,N,00051.3412,W,0.000,0.00,260812,,A*6F
$GPGGA,113445.000,5415.9705,N,00051.3342,W,1,0,,93.0,M,,M,,*7E
$GPRMC,113445.000,A,5415.9705,N,00051.3342,W,0.000,0.00,260812,,A*65
$GPGGA,113500.000,5415.9579,N,00051.3322,W,1,0,,94.0,M,,M,,*76
$GPRMC,113500.000,A,5415.9579,N,00051.3322,W,0.000,0.00,260812,,A*6A
$GPGGA,113515.000,5415.9435,N,00051.3278,W,1,0,,93.0,M,,M,,*72
$GPRMC,113515.000,A,5415.9435,N,00051.3278,W,0.000,0.00,260812,,A*69
$GPGGA,113531.000,5415.9373,N,00051.3191,W,1,0,,93.0,M,,M,,*75
$GPRMC,113531.000,A,5415.9373,N,00051.3191,W,0.000,0.00,260812,,A*6E
$GPGGA,113558.000,5415.9016,N,00051.3054,W,1,0,,92.0,M,,M,,*73
$GPRMC,113558.000,A,5415.9016,N,00051.3054,W,0.000,0.00,260812,,A*69
$GPGGA,113614.000,5415.8997,N,00051.3134,W,1,0,,92.0,M,,M,,*7E
$GPRMC,113614.000,A,5415.8997,N,00051.3134,W,0.000,0.00,260812,,A*64
$GPGGA,113629.000,5415.8942,N,00051.3604,W,1,0,,91.0,M,,M,,*7F
$GPRMC,113629.000,A,5415.8942,N,00051.3604,W,0.000,0.00,260812,,A*66
$GPGGA,113645.000,5415.8938,N,00051.3568,W,1,0,,91.0,M,,M,,*71
$GPRMC,113645.000,A,5415.8938,N,00051.3568,W,0.000,0.00,260812,,A*68
$GPGGA,113700.000,5415.8823,N,00051.3612,W,1,0,,90.0,M,,M,,*75
$GPRMC,113700.000,A,5415.8823,N,00051.3612,W,0.000,0.00,260812,,A*6D
$GPGGA,113715.000,5415.8743,N,00051.3752,W,1,0,,89.0,M,,M,,*75
$GPRMC,113715.000,A,5415.8743,N,00051.3752,W,0.000,0.00,260812,,A*65
$GPGGA,113730.000,5415.8764,N,00051.3861,W,1,0,,89.0,M,,M,,*78
$GPRMC,113730.000,A,5415.8764,N,00051.3861,W,0.000,0.00,260812,,A*68
$GPGGA,113746.000,5415.8766,N,00051.3927,W,1,0,,88.0,M,,M,,*79
$GPRMC,113746.000,A,5415.8766,N,00051.3927,W,0.000,0.00,260812,,A*68
$GPGGA,113804.000,5415.8723,N,00051.4190,W,1,0,,88.0,M,,M,,*72
$GPRMC,113804.000,A,5415.8723,N,00051.4190,W,0.000,0.00,260812,,A*63
$GPGGA,113819.000,5415.8631,N,00051.4467,W,1,0,,88.0,M,,M,,*71
$GPRMC,113819.000,A,5415.8631,N,00051.4467,W,0.000,0.00,260812,,A*60
$GPGGA,113834.000,5415.8560,N,00051.4687,W,1,0,,88.0,M,,M,,*75
$GPRMC,113834.000,A,5415.8560,N,00051.4687,W,0.000,0.00,260812,,A*64
$GPGGA,113849.000,5415.8503,N,00051.4709,W,1,0,,87.0,M,,M,,*72
$GPRMC,113849.000,A,5415.8503,N,00051.4709,W,0.000,0.00,260812,,A*6C
$GPGGA,113906.000,5415.8437,N,00051.4771,W,1,0,,86.0,M,,M,,*70
$GPRMC,113906.000,A,5415.8437,N,00051.4771,W,0.000,0.00,260812,,A*6F
$GPGGA,113922.000,5415.8446,N,00051.4758,W,1,0,,86.0,M,,M,,*7B
$GPRMC,113922.000,A,5415.8446,N,00051.4758,W,0.000,0.00,260812,,A*64
$GPGGA,113937.000,5415.8336,N,00051.4744,W,1,0,,86.0,M,,M,,*72
$GPRMC,113937.000,A,5415.8336,N,00051.4744,W,0.000,0.00,260812,,A*6D
$GPGGA,113953.000,5415.8196,N,00051.4812,W,1,0,,86.0,M,,M,,*74
$GPRMC,113953.000,A,5415.8196,N,00051.4812,W,0.000,0.00,260812,,A*6B
$GPGGA,114009.000,5415.8324,N,00051.4956,W,1,0,,85.0,M,,M,,*7C
$GPRMC,114009.000,A,5415.8324,N,00051.4956,W,0.000,0.00,260812,,A*60
$GPGGA,114024.000,5415.8146,N,00051.4991,W,1,0,,85.0,M,,M,,*7E
$GPRMC,114024.000,A,5415.8146,N,00051.4991,W,0.000,0.00,260812,,A*62
$GPGGA,114039.000,5415.8034,N,00051.4972,W,1,0,,84.0,M,,M,,*7A
$GPRMC,114039.000,A,5415.8034,N,00051.4972,W,0.000,0.00,260812,,A*67
$GPGGA,114054.000,5415.7967,N,00051.4940,W,1,0,,84.0,M,,M,,*70
$GPRMC,114054.000,A,5415.7967,N,00051.4940,W,0.000,0.00,260812,,A*6D
$GPGGA,114109.000,5415.7871,N,00051.5038,W,1,0,,84.0,M,,M,,*78
$GPRMC,114109.000,A,5415.7871,N,00051.5038,W,0.000,0.00,260812,,A*65
$GPGGA,114129.000,5415.7928,N,00051.5135,W,1,0,,83.0,M,,M,,*7C
$GPRMC,114129.000,A,5415.7928,N,00051.5135,W,0.000,0.00,260812,,A*66
$GPGGA,114144.000,5415.7780,N,00051.5334,W,1,0,,83.0,M,,M,,*78
$GPRMC,114144.000,A,5415.7780,N,00051.5334,W,0.000,0.00,260812,,A*62
$GPGGA,114159.000,5415.7716,N,00051.5282,W,1,0,,83.0,M,,M,,*77
$GPRMC,114159.000,A,5415.7716,N,00051.5282,W,0.000,0.00,260812,,A*6D
$GPGGA,114225.000,5415.7526,N,00051.5216,W,1,0,,83.0,M,,M,,*73
$GPRMC,114225.000,A,5415.7526,N,00051.5216,W,0.000,0.00,260812,,A*69
$GPGGA,114240.000,5415.7473,N,00051.5241,W,1,0,,83.0,M,,M,,*73
$GPRMC,114240.000,A,5415.7473,N,00051.5241,W,0.000,0.00,260812,,A*69
$GPGGA,114255.000,5415.7372,N,00051.5211,W,1,0,,83.0,M,,M,,*74
$GPRMC,114255.000,A,5415.7372,N,00051.5211,W,0.000,0.00,260812,,A*6E
$GPGGA,114311.000,5415.7304,N,00051.5239,W,1,0,,83.0,M,,M,,*7E
$GPRMC,114311.000,A,5415.7304,N,00051.5239,W,0.000,0.00,260812,,A*64
$GPGGA,114326.000,5415.7175,N,00051.5238,W,1,0,,82.0,M,,M,,*7E
$GPRMC,114326.000,A,5415.7175,N,00051.5238,W,0.000,0.00,260812,,A*65
$GPGGA,114341.000,5415.7052,N,00051.5220,W,1,0,,83.0,M,,M,,*73
$GPRMC,114341.000,A,5415.7052,N,00051.5220,W,0.000,0.00,260812,,A*69
$GPGGA,114358.000,5415.6839,N,00051.5150,W,1,0,,83.0,M,,M,,*7B
$GPRMC,114358.000,A,5415.6839,N,00051.5150,W,0.000,0.00,260812,,A*61
$GPGGA,114419.000,5415.6779,N,00051.5115,W,1,0,,82.0,M,,M,,*72
$GPRMC,114419.000,A,5415.6779,N,00051.5115,W,0.000,0.00,260812,,A*69
$GPGGA,114434.000,5415.6656,N,00051.5180,W,1,0,,82.0,M,,M,,*7D
$GPRMC,114434.000,A,5415.6656,N,00051.5180,W,0.000,0.00,260812,,A*66
$GPGGA,114449.000,5415.6555,N,00051.5270,W,1,0,,82.0,M,,M,,*7B
$GPRMC,114449.000,A,5415.6555,N,00051.5270,W,0.000,0.00,260812,,A*60
$GPGGA,114508.000,5415.6310,N,00051.5431,W,1,0,,82.0,M,,M,,*7B
$GPRMC,114508.000,A,5415.6310,N,00051.5431,W,0.000,0.00,260812,,A*60
$GPGGA,114523.000,5415.6333,N,00051.5390,W,1,0,,82.0,M,,M,,*7F
$GPRMC,114523.000,A,5415.6333,N,00051.5390,W,0.000,0.00,260812,,A*64
$GPGGA,114538.000,5415.6230,N,00051.5410,W,1,0,,82.0,M,,M,,*78
$GPRMC,114538.000,A,5415.6230,N,00051.5410,W,0.000,0.00,260812,,A*63
$GPGGA,114553.000,5415.6248,N,00051.5411,W,1,0,,81.0,M,,M,,*78
$GPRMC,114553.000,A,5415.6248,N,00051.5411,W,0.000,0.00,260812,,A*60
$GPGGA,114608.000,5415.6308,N,00051.5384,W,1,0,,82.0,M,,M,,*78
$GPRMC,114608.000,A,5415.6308,N,00051.5384,W,0.000,0.00,260812,,A*63
$GPGGA,114623.000,5415.6315,N,00051.5371,W,1,0,,82.0,M,,M,,*77
$GPRMC,114623.000,A,5415.6315,N,00051.5371,W,0.000,0.00,260812,,A*6C
$GPGGA,114640.000,5415.6377,N,00051.5366,W,1,0,,81.0,M,,M,,*73
$GPRMC,114640.000,A,5415.6377,N,00051.5366,W,0.000,0.00,260812,,A*6B
$GPGGA,114655.000,5415.6429,N,00051.5401,W,1,0,,81.0,M,,M,,*7D
$GPRMC,114655.000,A,5415.6429,N,00051.5401,W,0.000,0.00,260812,,A*65
$GPGGA,114710.000,5415.6443,N,00051.5437,W,1,0,,81.0,M,,M,,*74
$GPRMC,114710.000,A,5415.6443,N,00051.5437,W,0.000,0.00,260812,,A*6C
$GPGGA,114725.000,5415.6450,N,00051.5454,W,1,0,,81.0,M,,M,,*75
$GPRMC,114725.000,A,5415.6450,N,00051.5454,W,0.000,0.00,260812,,A*6D
$GPGGA,114741.000,5415.6610,N,00051.5375,W,1,0,,80.0,M,,M,,*74
$GPRMC,114741.000,A,5415.6610,N,00051.5375,W,0.000,0.00,260812,,A*6D
$GPGGA,114756.000,5415.6667,N,00051.5346,W,1,0,,80.0,M,,M,,*72
$GPRMC,114756.000,A,5415.6667,N,00051.5346,W,0.000,0.00,260812,,A*6B
$GPGGA,114811.000,5415.6626,N,00051.5363,W,1,0,,80.0,M,,M,,*7C
$GPRMC,114811.000,A,5415.6626,N,00051.5363,W,0.000,0.00,260812,,A*65
$GPGGA,114827.000,5415.6610,N,00051.5366,W,1,0,,80.0,M,,M,,*79
$GPRMC,114827.000,A,5415.6610,N,00051.5366,W,0.000,0.00,260812,,A*60
$GPGGA,114842.000,5415.6615,N,00051.5359,W,1,0,,80.0,M,,M,,*73
$GPRMC,114842.000,A,5415.6615,N,00051.5359,W,0.000,0.00,260812,,A*6A
$GPGGA,114858.000,5415.6386,N,00051.5432,W,1,0,,80.0,M,,M,,*7D
$GPRMC,114858.000,A,5415.6386,N,00051.5432,W,0.000,0.00,260812,,A*64
$GPGGA,114913.000,5415.6418,N,00051.5428,W,1,0,,80.0,M,,M,,*78
$GPRMC,114913.000,A,5415.6418,N,00051.5428,W,0.000,0.00,260812,,A*61
$GPGGA,114929.000,5415.6418,N,00051.5391,W,1,0,,80.0,M,,M,,*74
$GPRMC,114929.000,A,5415.6418,N,00051.5391,W,0.000,0.00,260812,,A*6D
$GPGGA,114944.000,5415.6477,N,00051.5349,W,1,0,,80.0,M,,M,,*73
$GPRMC,114944.000,A,5415.6477,N,00051.5349,W,0.000,0.00,260812,,A*6A
$GPGGA,114959.000,5415.6487,N,00051.5398,W,1,0,,80.0,M,,M,,*7C
$GPRMC,114959.000,A,5415.6487,N,00051.5398,W,0.000,0.00,260812,,A*65
$GPGGA,115014.000,5415.6507,N,00051.5385,W,1,0,,80.0,M,,M,,*78
$GPRMC,115014.000,A,5415.6507,N,00051.5385,W,0.000,0.00,260812,,A*61
$GPGGA,115030.000,5415.6493,N,00051.5393,W,1,0,,80.0,M,,M,,*75
$GPRMC,115030.000,A,5415.6493,N,00051.5393,W,0.000,0.00,260812,,A*6C
$GPGGA,115047.000,5415.6297,N,00051.5452,W,1,0,,80.0,M,,M,,*7D
$GPRMC,115047.000,A,5415.6297,N,00051.5452,W,0.000,0.00,260812,,A*64
$GPGGA,115102.000,5415.6303,N,00051.5460,W,1,0,,80.0,M,,M,,*70
$GPRMC,115102.000,A,5415.6303,N,00051.5460,W,0.000,0.00,260812,,A*69
$GPGGA,115117.000,5415.6345,N,00051.5470,W,1,0,,79.0,M,,M,,*71
$GPRMC,115117.000,A,5415.6345,N,00051.5470,W,0.000,0.00,260812,,A*6E
$GPGGA,115132.000,5415.6496,N,00051.5385,W,1,0,,79.0,M,,M,,*72
$GPRMC,115132.000,A,5415.6496,N,00051.5385,W,0.000,0.00,260812,,A*6D
$GPGGA,115147.000,5415.6475,N,00051.5414,W,1,0,,80.0,M,,M,,*74
$GPRMC,115147.000,A,5415.6475,N,00051.5414,W,0.000,0.00,260812,,A*6D
$GPGGA,115202.000,5415.6519,N,00051.5370,W,1,0,,79.0,M,,M,,*7E
$GPRMC,115202.000,A,5415.6519,N,00051.5370,W,0.000,0.00,260812,,A*61
$GPGGA,115217.000,5415.6420,N,00051.5444,W,1,0,,80.0,M,,M,,*77
$GPRMC,115217.000,A,5415.6420,N,00051.5444,W,0.000,0.00,260812,,A*6E
$GPGGA,115232.000,5415.6374,N,00051.5483,W,1,0,,80.0,M,,M,,*7D
$GPRMC,115232.000,A,5415.6374,N,00051.5483,W,0.000,0.00,260812,,A*64
$GPGGA,115248.000,5415.6386,N,00051.5482,W,1,0,,80.0,M,,M,,*7C
$GPRMC,115248.000,A,5415.6386,N,00051.5482,W,0.000,0.00,260812,,A*65
$GPGGA,115306.000,5415.6461,N,00051.5421,W,1,0,,79.0,M,,M,,*76
$GPRMC,115306.000,A,5415.6461,N,00051.5421,W,0.000,0.00,260812,,A*69
$GPGGA,115321.000,5415.6468,N,00051.5419,W,1,0,,80.0,M,,M,,*77
$GPRMC,115321.000,A,5415.6468,N,00051.5419,W,0.000,0.00,260812,,A*6E
$GPGGA,115336.000,5415.6425,N,00051.5454,W,1,0,,80.0,M,,M,,*71
$GPRMC,115336.000,A,5415.6425,N,00051.5454,W,0.000,0.00,260812,,A*68
$GPGGA,115351.000,5415.6445,N,00051.5432,W,1,0,,80.0,M,,M,,*76
$GPRMC,115351.000,A,5415.6445,N,00051.5432,W,0.000,0.00,260812,,A*6F
$GPGGA,115407.000,5415.6484,N,00051.5406,W,1,0,,80.0,M,,M,,*78
$GPRMC,115407.000,A,5415.6484,N,00051.5406,W,0.000,0.00,260812,,A*61
$GPGGA,115422.000,5415.6498,N,00051.5393,W,1,0,,80.0,M,,M,,*79
$GPRMC,115422.000,A,5415.6498,N,00051.5393,W,0.000,0.00,260812,,A*60
$GPGGA,115437.000,5415.6562,N,00051.5367,W,1,0,,79.0,M,,M,,*74
$GPRMC,115437.000,A,5415.6562,N,00051.5367,W,0.000,0.00,260812,,A*6B
$GPGGA,115452.000,5415.6608,N,00051.5349,W,1,0,,79.0,M,,M,,*74
$GPRMC,115452.000,A,5415.6608,N,00051.5349,W,0.000,0.00,260812,,A*6B
$GPGGA,115507.000,5415.6651,N,00051.5326,W,1,0,,79.0,M,,M,,*70
$GPRMC,115507.000,A,5415.6651,N,00051.5326,W,0.000,0.00,260812,,A*6F
$GPGGA,115522.000,5415.6745,N,00051.5288,W,1,0,,79.0,M,,M,,*76
$GPRMC,115522.000,A,5415.6745,N,00051.5288,W,0.000,0.00,260812,,A*69
$GPGGA,115537.000,5415.6713,N,00051.5294,W,1,0,,79.0,M,,M,,*7C
$GPRMC,115537.000,A,5415.6713,N,00051.5294,W,0.000,0.00,260812,,A*63
$GPGGA,115553.000,5415.6713,N,00051.5300,W,1,0,,79.0,M,,M,,*72
$GPRMC,115553.000,A,5415.6713,N,00051.5300,W,0.000,0.00,260812,,A*6D
$GPGGA,115608.000,5415.6722,N,00051.5310,W,1,0,,79.0,M,,M,,*7C
$GPRMC,115608.000,A,5415.6722,N,00051.5310,W,0.000,0.00,260812,,A*63
$GPGGA,115623.000,5415.6786,N,00051.5294,W,1,0,,79.0,M,,M,,*76
$GPRMC,115623.000,A,5415.6786,N,00051.5294,W,0.000,0.00,260812,,A*69
$GPGGA,115638.000,5415.6702,N,00051.5312,W,1,0,,79.0,M,,M,,*7F
$GPRMC,115638.000,A,5415.6702,N,00051.5312,W,0.000,0.00,260812,,A*60
$GPGGA,115654.000,5415.6647,N,00051.5342,W,1,0,,79.0,M,,M,,*70
$GPRMC,115654.000,A,5415.6647,N,00051.5342,W,0.000,0.00,260812,,A*6F
$GPGGA,115711.000,5415.6628,N,00051.5358,W,1,0,,79.0,M,,M,,*72
$GPRMC,115711.000,A,5415.6628,N,00051.5358,W,0.000,0.00,260812,,A*6D
$GPGGA,115726.000,5415.6628,N,00051.5383,W,1,0,,79.0,M,,M,,*70
$GPRMC,115726.000,A,5415.6628,N,00051.5383,W,0.000,0.00,260812,,A*6F
$GPGGA,115741.000,5415.6626,N,00051.5378,W,1,0,,79.0,M,,M,,*7B
$GPRMC,115741.000,A,5415.6626,N,00051.5378,W,0.000,0.00,260812,,A*64
$GPGGA,115756.000,5415.6612,N,00051.5372,W,1,0,,78.0,M,,M,,*71
$GPRMC,115756.000,A,5415.6612,N,00051.5372,W,0.000,0.00,260812,,A*6F
$GPGGA,115812.000,5415.6594,N,00051.5338,W,1,0,,78.0,M,,M,,*7D
$GPRMC,115812.000,A,5415.6594,N,00051.5338,W,0.000,0.00,260812,,A*63
$GPGGA,115827.000,5415.6599,N,00051.5346,W,1,0,,78.0,M,,M,,*7F
$GPRMC,115827.000,A,5415.6599,N,00051.5346,W,0.000,0.00,260812,,A*61
$GPGGA,115844.000,5415.6567,N,00051.5361,W,1,0,,78.0,M,,M,,*7E
$GPRMC,115844.000,A,5415.6567,N,00051.5361,W,0.000,0.00,260812,,A*60
$GPGGA,115859.000,5415.6461,N,00051.5381,W,1,0,,79.0,M,,M,,*7A
$GPRMC,115859.000,A,5415.6461,N,00051.5381,W,0.000,0.00,260812,,A*65
$GPGGA,115915.000,5415.6505,N,00051.5366,W,1,0,,79.0,M,,M,,*79
$GPRMC,115915.000,A,5415.6505,N,00051.5366,W,0.000,0.00,260812,,A*66
$GPGGA,115931.000,5415.6628,N,00051.5310,W,1,0,,79.0,M,,M,,*72
$GPRMC,115931.000,A,5415.6628,N,00051.5310,W,0.000,0.00,260812,,A*6D
$GPGGA,115947.000,5415.6509,N,00051.5372,W,1,0,,79.0,M,,M,,*77
$GPRMC,115947.000,A,5415.6509,N,00051.5372,W,0.000,0.00,260812,,A*68
$GPGGA,120002.000,5415.6482,N,00051.5372,W,1,0,,79.0,M,,M,,*7B
$GPRMC,120002.000,A,5415.6482,N,00051.5372,W,0.000,0.00,260812,,A*64
$GPGGA,120017.000,5415.6445,N,00051.5393,W,1,0,,79.0,M,,M,,*7B
$GPRMC,120017.000,A,5415.6445,N,00051.5393,W,0.000,0.00,260812,,A*64
$GPGGA,120034.000,5415.6468,N,00051.5396,W,1,0,,79.0,M,,M,,*70
$GPRMC,120034.000,A,5415.6468,N,00051.5396,W,0.000,0.00,260812,,A*6F
$GPGGA,120111.000,5415.6576,N,00051.5371,W,1,0,,79.0,M,,M,,*71
$GPRMC,120111.000,A,5415.6576,N,00051.5371,W,0.000,0.00,260812,,A*6E
$GPGGA,120129.000,5415.6519,N,00051.5388,W,1,0,,79.0,M,,M,,*75
$GPRMC,120129.000,A,5415.6519,N,00051.5388,W,0.000,0.00,260812,,A*6A
$GPGGA,120145.000,5415.6388,N,00051.5456,W,1,0,,79.0,M,,M,,*75
$GPRMC,120145.000,A,5415.6388,N,00051.5456,W,0.000,0.00,260812,,A*6A
$GPGGA,120221.000,5415.6631,N,00051.5339,W,1,0,,79.0,M,,M,,*7D
$GPRMC,120221.000,A,5415.6631,N,00051.5339,W,0.000,0.00,260812,,A*62
$GPGGA,120236.000,5415.6599,N,00051.5356,W,1,0,,79.0,M,,M,,*73
$GPRMC,120236.000,A,5415.6599,N,00051.5356,W,0.000,0.00,260812,,A*6C
$GPGGA,120253.000,5415.6576,N,00051.5364,W,1,0,,79.0,M,,M,,*70
$GPRMC,120253.000,A,5415.6576,N,00051.5364,W,0.000,0.00,260812,,A*6F
$GPGGA,120311.000,5415.6569,N,00051.5365,W,1,0,,79.0,M,,M,,*78
$GPRMC,120311.000,A,5415.6569,N,00051.5365,W,0.000,0.00,260812,,A*67
$GPGGA,120326.000,5415.6631,N,00051.5335,W,1,0,,79.0,M,,M,,*77
$GPRMC,120326.000,A,5415.6631,N,00051.5335,W,0.000,0.00,260812,,A*68
$GPGGA,120341.000,5415.6573,N,00051.5355,W,1,0,,79.0,M,,M,,*75
$GPRMC,120341.000,A,5415.6573,N,00051.5355,W,0.000,0.00,260812,,A*6A
$GPGGA,120357.000,5415.6615,N,00051.5336,W,1,0,,78.0,M,,M,,*75
$GPRMC,120357.000,A,5415.6615,N,00051.5336,W,0.000,0.00,260812,,A*6B
$GPGGA,120412.000,5415.6709,N,00051.5314,W,1,0,,78.0,M,,M,,*7F
$GPRMC,120412.000,A,5415.6709,N,00051.5314,W,0.000,0.00,260812,,A*61
$GPGGA,120427.000,5415.6690,N,00051.5331,W,1,0,,78.0,M,,M,,*7F
$GPRMC,120427.000,A,5415.6690,N,00051.5331,W,0.000,0.00,260812,,A*61
$GPGGA,120442.000,5415.6775,N,00051.5314,W,1,0,,78.0,M,,M,,*71
$GPRMC,120442.000,A,5415.6775,N,00051.5314,W,0.000,0.00,260812,,A*6F
$GPGGA,120459.000,5415.6777,N,00051.5318,W,1,0,,77.0,M,,M,,*7A
$GPRMC,120459.000,A,5415.6777,N,00051.5318,W,0.000,0.00,260812,,A*6B
$GPGGA,120518.000,5415.6681,N,00051.5323,W,1,0,,77.0,M,,M,,*7E
$GPRMC,120518.000,A,5415.6681,N,00051.5323,W,0.000,0.00,260812,,A*6F
$GPGGA,120535.000,5415.6782,N,00051.5301,W,1,0,,77.0,M,,M,,*73
$GPRMC,120535.000,A,5415.6782,N,00051.5301,W,0.000,0.00,260812,,A*62
$GPGGA,120550.000,5415.6741,N,00051.5324,W,1,0,,77.0,M,,M,,*78
$GPRMC,120550.000,A,5415.6741,N,00051.5324,W,0.000,0.00,260812,,A*69
$GPGGA,120605.000,5415.6729,N,00051.5345,W,1,0,,76.0,M,,M,,*73
$GPRMC,120605.000,A,5415.6729,N,00051.5345,W,0.000,0.00,260812,,A*63
$GPGGA,120620.000,5415.6640,N,00051.5380,W,1,0,,76.0,M,,M,,*73
$GPRMC,120620.000,A,5415.6640,N,00051.5380,W,0.000,0.00,260812,,A*63
$GPGGA,120635.000,5415.6715,N,00051.5326,W,1,0,,76.0,M,,M,,*7A
$GPRMC,120635.000,A,5415.6715,N,00051.5326,W,0.000,0.00,260812,,A*6A
$GPGGA,120651.000,5415.6587,N,00051.5337,W,1,0,,76.0,M,,M,,*71
$GPRMC,120651.000,A,5415.6587,N,00051.5337,W,0.000,0.00,260812,,A*61
$GPGGA,120706.000,5415.6537,N,00051.5365,W,1,0,,76.0,M,,M,,*7E
$GPRMC,120706.000,A,5415.6537,N,00051.5365,W,0.000,0.00,260812,,A*6E
$GPGGA,120721.000,5415.6601,N,00051.5327,W,1,0,,76.0,M,,M,,*7B
$GPRMC,120721.000,A,5415.6601,N,00051.5327,W,0.000,0.00,260812,,A*6B
$GPGGA,120736.000,5415.6553,N,00051.5338,W,1,0,,76.0,M,,M,,*77
$GPRMC,120736.000,A,5415.6553,N,00051.5338,W,0.000,0.00,260812,,A*67
$GPGGA,120751.000,5415.6473,N,00051.5371,W,1,0,,76.0,M,,M,,*78
$GPRMC,120751.000,A,5415.6473,N,00051.5371,W,0.000,0.00,260812,,A*68
$GPGGA,120807.000,5415.6498,N,00051.5380,W,1,0,,76.0,M,,M,,*7F
$GPRMC,120807.000,A,5415.6498,N,00051.5380,W,0.000,0.00,260812,,A*6F
$GPGGA,120822.000,5415.6443,N,00051.5395,W,1,0,,76.0,M,,M,,*7A
$GPRMC,120822.000,A,5415.6443,N,00051.5395,W,0.000,0.00,260812,,A*6A
$GPGGA,120837.000,5415.6413,N,00051.5421,W,1,0,,76.0,M,,M,,*73
$GPRMC,120837.000,A,5415.6413,N,00051.5421,W,0.000,0.00,260812,,A*63
$GPGGA,120852.000,5415.6372,N,00051.5436,W,1,0,,76.0,M,,M,,*76
$GPRMC,120852.000,A,5415.6372,N,00051.5436,W,0.000,0.00,260812,,A*66
$GPGGA,120908.000,5415.6438,N,00051.5412,W,1,0,,76.0,M,,M,,*77
$GPRMC,120908.000,A,5415.6438,N,00051.5412,W,0.000,0.00,260812,,A*67
$GPGGA,120923.000,5415.6521,N,00051.5376,W,1,0,,76.0,M,,M,,*72
$GPRMC,120923.000,A,5415.6521,N,00051.5376,W,0.000,0.00,260812,,A*62
$GPGGA,120939.000,5415.6544,N,00051.5361,W,1,0,,75.0,M,,M,,*7F
$GPRMC,120939.000,A,5415.6544,N,00051.5361,W,0.000,0.00,260812,,A*6C
$GPGGA,120954.000,5415.6413,N,00051.5398,W,1,0,,75.0,M,,M,,*71
$GPRMC,120954.000,A,5415.6413,N,00051.5398,W,0.000,0.00,260812,,A*62
$GPGGA,121016.000,5415.6491,N,00051.5333,W,1,0,,75.0,M,,M,,*74
$GPRMC,121016.000,A,5415.6491,N,00051.5333,W,0.000,0.00,260812,,A*67
$GPGGA,121031.000,5415.6475,N,00051.5341,W,1,0,,75.0,M,,M,,*7E
$GPRMC,121031.000,A,5415.6475,N,00051.5341,W,0.000,0.00,260812,,A*6D
$GPGGA,121046.000,5415.6606,N,00051.5302,W,1,0,,74.0,M,,M,,*7E
$GPRMC,121046.000,A,5415.6606,N,00051.5302,W,0.000,0.00,260812,,A*6C
$GPGGA,121102.000,5415.6329,N,00051.5429,W,1,0,,74.0,M,,M,,*79
$GPRMC,121102.000,A,5415.6329,N,00051.5429,W,0.000,0.00,260812,,A*6B
$GPGGA,121117.000,5415.6281,N,00051.5420,W,1,0,,75.0,M,,M,,*76
$GPRMC,121117.000,A,5415.6281,N,00051.5420,W,0.000,0.00,260812,,A*65
$GPGGA,121132.000,5415.6301,N,00051.5422,W,1,0,,75.0,M,,M,,*7A
$GPRMC,121132.000,A,5415.6301,N,00051.5422,W,0.000,0.00,260812,,A*69
$GPGGA,121147.000,5415.6297,N,00051.5433,W,1,0,,75.0,M,,M,,*76
$GPRMC,121147.000,A,5415.6297,N,00051.5433,W,0.000,0.00,260812,,A*65
$GPGGA,121207.000,5415.6418,N,00051.5387,W,1,0,,74.0,M,,M,,*79
$GPRMC,121207.000,A,5415.6418,N,00051.5387,W,0.000,0.00,260812,,A*6B
$GPGGA,121235.000,5415.6386,N,00051.5430,W,1,0,,75.0,M,,M,,*72
$GPRMC,121235.000,A,5415.6386,N,00051.5430,W,0.000,0.00,260812,,A*61
$GPGGA,121252.000,5415.6333,N,00051.5443,W,1,0,,74.0,M,,M,,*78
$GPRMC,121252.000,A,5415.6333,N,00051.5443,W,0.000,0.00,260812,,A*6A
$GPGGA,121309.000,5415.6340,N,00051.5444,W,1,0,,75.0,M,,M,,*75
$GPRMC,121309.000,A,5415.6340,N,00051.5444,W,0.000,0.00,260812,,A*66
$GPGGA,121324.000,5415.6528,N,00051.5422,W,1,0,,75.0,M,,M,,*72
$GPRMC,121324.000,A,5415.6528,N,00051.5422,W,0.000,0.00,260812,,A*61
$GPGGA,121340.000,5415.6571,N,00051.5440,W,1,0,,75.0,M,,M,,*78
$GPRMC,121340.000,A,5415.6571,N,00051.5440,W,0.000,0.00,260812,,A*6B
$GPGGA,121355.000,5415.6633,N,00051.5459,W,1,0,,74.0,M,,M,,*70
$GPRMC,121355.000,A,5415.6633,N,00051.5459,W,0.000,0.00,260812,,A*62
$GPGGA,121410.000,5415.6775,N,00051.5454,W,1,0,,74.0,M,,M,,*78
$GPRMC,121410.000,A,5415.6775,N,00051.5454,W,0.000,0.00,260812,,A*6A
$GPGGA,121425.000,5415.6864,N,00051.5455,W,1,0,,74.0,M,,M,,*70
$GPRMC,121425.000,A,5415.6864,N,00051.5455,W,0.000,0.00,260812,,A*62
$GPGGA,121442.000,5415.7063,N,00051.5440,W,1,0,,74.0,M,,M,,*7B
$GPRMC,121442.000,A,5415.7063,N,00051.5440,W,0.000,0.00,260812,,A*69
$GPGGA,121457.000,5415.7102,N,00051.5448,W,1,0,,74.0,M,,M,,*71
$GPRMC,121457.000,A,5415.7102,N,00051.5448,W,0.000,0.00,260812,,A*63
$GPGGA,121512.000,5415.7235,N,00051.5423,W,1,0,,74.0,M,,M,,*7B
$GPRMC,121512.000,A,5415.7235,N,00051.5423,W,0.000,0.00,260812,,A*69
$GPGGA,121532.000,5415.7379,N,00051.5421,W,1,0,,74.0,M,,M,,*72
$GPRMC,121532.000,A,5415.7379,N,00051.5421,W,0.000,0.00,260812,,A*60
$GPGGA,121547.000,5415.7450,N,00051.5502,W,1,0,,74.0,M,,M,,*7C
$GPRMC,121547.000,A,5415.7450,N,00051.5502,W,0.000,0.00,260812,,A*6E
$GPGGA,121603.000,5415.7537,N,00051.5606,W,1,0,,74.0,M,,M,,*78
$GPRMC,121603.000,A,5415.7537,N,00051.5606,W,0.000,0.00,260812,,A*6A
$GPGGA,121618.000,5415.7562,N,00051.5741,W,1,0,,74.0,M,,M,,*70
$GPRMC,121618.000,A,5415.7562,N,00051.5741,W,0.000,0.00,260812,,A*62
$GPGGA,121633.000,5415.7697,N,00051.5849,W,1,0,,74.0,M,,M,,*77
$GPRMC,121633.000,A,5415.7697,N,00051.5849,W,0.000,0.00,260812,,A*65
$GPGGA,121648.000,5415.7835,N,00051.5795,W,1,0,,74.0,M,,M,,*73
$GPRMC,121648.000,A,5415.7835,N,00051.5795,W,0.000,0.00,260812,,A*61
$GPGGA,121703.000,5415.7908,N,00051.5699,W,1,0,,74.0,M,,M,,*7F
$GPRMC,121703.000,A,5415.7908,N,00051.5699,W,0.000,0.00,260812,,A*6D
$GPGGA,121720.000,5415.7965,N,00051.5637,W,1,0,,74.0,M,,M,,*71
$GPRMC,121720.000,A,5415.7965,N,00051.5637,W,0.000,0.00,260812,,A*63
$GPGGA,121735.000,5415.8093,N,00051.5594,W,1,0,,74.0,M,,M,,*70
$GPRMC,121735.000,A,5415.8093,N,00051.5594,W,0.000,0.00,260812,,A*62
$GPGGA,121750.000,5415.8237,N,00051.5662,W,1,0,,74.0,M,,M,,*75
$GPRMC,121750.000,A,5415.8237,N,00051.5662,W,0.000,0.00,260812,,A*67
$GPGGA,121806.000,5415.8290,N,00051.5665,W,1,0,,74.0,M,,M,,*73
$GPRMC,121806.000,A,5415.8290,N,00051.5665,W,0.000,0.00,260812,,A*61
$GPGGA,121821.000,5415.8382,N,00051.5599,W,1,0,,74.0,M,,M,,*74
$GPRMC,121821.000,A,5415.8382,N,00051.5599,W,0.000,0.00,260812,,A*66
$GPGGA,121838.000,5415.8542,N,00051.5675,W,1,0,,74.0,M,,M,,*77
$GPRMC,121838.000,A,5415.8542,N,00051.5675,W,0.000,0.00,260812,,A*65
$GPGGA,121854.000,5415.8631,N,00051.5665,W,1,0,,74.0,M,,M,,*7B
$GPRMC,121854.000,A,5415.8631,N,00051.5665,W,0.000,0.00,260812,,A*69
$GPGGA,121909.000,5415.8757,N,00051.5693,W,1,0,,74.0,M,,M,,*7A
$GPRMC,121909.000,A,5415.8757,N,00051.5693,W,0.000,0.00,260812,,A*68
$GPGGA,121934.000,5415.8846,N,00051.5695,W,1,0,,74.0,M,,M,,*7D
$GPRMC,121934.000,A,5415.8846,N,00051.5695,W,0.000,0.00,260812,,A*6F
$GPGGA,121950.000,5415.8931,N,00051.5679,W,1,0,,74.0,M,,M,,*7C
$GPRMC,121950.000,A,5415.8931,N,00051.5679,W,0.000,0.00,260812,,A*6E
$GPGGA,122009.000,5415.9050,N,00051.5657,W,1,0,,74.0,M,,M,,*79
$GPRMC,122009.000,A,5415.9050,N,00051.5657,W,0.000,0.00,260812,,A*6B
$GPGGA,122030.000,5415.8997,N,00051.5610,W,1,0,,74.0,M,,M,,*73
$GPRMC,122030.000,A,5415.8997,N,00051.5610,W,0.000,0.00,260812,,A*61
$GPGGA,122059.000,5415.9283,N,00051.5573,W,1,0,,73.0,M,,M,,*72
$GPRMC,122059.000,A,5415.9283,N,00051.5573,W,0.000,0.00,260812,,A*67
$GPGGA,122114.000,5415.9334,N,00051.5619,W,1,0,,73.0,M,,M,,*78
$GPRMC,122114.000,A,5415.9334,N,00051.5619,W,0.000,0.00,260812,,A*6D
$GPGGA,122129.000,5415.9425,N,00051.5587,W,1,0,,74.0,M,,M,,*72
$GPRMC,122129.000,A,5415.9425,N,00051.5587,W,0.000,0.00,260812,,A*60
$GPGGA,122151.000,5415.9503,N,00051.5548,W,1,0,,74.0,M,,M,,*7B
$GPRMC,122151.000,A,5415.9503,N,00051.5548,W,0.000,0.00,260812,,A*69
$GPGGA,122221.000,5415.9682,N,00051.5513,W,1,0,,74.0,M,,M,,*7B
$GPRMC,122221.000,A,5415.9682,N,00051.5513,W,0.000,0.00,260812,,A*69
$GPGGA,122237.000,5415.9746,N,00051.5473,W,1,0,,74.0,M,,M,,*72
$GPRMC,122237.000,A,5415.9746,N,00051.5473,W,0.000,0.00,260812,,A*60
$GPGGA,122321.000,5415.9995,N,00051.5505,W,1,0,,74.0,M,,M,,*74
$GPRMC,122321.000,A,5415.9995,N,00051.5505,W,0.000,0.00,260812,,A*66
$GPGGA,122342.000,5416.0091,N,00051.5471,W,1,0,,73.0,M,,M,,*73
$GPRMC,122342.000,A,5416.0091,N,00051.5471,W,0.000,0.00,260812,,A*66
$GPGGA,122357.000,5416.0247,N,00051.5510,W,1,0,,74.0,M,,M,,*7F
$GPRMC,122357.000,A,5416.0247,N,00051.5510,W,0.000,0.00,260812,,A*6D
$GPGGA,122412.000,5416.0357,N,00051.5517,W,1,0,,73.0,M,,M,,*79
$GPRMC,122412.000,A,5416.0357,N,00051.5517,W,0.000,0.00,260812,,A*6C
$GPGGA,122427.000,5416.0357,N,00051.5527,W,1,0,,74.0,M,,M,,*7B
$GPRMC,122427.000,A,5416.0357,N,00051.5527,W,0.000,0.00,260812,,A*69
$GPGGA,122442.000,5416.0400,N,00051.5502,W,1,0,,73.0,M,,M,,*7D
$GPRMC,122442.000,A,5416.0400,N,00051.5502,W,0.000,0.00,260812,,A*68
$GPGGA,122457.000,5416.0414,N,00051.5462,W,1,0,,73.0,M,,M,,*7B
$GPRMC,122457.000,A,5416.0414,N,00051.5462,W,0.000,0.00,260812,,A*6E
$GPGGA,122524.000,5416.0478,N,00051.5584,W,1,0,,72.0,M,,M,,*7C
$GPRMC,122524.000,A,5416.0478,N,00051.5584,W,0.000,0.00,260812,,A*68
$GPGGA,122553.000,5416.0458,N,00051.5698,W,1,0,,72.0,M,,M,,*70
$GPRMC,122553.000,A,5416.0458,N,00051.5698,W,0.000,0.00,260812,,A*64
$GPGGA,122609.000,5416.0469,N,00051.5892,W,1,0,,72.0,M,,M,,*7A
$GPRMC,122609.000,A,5416.0469,N,00051.5892,W,0.000,0.00,260812,,A*6E
$GPGGA,122642.000,5416.0524,N,00051.6258,W,1,0,,72.0,M,,M,,*72
$GPRMC,122642.000,A,5416.0524,N,00051.6258,W,0.000,0.00,260812,,A*66
$GPGGA,122657.000,5416.0485,N,00051.6312,W,1,0,,72.0,M,,M,,*73
$GPRMC,122657.000,A,5416.0485,N,00051.6312,W,0.000,0.00,260812,,A*67
$GPGGA,122712.000,5416.0654,N,00051.6675,W,1,0,,72.0,M,,M,,*79
$GPRMC,122712.000,A,5416.0654,N,00051.6675,W,0.000,0.00,260812,,A*6D
$GPGGA,122727.000,5416.0648,N,00051.6932,W,1,0,,72.0,M,,M,,*7E
$GPRMC,122727.000,A,5416.0648,N,00051.6932,W,0.000,0.00,260812,,A*6A
$GPGGA,122742.000,5416.0634,N,00051.7096,W,1,0,,72.0,M,,M,,*70
$GPRMC,122742.000,A,5416.0634,N,00051.7096,W,0.000,0.00,260812,,A*64
$GPGGA,122757.000,5416.0634,N,00051.7285,W,1,0,,72.0,M,,M,,*74
$GPRMC,122757.000,A,5416.0634,N,00051.7285,W,0.000,0.00,260812,,A*60
$GPGGA,122812.000,5416.0643,N,00051.7442,W,1,0,,72.0,M,,M,,*77
$GPRMC,122812.000,A,5416.0643,N,00051.7442,W,0.000,0.00,260812,,A*63
$GPGGA,122843.000,5416.0577,N,00051.7856,W,1,0,,71.0,M,,M,,*7D
$GPRMC,122843.000,A,5416.0577,N,00051.7856,W,0.000,0.00,260812,,A*6A
$GPGGA,122911.000,5416.0561,N,00051.8139,W,1,0,,71.0,M,,M,,*73
$GPRMC,122911.000,A,5416.0561,N,00051.8139,W,0.000,0.00,260812,,A*64
$GPGGA,122927.000,5416.0547,N,00051.8232,W,1,0,,71.0,M,,M,,*7A
$GPRMC,122927.000,A,5416.0547,N,00051.8232,W,0.000,0.00,260812,,A*6D
$GPGGA,122944.000,5416.0499,N,00051.8582,W,1,0,,71.0,M,,M,,*71
$GPRMC,122944.000,A,5416.0499,N,00051.8582,W,0.000,0.00,260812,,A*66
$GPGGA,122959.000,5416.0519,N,00051.8734,W,1,0,,71.0,M,,M,,*7B
$GPRMC,122959.000,A,5416.0519,N,00051.8734,W,0.000,0.00,260812,,A*6C
$GPGGA,123015.000,5416.0522,N,00051.8912,W,1,0,,71.0,M,,M,,*79
$GPRMC,123015.000,A,5416.0522,N,00051.8912,W,0.000,0.00,260812,,A*6E
$GPGGA,123031.000,5416.0558,N,00051.9016,W,1,0,,71.0,M,,M,,*7E
$GPRMC,123031.000,A,5416.0558,N,00051.9016,W,0.000,0.00,260812,,A*69
$GPGGA,123046.000,5416.0597,N,00051.9075,W,1,0,,71.0,M,,M,,*78
$GPRMC,123046.000,A,5416.0597,N,00051.9075,W,0.000,0.00,260812,,A*6F
$GPGGA,123101.000,5416.0561,N,00051.9268,W,1,0,,71.0,M,,M,,*7D
$GPRMC,123101.000,A,5416.0561,N,00051.9268,W,0.000,0.00,260812,,A*6A
$GPGGA,123118.000,5416.0490,N,00051.9592,W,1,0,,71.0,M,,M,,*78
$GPRMC,123118.000,A,5416.0490,N,00051.9592,W,0.000,0.00,260812,,A*6F
$GPGGA,123146.000,5416.0574,N,00051.9959,W,1,0,,71.0,M,,M,,*73
$GPRMC,123146.000,A,5416.0574,N,00051.9959,W,0.000,0.00,260812,,A*64
$GPGGA,123201.000,5416.0494,N,00052.0043,W,1,0,,70.0,M,,M,,*75
$GPRMC,123201.000,A,5416.0494,N,00052.0043,W,0.000,0.00,260812,,A*63
$GPGGA,123216.000,5416.0517,N,00052.0003,W,1,0,,70.0,M,,M,,*7D
$GPRMC,123216.000,A,5416.0517,N,00052.0003,W,0.000,0.00,260812,,A*6B
$GPGGA,123231.000,5416.0531,N,00052.0060,W,1,0,,71.0,M,,M,,*78
$GPRMC,123231.000,A,5416.0531,N,00052.0060,W,0.000,0.00,260812,,A*6F
$GPGGA,123253.000,5416.0600,N,00052.0109,W,1,0,,70.0,M,,M,,*72
$GPRMC,123253.000,A,5416.0600,N,00052.0109,W,0.000,0.00,260812,,A*64
$GPGGA,123308.000,5416.0661,N,00052.0337,W,1,0,,70.0,M,,M,,*75
$GPRMC,123308.000,A,5416.0661,N,00052.0337,W,0.000,0.00,260812,,A*63
$GPGGA,123323.000,5416.0648,N,00052.0433,W,1,0,,70.0,M,,M,,*74
$GPRMC,123323.000,A,5416.0648,N,00052.0433,W,0.000,0.00,260812,,A*62
$GPGGA,123339.000,5416.0693,N,00052.0591,W,1,0,,70.0,M,,M,,*70
$GPRMC,123339.000,A,5416.0693,N,00052.0591,W,0.000,0.00,260812,,A*66
$GPGGA,123354.000,5416.0741,N,00052.0632,W,1,0,,70.0,M,,M,,*7F
$GPRMC,123354.000,A,5416.0741,N,00052.0632,W,0.000,0.00,260812,,A*69
$GPGGA,123410.000,5416.0824,N,00052.0835,W,1,0,,71.0,M,,M,,*7C
$GPRMC,123410.000,A,5416.0824,N,00052.0835,W,0.000,0.00,260812,,A*6B
$GPGGA,123425.000,5416.0906,N,00052.1109,W,1,0,,71.0,M,,M,,*7C
$GPRMC,123425.000,A,5416.0906,N,00052.1109,W,0.000,0.00,260812,,A*6B
$GPGGA,123441.000,5416.0913,N,00052.1239,W,1,0,,70.0,M,,M,,*7B
$GPRMC,123441.000,A,5416.0913,N,00052.1239,W,0.000,0.00,260812,,A*6D
$GPGGA,123457.000,5416.0931,N,00052.1401,W,1,0,,70.0,M,,M,,*71
$GPRMC,123457.000,A,5416.0931,N,00052.1401,W,0.000,0.00,260812,,A*67
$GPGGA,123513.000,5416.0989,N,00052.1430,W,1,0,,70.0,M,,M,,*71
$GPRMC,123513.000,A,5416.0989,N,00052.1430,W,0.000,0.00,260812,,A*67
$GPGGA,123528.000,5416.1108,N,00052.1526,W,1,0,,71.0,M,,M,,*7E
$GPRMC,123528.000,A,5416.1108,N,00052.1526,W,0.000,0.00,260812,,A*69
$GPGGA,123545.000,5416.1334,N,00052.1680,W,1,0,,71.0,M,,M,,*77
$GPRMC,123545.000,A,5416.1334,N,00052.1680,W,0.000,0.00,260812,,A*60
$GPGGA,123600.000,5416.1421,N,00052.1780,W,1,0,,71.0,M,,M,,*77
$GPRMC,123600.000,A,5416.1421,N,00052.1780,W,0.000,0.00,260812,,A*60
$GPGGA,123629.000,5416.1597,N,00052.1897,W,1,0,,70.0,M,,M,,*78
$GPRMC,123629.000,A,5416.1597,N,00052.1897,W,0.000,0.00,260812,,A*6E
$GPGGA,123649.000,5416.1657,N,00052.1850,W,1,0,,70.0,M,,M,,*7A
$GPRMC,123649.000,A,5416.1657,N,00052.1850,W,0.000,0.00,260812,,A*6C
$GPGGA,123818.000,5416.2309,N,00052.1882,W,1,0,,70.0,M,,M,,*72
$GPRMC,123818.000,A,5416.2309,N,00052.1882,W,0.000,0.00,260812,,A*64
$GPGGA,123833.000,5416.2328,N,00052.1873,W,1,0,,70.0,M,,M,,*76
$GPRMC,123833.000,A,5416.2328,N,00052.1873,W,0.000,0.00,260812,,A*60
$GPGGA,123851.000,5416.2421,N,00052.1869,W,1,0,,70.0,M,,M,,*77
$GPRMC,123851.000,A,5416.2421,N,00052.1869,W,0.000,0.00,260812,,A*61
$GPGGA,123907.000,5416.2506,N,00052.1798,W,1,0,,70.0,M,,M,,*70
$GPRMC,123907.000,A,5416.2506,N,00052.1798,W,0.000,0.00,260812,,A*66
$GPGGA,123923.000,5416.2598,N,00052.1659,W,1,0,,70.0,M,,M,,*7D
$GPRMC,123923.000,A,5416.2598,N,00052.1659,W,0.000,0.00,260812,,A*6B
$GPGGA,123938.000,5416.2641,N,00052.1596,W,1,0,,70.0,M,,M,,*70
$GPRMC,123938.000,A,5416.2641,N,00052.1596,W,0.000,0.00,260812,,A*66
$GPGGA,124008.000,5416.2808,N,00052.1401,W,1,0,,70.0,M,,M,,*71
$GPRMC,124008.000,A,5416.2808,N,00052.1401,W,0.000,0.00,260812,,A*67
$GPGGA,124023.000,5416.2888,N,00052.1333,W,1,0,,70.0,M,,M,,*76
$GPRMC,124023.000,A,5416.2888,N,00052.1333,W,0.000,0.00,260812,,A*60
$GPGGA,124038.000,5416.2948,N,00052.1221,W,1,0,,71.0,M,,M,,*72
$GPRMC,124038.000,A,5416.2948,N,00052.1221,W,0.000,0.00,260812,,A*65
$GPGGA,124053.000,5416.3035,N,00052.1150,W,1,0,,71.0,M,,M,,*78
$GPRMC,124053.000,A,5416.3035,N,00052.1150,W,0.000,0.00,260812,,A*6F
$GPGGA,124108.000,5416.3129,N,00052.1148,W,1,0,,70.0,M,,M,,*73
$GPRMC,124108.000,A,5416.3129,N,00052.1148,W,0.000,0.00,260812,,A*65
$GPGGA,124123.000,5416.3170,N,00052.1180,W,1,0,,70.0,M,,M,,*72
$GPRMC,124123.000,A,5416.3170,N,00052.1180,W,0.000,0.00,260812,,A*64
$GPGGA,124138.000,5416.3234,N,00052.1276,W,1,0,,70.0,M,,M,,*71
$GPRMC,124138.000,A,5416.3234,N,00052.1276,W,0.000,0.00,260812,,A*67
$GPGGA,124153.000,5416.3280,N,00052.1290,W,1,0,,70.0,M,,M,,*7B
$GPRMC,124153.000,A,5416.3280,N,00052.1290,W,0.000,0.00,260812,,A*6D
$GPGGA,124209.000,5416.3422,N,00052.1359,W,1,0,,70.0,M,,M,,*7D
$GPRMC,124209.000,A,5416.3422,N,00052.1359,W,0.000,0.00,260812,,A*6B
$GPGGA,124224.000,5416.3481,N,00052.1371,W,1,0,,70.0,M,,M,,*71
$GPRMC,124224.000,A,5416.3481,N,00052.1371,W,0.000,0.00,260812,,A*67
$GPGGA,124239.000,5416.3568,N,00052.1419,W,1,0,,70.0,M,,M,,*72
$GPRMC,124239.000,A,5416.3568,N,00052.1419,W,0.000,0.00,260812,,A*64
$GPGGA,124254.000,5416.3664,N,00052.1437,W,1,0,,70.0,M,,M,,*7A
$GPRMC,124254.000,A,5416.3664,N,00052.1437,W,0.000,0.00,260812,,A*6C
$GPGGA,124309.000,5416.3783,N,00052.1499,W,1,0,,70.0,M,,M,,*7F
$GPRMC,124309.000,A,5416.3783,N,00052.1499,W,0.000,0.00,260812,,A*69
$GPGGA,124324.000,5416.3879,N,00052.1513,W,1,0,,70.0,M,,M,,*79
$GPRMC,124324.000,A,5416.3879,N,00052.1513,W,0.000,0.00,260812,,A*6F
$GPGGA,124343.000,5416.3966,N,00052.1558,W,1,0,,70.0,M,,M,,*78
$GPRMC,124343.000,A,5416.3966,N,00052.1558,W,0.000,0.00,260812,,A*6E
$GPGGA,124358.000,5416.4024,N,00052.1583,W,1,0,,70.0,M,,M,,*7C
$GPRMC,124358.000,A,5416.4024,N,00052.1583,W,0.000,0.00,260812,,A*6A
$GPGGA,124414.000,5416.4101,N,00052.1592,W,1,0,,70.0,M,,M,,*75
$GPRMC,124414.000,A,5416.4101,N,00052.1592,W,0.000,0.00,260812,,A*63
$GPGGA,124431.000,5416.4225,N,00052.1632,W,1,0,,70.0,M,,M,,*7E
$GPRMC,124431.000,A,5416.4225,N,00052.1632,W,0.000,0.00,260812,,A*68
$GPGGA,124446.000,5416.4342,N,00052.1694,W,1,0,,70.0,M,,M,,*72
$GPRMC,124446.000,A,5416.4342,N,00052.1694,W,0.000,0.00,260812,,A*64
$GPGGA,124502.000,5416.4401,N,00052.1700,W,1,0,,70.0,M,,M,,*7F
$GPRMC,124502.000,A,5416.4401,N,00052.1700,W,0.000,0.00,260812,,A*69
$GPGGA,124517.000,5416.4518,N,00052.1719,W,1,0,,70.0,M,,M,,*7A
$GPRMC,124517.000,A,5416.4518,N,00052.1719,W,0.000,0.00,260812,,A*6C
$GPGGA,124532.000,5416.4575,N,00052.1770,W,1,0,,70.0,M,,M,,*79
$GPRMC,124532.000,A,5416.4575,N,00052.1770,W,0.000,0.00,260812,,A*6F
$GPGGA,124548.000,5416.4619,N,00052.1721,W,1,0,,71.0,M,,M,,*78
$GPRMC,124548.000,A,5416.4619,N,00052.1721,W,0.000,0.00,260812,,A*6F
$GPGGA,124604.000,5416.4747,N,00052.1782,W,1,0,,71.0,M,,M,,*70
$GPRMC,124604.000,A,5416.4747,N,00052.1782,W,0.000,0.00,260812,,A*67
$GPGGA,124619.000,5416.4822,N,00052.1793,W,1,0,,70.0,M,,M,,*71
$GPRMC,124619.000,A,5416.4822,N,00052.1793,W,0.000,0.00,260812,,A*67
$GPGGA,124634.000,5416.4875,N,00052.1809,W,1,0,,70.0,M,,M,,*70
$GPRMC,124634.000,A,5416.4875,N,00052.1809,W,0.000,0.00,260812,,A*66
$GPGGA,124650.000,5416.4953,N,00052.1872,W,1,0,,70.0,M,,M,,*7B
$GPRMC,124650.000,A,5416.4953,N,00052.1872,W,0.000,0.00,260812,,A*6D
$GPGGA,124705.000,5416.4996,N,00052.1901,W,1,0,,70.0,M,,M,,*76
$GPRMC,124705.000,A,5416.4996,N,00052.1901,W,0.000,0.00,260812,,A*60
$GPGGA,124720.000,5416.5099,N,00052.1989,W,1,0,,70.0,M,,M,,*76
$GPRMC,124720.000,A,5416.5099,N,00052.1989,W,0.000,0.00,260812,,A*60
$GPGGA,124735.000,5416.5163,N,00052.2023,W,1,0,,71.0,M,,M,,*7D
$GPRMC,124735.000,A,5416.5163,N,00052.2023,W,0.000,0.00,260812,,A*6A
$GPGGA,124751.000,5416.5239,N,00052.2082,W,1,0,,71.0,M,,M,,*78
$GPRMC,124751.000,A,5416.5239,N,00052.2082,W,0.000,0.00,260812,,A*6F
$GPGGA,124806.000,5416.5278,N,00052.2070,W,1,0,,71.0,M,,M,,*7D
$GPRMC,124806.000,A,5416.5278,N,00052.2070,W,0.000,0.00,260812,,A*6A
$GPGGA,124822.000,5416.5406,N,00052.2162,W,1,0,,70.0,M,,M,,*77
$GPRMC,124822.000,A,5416.5406,N,00052.2162,W,0.000,0.00,260812,,A*61
$GPGGA,124837.000,5416.5454,N,00052.2169,W,1,0,,70.0,M,,M,,*7F
$GPRMC,124837.000,A,5416.5454,N,00052.2169,W,0.000,0.00,260812,,A*69
$GPGGA,124852.000,5416.5591,N,00052.2220,W,1,0,,70.0,M,,M,,*7A
$GPRMC,124852.000,A,5416.5591,N,00052.2220,W,0.000,0.00,260812,,A*6C
