@Sonygps/ver3.0/wgs-84/
$GPGGA,121021.000,5408.7920,N,00202.9922,W,1,0,,196.0,M,,M,,*44
$GPRMC,121021.000,A,5408.7920,N,00202.9922,W,0.000,0.00,140912,,A*6B
$GPGGA,121036.000,5408.7950,N,00202.9720,W,1,0,,196.0,M,,M,,*49
$GPRMC,121036.000,A,5408.7950,N,00202.9720,W,0.000,0.00,140912,,A*66
$GPGGA,121051.000,5408.8007,N,00202.9602,W,1,0,,198.0,M,,M,,*43
$GPRMC,121051.000,A,5408.8007,N,00202.9602,W,0.000,0.00,140912,,A*62
$GPGGA,121118.000,5408.8152,N,00202.9584,W,1,0,,204.0,M,,M,,*45
$GPRMC,121118.000,A,5408.8152,N,00202.9584,W,0.000,0.00,140912,,A*62
$GPGGA,121133.000,5408.8291,N,00202.9530,W,1,0,,204.0,M,,M,,*4F
$GPRMC,121133.000,A,5408.8291,N,00202.9530,W,0.000,0.00,140912,,A*68
$GPGGA,121148.000,5408.8431,N,00202.9470,W,1,0,,204.0,M,,M,,*4A
$GPRMC,121148.000,A,5408.8431,N,00202.9470,W,0.000,0.00,140912,,A*6D
$GPGGA,121203.000,5408.8465,N,00202.9313,W,1,0,,204.0,M,,M,,*45
$GPRMC,121203.000,A,5408.8465,N,00202.9313,W,0.000,0.00,140912,,A*62
$GPGGA,121218.000,5408.8511,N,00202.9164,W,1,0,,204.0,M,,M,,*4F
$GPRMC,121218.000,A,5408.8511,N,00202.9164,W,0.000,0.00,140912,,A*68
$GPGGA,121233.000,5408.8534,N,00202.9026,W,1,0,,204.0,M,,M,,*46
$GPRMC,121233.000,A,5408.8534,N,00202.9026,W,0.000,0.00,140912,,A*61
$GPGGA,121248.000,5408.8451,N,00202.8836,W,1,0,,204.0,M,,M,,*40
$GPRMC,121248.000,A,5408.8451,N,00202.8836,W,0.000,0.00,140912,,A*67
$GPGGA,121303.000,5408.8493,N,00202.8682,W,1,0,,203.0,M,,M,,*46
$GPRMC,121303.000,A,5408.8493,N,00202.8682,W,0.000,0.00,140912,,A*66
$GPGGA,121318.000,5408.8559,N,00202.8558,W,1,0,,203.0,M,,M,,*4F
$GPRMC,121318.000,A,5408.8559,N,00202.8558,W,0.000,0.00,140912,,A*6F
$GPGGA,121333.000,5408.8616,N,00202.8387,W,1,0,,203.0,M,,M,,*4A
$GPRMC,121333.000,A,5408.8616,N,00202.8387,W,0.000,0.00,140912,,A*6A
$GPGGA,121348.000,5408.8678,N,00202.8276,W,1,0,,204.0,M,,M,,*46
$GPRMC,121348.000,A,5408.8678,N,00202.8276,W,0.000,0.00,140912,,A*61
$GPGGA,121403.000,5408.8644,N,00202.8196,W,1,0,,203.0,M,,M,,*4B
$GPRMC,121403.000,A,5408.8644,N,00202.8196,W,0.000,0.00,140912,,A*6B
$GPGGA,121418.000,5408.8678,N,00202.8050,W,1,0,,202.0,M,,M,,*44
$GPRMC,121418.000,A,5408.8678,N,00202.8050,W,0.000,0.00,140912,,A*65
$GPGGA,121434.000,5408.8703,N,00202.7988,W,1,0,,202.0,M,,M,,*44
$GPRMC,121434.000,A,5408.8703,N,00202.7988,W,0.000,0.00,140912,,A*65
$GPGGA,121449.000,5408.8742,N,00202.7843,W,1,0,,202.0,M,,M,,*4D
$GPRMC,121449.000,A,5408.8742,N,00202.7843,W,0.000,0.00,140912,,A*6C
$GPGGA,121504.000,5408.8804,N,00202.7768,W,1,0,,202.0,M,,M,,*4E
$GPRMC,121504.000,A,5408.8804,N,00202.7768,W,0.000,0.00,140912,,A*6F
$GPGGA,121519.000,5408.8799,N,00202.7716,W,1,0,,202.0,M,,M,,*40
$GPRMC,121519.000,A,5408.8799,N,00202.7716,W,0.000,0.00,140912,,A*61
$GPGGA,121534.000,5408.8790,N,00202.7706,W,1,0,,202.0,M,,M,,*47
$GPRMC,121534.000,A,5408.8790,N,00202.7706,W,0.000,0.00,140912,,A*66
$GPGGA,121549.000,5408.8829,N,00202.7663,W,1,0,,202.0,M,,M,,*42
$GPRMC,121549.000,A,5408.8829,N,00202.7663,W,0.000,0.00,140912,,A*63
$GPGGA,121604.000,5408.8948,N,00202.7618,W,1,0,,203.0,M,,M,,*43
$GPRMC,121604.000,A,5408.8948,N,00202.7618,W,0.000,0.00,140912,,A*63
$GPGGA,121619.000,5408.9010,N,00202.7625,W,1,0,,204.0,M,,M,,*43
$GPRMC,121619.000,A,5408.9010,N,00202.7625,W,0.000,0.00,140912,,A*64
$GPGGA,121638.000,5408.9074,N,00202.7624,W,1,0,,205.0,M,,M,,*42
$GPRMC,121638.000,A,5408.9074,N,00202.7624,W,0.000,0.00,140912,,A*64
$GPGGA,121654.000,5408.9198,N,00202.7624,W,1,0,,205.0,M,,M,,*4B
$GPRMC,121654.000,A,5408.9198,N,00202.7624,W,0.000,0.00,140912,,A*6D
$GPGGA,121709.000,5408.9236,N,00202.7721,W,1,0,,205.0,M,,M,,*41
$GPRMC,121709.000,A,5408.9236,N,00202.7721,W,0.000,0.00,140912,,A*67
$GPGGA,121725.000,5408.9305,N,00202.7830,W,1,0,,205.0,M,,M,,*41
$GPRMC,121725.000,A,5408.9305,N,00202.7830,W,0.000,0.00,140912,,A*67
$GPGGA,121740.000,5408.9374,N,00202.7850,W,1,0,,205.0,M,,M,,*42
$GPRMC,121740.000,A,5408.9374,N,00202.7850,W,0.000,0.00,140912,,A*64
$GPGGA,121756.000,5408.9388,N,00202.7938,W,1,0,,205.0,M,,M,,*49
$GPRMC,121756.000,A,5408.9388,N,00202.7938,W,0.000,0.00,140912,,A*6F
$GPGGA,121811.000,5408.9404,N,00202.8015,W,1,0,,205.0,M,,M,,*4F
$GPRMC,121811.000,A,5408.9404,N,00202.8015,W,0.000,0.00,140912,,A*69
$GPGGA,121826.000,5408.9442,N,00202.8158,W,1,0,,205.0,M,,M,,*41
$GPRMC,121826.000,A,5408.9442,N,00202.8158,W,0.000,0.00,140912,,A*67
$GPGGA,121841.000,5408.9516,N,00202.8171,W,1,0,,205.0,M,,M,,*4B
$GPRMC,121841.000,A,5408.9516,N,00202.8171,W,0.000,0.00,140912,,A*6D
$GPGGA,121856.000,5408.9509,N,00202.8301,W,1,0,,205.0,M,,M,,*46
$GPRMC,121856.000,A,5408.9509,N,00202.8301,W,0.000,0.00,140912,,A*60
$GPGGA,121912.000,5408.9529,N,00202.8509,W,1,0,,206.0,M,,M,,*48
$GPRMC,121912.000,A,5408.9529,N,00202.8509,W,0.000,0.00,140912,,A*6D
$GPGGA,121927.000,5408.9630,N,00202.8531,W,1,0,,205.0,M,,M,,*4D
$GPRMC,121927.000,A,5408.9630,N,00202.8531,W,0.000,0.00,140912,,A*6B
$GPGGA,121943.000,5408.9674,N,00202.8528,W,1,0,,206.0,M,,M,,*44
$GPRMC,121943.000,A,5408.9674,N,00202.8528,W,0.000,0.00,140912,,A*61
$GPGGA,121958.000,5408.9646,N,00202.8569,W,1,0,,206.0,M,,M,,*4A
$GPRMC,121958.000,A,5408.9646,N,00202.8569,W,0.000,0.00,140912,,A*6F
$GPGGA,122015.000,5408.9731,N,00202.8691,W,1,0,,206.0,M,,M,,*4C
$GPRMC,122015.000,A,5408.9731,N,00202.8691,W,0.000,0.00,140912,,A*69
$GPGGA,122031.000,5408.9749,N,00202.8781,W,1,0,,206.0,M,,M,,*45
$GPRMC,122031.000,A,5408.9749,N,00202.8781,W,0.000,0.00,140912,,A*60
$GPGGA,122047.000,5408.9811,N,00202.8814,W,1,0,,206.0,M,,M,,*45
$GPRMC,122047.000,A,5408.9811,N,00202.8814,W,0.000,0.00,140912,,A*60
$GPGGA,122102.000,5408.9864,N,00202.8855,W,1,0,,206.0,M,,M,,*42
$GPRMC,122102.000,A,5408.9864,N,00202.8855,W,0.000,0.00,140912,,A*67
$GPGGA,122117.000,5408.9930,N,00202.8916,W,1,0,,206.0,M,,M,,*40
$GPRMC,122117.000,A,5408.9930,N,00202.8916,W,0.000,0.00,140912,,A*65
$GPGGA,122133.000,5409.0044,N,00202.8977,W,1,0,,206.0,M,,M,,*43
$GPRMC,122133.000,A,5409.0044,N,00202.8977,W,0.000,0.00,140912,,A*66
$GPGGA,122148.000,5409.0090,N,00202.9056,W,1,0,,206.0,M,,M,,*4D
$GPRMC,122148.000,A,5409.0090,N,00202.9056,W,0.000,0.00,140912,,A*68
$GPGGA,122204.000,5409.0070,N,00202.9135,W,1,0,,206.0,M,,M,,*4C
$GPRMC,122204.000,A,5409.0070,N,00202.9135,W,0.000,0.00,140912,,A*69
$GPGGA,122232.000,5409.0195,N,00202.9208,W,1,0,,206.0,M,,M,,*4E
$GPRMC,122232.000,A,5409.0195,N,00202.9208,W,0.000,0.00,140912,,A*6B
$GPGGA,122247.000,5409.0255,N,00202.9276,W,1,0,,207.0,M,,M,,*4B
$GPRMC,122247.000,A,5409.0255,N,00202.9276,W,0.000,0.00,140912,,A*6F
$GPGGA,122303.000,5409.0372,N,00202.9339,W,1,0,,207.0,M,,M,,*44
$GPRMC,122303.000,A,5409.0372,N,00202.9339,W,0.000,0.00,140912,,A*60
$GPGGA,122318.000,5409.0399,N,00202.9381,W,1,0,,206.0,M,,M,,*49
$GPRMC,122318.000,A,5409.0399,N,00202.9381,W,0.000,0.00,140912,,A*6C
$GPGGA,122333.000,5409.0468,N,00202.9421,W,1,0,,207.0,M,,M,,*45
$GPRMC,122333.000,A,5409.0468,N,00202.9421,W,0.000,0.00,140912,,A*61
$GPGGA,122348.000,5409.0498,N,00202.9467,W,1,0,,207.0,M,,M,,*44
$GPRMC,122348.000,A,5409.0498,N,00202.9467,W,0.000,0.00,140912,,A*60
$GPGGA,122403.000,5409.0555,N,00202.9586,W,1,0,,207.0,M,,M,,*42
$GPRMC,122403.000,A,5409.0555,N,00202.9586,W,0.000,0.00,140912,,A*66
$GPGGA,122418.000,5409.0589,N,00202.9511,W,1,0,,207.0,M,,M,,*47
$GPRMC,122418.000,A,5409.0589,N,00202.9511,W,0.000,0.00,140912,,A*63
$GPGGA,122433.000,5409.0656,N,00202.9578,W,1,0,,206.0,M,,M,,*41
$GPRMC,122433.000,A,5409.0656,N,00202.9578,W,0.000,0.00,140912,,A*64
$GPGGA,122448.000,5409.0681,N,00202.9592,W,1,0,,207.0,M,,M,,*42
$GPRMC,122448.000,A,5409.0681,N,00202.9592,W,0.000,0.00,140912,,A*66
$GPGGA,122504.000,5409.0747,N,00202.9773,W,1,0,,208.0,M,,M,,*42
$GPRMC,122504.000,A,5409.0747,N,00202.9773,W,0.000,0.00,140912,,A*69
$GPGGA,122520.000,5409.0818,N,00202.9847,W,1,0,,208.0,M,,M,,*49
$GPRMC,122520.000,A,5409.0818,N,00202.9847,W,0.000,0.00,140912,,A*62
$GPGGA,122536.000,5409.0852,N,00203.0026,W,1,0,,208.0,M,,M,,*47
$GPRMC,122536.000,A,5409.0852,N,00203.0026,W,0.000,0.00,140912,,A*6C
$GPGGA,122551.000,5409.0871,N,00203.0108,W,1,0,,208.0,M,,M,,*4A
$GPRMC,122551.000,A,5409.0871,N,00203.0108,W,0.000,0.00,140912,,A*61
$GPGGA,122607.000,5409.0900,N,00203.0332,W,1,0,,208.0,M,,M,,*46
$GPRMC,122607.000,A,5409.0900,N,00203.0332,W,0.000,0.00,140912,,A*6D
$GPGGA,122622.000,5409.0894,N,00203.0453,W,1,0,,207.0,M,,M,,*42
$GPRMC,122622.000,A,5409.0894,N,00203.0453,W,0.000,0.00,140912,,A*66
$GPGGA,122638.000,5409.0932,N,00203.0358,W,1,0,,207.0,M,,M,,*48
$GPRMC,122638.000,A,5409.0932,N,00203.0358,W,0.000,0.00,140912,,A*6C
$GPGGA,122654.000,5409.0948,N,00203.0338,W,1,0,,207.0,M,,M,,*49
$GPRMC,122654.000,A,5409.0948,N,00203.0338,W,0.000,0.00,140912,,A*6D
$GPGGA,122709.000,5409.0921,N,00203.0440,W,1,0,,208.0,M,,M,,*48
$GPRMC,122709.000,A,5409.0921,N,00203.0440,W,0.000,0.00,140912,,A*63
$GPGGA,122724.000,5409.1013,N,00203.0446,W,1,0,,207.0,M,,M,,*47
$GPRMC,122724.000,A,5409.1013,N,00203.0446,W,0.000,0.00,140912,,A*63
$GPGGA,122740.000,5409.1068,N,00203.0492,W,1,0,,208.0,M,,M,,*4F
$GPRMC,122740.000,A,5409.1068,N,00203.0492,W,0.000,0.00,140912,,A*64
$GPGGA,122755.000,5409.1143,N,00203.0424,W,1,0,,207.0,M,,M,,*41
$GPRMC,122755.000,A,5409.1143,N,00203.0424,W,0.000,0.00,140912,,A*65
$GPGGA,122810.000,5409.1212,N,00203.0557,W,1,0,,207.0,M,,M,,*4D
$GPRMC,122810.000,A,5409.1212,N,00203.0557,W,0.000,0.00,140912,,A*69
$GPGGA,122825.000,5409.1244,N,00203.0684,W,1,0,,207.0,M,,M,,*45
$GPRMC,122825.000,A,5409.1244,N,00203.0684,W,0.000,0.00,140912,,A*61
$GPGGA,122840.000,5409.1271,N,00203.0597,W,1,0,,208.0,M,,M,,*4E
$GPRMC,122840.000,A,5409.1271,N,00203.0597,W,0.000,0.00,140912,,A*65
$GPGGA,122856.000,5409.1180,N,00203.0782,W,1,0,,208.0,M,,M,,*42
$GPRMC,122856.000,A,5409.1180,N,00203.0782,W,0.000,0.00,140912,,A*69
$GPGGA,122912.000,5409.1271,N,00203.0733,W,1,0,,208.0,M,,M,,*44
$GPRMC,122912.000,A,5409.1271,N,00203.0733,W,0.000,0.00,140912,,A*6F
$GPGGA,122927.000,5409.1324,N,00203.0762,W,1,0,,208.0,M,,M,,*47
$GPRMC,122927.000,A,5409.1324,N,00203.0762,W,0.000,0.00,140912,,A*6C
$GPGGA,122942.000,5409.1429,N,00203.1016,W,1,0,,208.0,M,,M,,*4B
$GPRMC,122942.000,A,5409.1429,N,00203.1016,W,0.000,0.00,140912,,A*60
$GPGGA,122957.000,5409.1436,N,00203.1127,W,1,0,,208.0,M,,M,,*42
$GPRMC,122957.000,A,5409.1436,N,00203.1127,W,0.000,0.00,140912,,A*69
$GPGGA,123013.000,5409.1450,N,00203.1245,W,1,0,,208.0,M,,M,,*4D
$GPRMC,123013.000,A,5409.1450,N,00203.1245,W,0.000,0.00,140912,,A*66
$GPGGA,123028.000,5409.1512,N,00203.1295,W,1,0,,208.0,M,,M,,*4F
$GPRMC,123028.000,A,5409.1512,N,00203.1295,W,0.000,0.00,140912,,A*64
$GPGGA,123043.000,5409.1608,N,00203.1435,W,1,0,,208.0,M,,M,,*46
$GPRMC,123043.000,A,5409.1608,N,00203.1435,W,0.000,0.00,140912,,A*6D
$GPGGA,123058.000,5409.1610,N,00203.1431,W,1,0,,208.0,M,,M,,*41
$GPRMC,123058.000,A,5409.1610,N,00203.1431,W,0.000,0.00,140912,,A*6A
$GPGGA,123113.000,5409.1665,N,00203.1458,W,1,0,,208.0,M,,M,,*42
$GPRMC,123113.000,A,5409.1665,N,00203.1458,W,0.000,0.00,140912,,A*69
$GPGGA,123137.000,5409.1713,N,00203.1589,W,1,0,,208.0,M,,M,,*49
$GPRMC,123137.000,A,5409.1713,N,00203.1589,W,0.000,0.00,140912,,A*62
$GPGGA,123153.000,5409.1743,N,00203.1654,W,1,0,,208.0,M,,M,,*4D
$GPRMC,123153.000,A,5409.1743,N,00203.1654,W,0.000,0.00,140912,,A*66
$GPGGA,123209.000,5409.1802,N,00203.1693,W,1,0,,208.0,M,,M,,*40
$GPRMC,123209.000,A,5409.1802,N,00203.1693,W,0.000,0.00,140912,,A*6B
$GPGGA,123224.000,5409.1809,N,00203.1712,W,1,0,,209.0,M,,M,,*4D
$GPRMC,123224.000,A,5409.1809,N,00203.1712,W,0.000,0.00,140912,,A*67
$GPGGA,123240.000,5409.1811,N,00203.1695,W,1,0,,209.0,M,,M,,*48
$GPRMC,123240.000,A,5409.1811,N,00203.1695,W,0.000,0.00,140912,,A*62
$GPGGA,123302.000,5409.1827,N,00203.1858,W,1,0,,218.0,M,,M,,*45
$GPRMC,123302.000,A,5409.1827,N,00203.1858,W,0.000,0.00,140912,,A*6F
$GPGGA,123317.000,5409.1761,N,00203.2023,W,1,0,,241.0,M,,M,,*47
$GPRMC,123317.000,A,5409.1761,N,00203.2023,W,0.000,0.00,140912,,A*61
$GPGGA,123332.000,5409.1807,N,00203.2182,W,1,0,,243.0,M,,M,,*47
$GPRMC,123332.000,A,5409.1807,N,00203.2182,W,0.000,0.00,140912,,A*63
$GPGGA,123347.000,5409.1818,N,00203.2156,W,1,0,,242.0,M,,M,,*43
$GPRMC,123347.000,A,5409.1818,N,00203.2156,W,0.000,0.00,140912,,A*66
$GPGGA,123402.000,5409.1850,N,00203.2220,W,1,0,,242.0,M,,M,,*4B
$GPRMC,123402.000,A,5409.1850,N,00203.2220,W,0.000,0.00,140912,,A*6E
$GPGGA,123417.000,5409.1912,N,00203.2426,W,1,0,,247.0,M,,M,,*4D
$GPRMC,123417.000,A,5409.1912,N,00203.2426,W,0.000,0.00,140912,,A*6D
$GPGGA,123432.000,5409.1978,N,00203.2583,W,1,0,,246.0,M,,M,,*49
$GPRMC,123432.000,A,5409.1978,N,00203.2583,W,0.000,0.00,140912,,A*68
$GPGGA,123500.000,5409.2056,N,00203.2687,W,1,0,,246.0,M,,M,,*48
$GPRMC,123500.000,A,5409.2056,N,00203.2687,W,0.000,0.00,140912,,A*69
$GPGGA,123516.000,5409.2207,N,00203.2797,W,1,0,,246.0,M,,M,,*49
$GPRMC,123516.000,A,5409.2207,N,00203.2797,W,0.000,0.00,140912,,A*68
$GPGGA,123532.000,5409.2262,N,00203.2910,W,1,0,,245.0,M,,M,,*4E
$GPRMC,123532.000,A,5409.2262,N,00203.2910,W,0.000,0.00,140912,,A*6C
$GPGGA,123547.000,5409.2333,N,00203.3009,W,1,0,,245.0,M,,M,,*49
$GPRMC,123547.000,A,5409.2333,N,00203.3009,W,0.000,0.00,140912,,A*6B
$GPGGA,123602.000,5409.2381,N,00203.3086,W,1,0,,245.0,M,,M,,*45
$GPRMC,123602.000,A,5409.2381,N,00203.3086,W,0.000,0.00,140912,,A*67
$GPGGA,123617.000,5409.2498,N,00203.3159,W,1,0,,245.0,M,,M,,*4D
$GPRMC,123617.000,A,5409.2498,N,00203.3159,W,0.000,0.00,140912,,A*6F
$GPGGA,123634.000,5409.2580,N,00203.3164,W,1,0,,245.0,M,,M,,*4A
$GPRMC,123634.000,A,5409.2580,N,00203.3164,W,0.000,0.00,140912,,A*68
$GPGGA,123650.000,5409.2608,N,00203.3491,W,1,0,,245.0,M,,M,,*44
$GPRMC,123650.000,A,5409.2608,N,00203.3491,W,0.000,0.00,140912,,A*66
$GPGGA,123705.000,5409.2709,N,00203.3662,W,1,0,,246.0,M,,M,,*48
$GPRMC,123705.000,A,5409.2709,N,00203.3662,W,0.000,0.00,140912,,A*69
$GPGGA,123720.000,5409.2777,N,00203.3873,W,1,0,,245.0,M,,M,,*4B
$GPRMC,123720.000,A,5409.2777,N,00203.3873,W,0.000,0.00,140912,,A*69
$GPGGA,123736.000,5409.2862,N,00203.3890,W,1,0,,245.0,M,,M,,*4A
$GPRMC,123736.000,A,5409.2862,N,00203.3890,W,0.000,0.00,140912,,A*68
$GPGGA,123751.000,5409.2876,N,00203.3973,W,1,0,,245.0,M,,M,,*42
$GPRMC,123751.000,A,5409.2876,N,00203.3973,W,0.000,0.00,140912,,A*60
$GPGGA,123806.000,5409.2921,N,00203.3984,W,1,0,,245.0,M,,M,,*44
$GPRMC,123806.000,A,5409.2921,N,00203.3984,W,0.000,0.00,140912,,A*66
$GPGGA,123822.000,5409.2979,N,00203.4045,W,1,0,,246.0,M,,M,,*4F
$GPRMC,123822.000,A,5409.2979,N,00203.4045,W,0.000,0.00,140912,,A*6E
$GPGGA,123837.000,5409.3059,N,00203.4090,W,1,0,,246.0,M,,M,,*49
$GPRMC,123837.000,A,5409.3059,N,00203.4090,W,0.000,0.00,140912,,A*68
$GPGGA,123852.000,5409.3089,N,00203.4259,W,1,0,,245.0,M,,M,,*43
$GPRMC,123852.000,A,5409.3089,N,00203.4259,W,0.000,0.00,140912,,A*61
$GPGGA,123907.000,5409.3169,N,00203.4320,W,1,0,,246.0,M,,M,,*41
$GPRMC,123907.000,A,5409.3169,N,00203.4320,W,0.000,0.00,140912,,A*60
$GPGGA,123923.000,5409.3224,N,00203.4422,W,1,0,,246.0,M,,M,,*48
$GPRMC,123923.000,A,5409.3224,N,00203.4422,W,0.000,0.00,140912,,A*69
$GPGGA,123939.000,5409.3297,N,00203.4458,W,1,0,,247.0,M,,M,,*47
$GPRMC,123939.000,A,5409.3297,N,00203.4458,W,0.000,0.00,140912,,A*67
$GPGGA,123954.000,5409.3379,N,00203.4586,W,1,0,,248.0,M,,M,,*40
$GPRMC,123954.000,A,5409.3379,N,00203.4586,W,0.000,0.00,140912,,A*6F
$GPGGA,124009.000,5409.3436,N,00203.4794,W,1,0,,248.0,M,,M,,*4B
$GPRMC,124009.000,A,5409.3436,N,00203.4794,W,0.000,0.00,140912,,A*64
$GPGGA,124025.000,5409.3489,N,00203.4957,W,1,0,,248.0,M,,M,,*40
$GPRMC,124025.000,A,5409.3489,N,00203.4957,W,0.000,0.00,140912,,A*6F
$GPGGA,124053.000,5409.3521,N,00203.4973,W,1,0,,248.0,M,,M,,*44
$GPRMC,124053.000,A,5409.3521,N,00203.4973,W,0.000,0.00,140912,,A*6B
$GPGGA,124108.000,5409.3535,N,00203.4953,W,1,0,,248.0,M,,M,,*4C
$GPRMC,124108.000,A,5409.3535,N,00203.4953,W,0.000,0.00,140912,,A*63
$GPGGA,124124.000,5409.3681,N,00203.5011,W,1,0,,248.0,M,,M,,*40
$GPRMC,124124.000,A,5409.3681,N,00203.5011,W,0.000,0.00,140912,,A*6F
$GPGGA,124139.000,5409.3663,N,00203.5024,W,1,0,,248.0,M,,M,,*46
$GPRMC,124139.000,A,5409.3663,N,00203.5024,W,0.000,0.00,140912,,A*69
$GPGGA,124154.000,5409.3707,N,00203.5101,W,1,0,,248.0,M,,M,,*48
$GPRMC,124154.000,A,5409.3707,N,00203.5101,W,0.000,0.00,140912,,A*67
$GPGGA,124209.000,5409.3688,N,00203.5084,W,1,0,,248.0,M,,M,,*49
$GPRMC,124209.000,A,5409.3688,N,00203.5084,W,0.000,0.00,140912,,A*66
$GPGGA,124224.000,5409.3707,N,00203.5070,W,1,0,,248.0,M,,M,,*4B
$GPRMC,124224.000,A,5409.3707,N,00203.5070,W,0.000,0.00,140912,,A*64
$GPGGA,124239.000,5409.3752,N,00203.5120,W,1,0,,248.0,M,,M,,*43
$GPRMC,124239.000,A,5409.3752,N,00203.5120,W,0.000,0.00,140912,,A*6C
$GPGGA,124254.000,5409.3821,N,00203.5202,W,1,0,,247.0,M,,M,,*4F
$GPRMC,124254.000,A,5409.3821,N,00203.5202,W,0.000,0.00,140912,,A*6F
$GPGGA,124309.000,5409.3878,N,00203.5315,W,1,0,,247.0,M,,M,,*4D
$GPRMC,124309.000,A,5409.3878,N,00203.5315,W,0.000,0.00,140912,,A*6D
$GPGGA,124324.000,5409.3945,N,00203.5412,W,1,0,,246.0,M,,M,,*4C
$GPRMC,124324.000,A,5409.3945,N,00203.5412,W,0.000,0.00,140912,,A*6D
$GPGGA,124339.000,5409.4022,N,00203.5457,W,1,0,,245.0,M,,M,,*4D
$GPRMC,124339.000,A,5409.4022,N,00203.5457,W,0.000,0.00,140912,,A*6F
$GPGGA,124354.000,5409.4093,N,00203.5493,W,1,0,,245.0,M,,M,,*44
$GPRMC,124354.000,A,5409.4093,N,00203.5493,W,0.000,0.00,140912,,A*66
$GPGGA,124410.000,5409.4162,N,00203.5493,W,1,0,,245.0,M,,M,,*4C
$GPRMC,124410.000,A,5409.4162,N,00203.5493,W,0.000,0.00,140912,,A*6E
$GPGGA,124425.000,5409.4189,N,00203.5577,W,1,0,,245.0,M,,M,,*44
$GPRMC,124425.000,A,5409.4189,N,00203.5577,W,0.000,0.00,140912,,A*66
$GPGGA,124440.000,5409.4263,N,00203.5779,W,1,0,,245.0,M,,M,,*4C
$GPRMC,124440.000,A,5409.4263,N,00203.5779,W,0.000,0.00,140912,,A*6E
$GPGGA,124455.000,5409.4350,N,00203.5905,W,1,0,,245.0,M,,M,,*4C
$GPRMC,124455.000,A,5409.4350,N,00203.5905,W,0.000,0.00,140912,,A*6E
$GPGGA,124511.000,5409.4379,N,00203.5914,W,1,0,,245.0,M,,M,,*46
$GPRMC,124511.000,A,5409.4379,N,00203.5914,W,0.000,0.00,140912,,A*64
$GPGGA,124526.000,5409.4494,N,00203.5942,W,1,0,,245.0,M,,M,,*45
$GPRMC,124526.000,A,5409.4494,N,00203.5942,W,0.000,0.00,140912,,A*67
$GPGGA,124541.000,5409.4528,N,00203.5977,W,1,0,,246.0,M,,M,,*47
$GPRMC,124541.000,A,5409.4528,N,00203.5977,W,0.000,0.00,140912,,A*66
$GPGGA,124556.000,5409.4569,N,00203.6092,W,1,0,,245.0,M,,M,,*46
$GPRMC,124556.000,A,5409.4569,N,00203.6092,W,0.000,0.00,140912,,A*64
$GPGGA,124611.000,5409.4627,N,00203.6128,W,1,0,,246.0,M,,M,,*4C
$GPRMC,124611.000,A,5409.4627,N,00203.6128,W,0.000,0.00,140912,,A*6D
$GPGGA,124627.000,5409.4714,N,00203.6275,W,1,0,,246.0,M,,M,,*43
$GPRMC,124627.000,A,5409.4714,N,00203.6275,W,0.000,0.00,140912,,A*62
$GPGGA,124642.000,5409.4727,N,00203.6301,W,1,0,,246.0,M,,M,,*42
$GPRMC,124642.000,A,5409.4727,N,00203.6301,W,0.000,0.00,140912,,A*63
$GPGGA,124658.000,5409.4807,N,00203.6355,W,1,0,,246.0,M,,M,,*45
$GPRMC,124658.000,A,5409.4807,N,00203.6355,W,0.000,0.00,140912,,A*64
$GPGGA,124713.000,5409.4803,N,00203.6388,W,1,0,,246.0,M,,M,,*4F
$GPRMC,124713.000,A,5409.4803,N,00203.6388,W,0.000,0.00,140912,,A*6E
$GPGGA,124728.000,5409.4823,N,00203.6421,W,1,0,,246.0,M,,M,,*41
$GPRMC,124728.000,A,5409.4823,N,00203.6421,W,0.000,0.00,140912,,A*60
$GPGGA,124743.000,5409.4819,N,00203.6547,W,1,0,,246.0,M,,M,,*44
$GPRMC,124743.000,A,5409.4819,N,00203.6547,W,0.000,0.00,140912,,A*65
$GPGGA,124758.000,5409.4881,N,00203.6521,W,1,0,,245.0,M,,M,,*4C
$GPRMC,124758.000,A,5409.4881,N,00203.6521,W,0.000,0.00,140912,,A*6E
$GPGGA,124813.000,5409.4942,N,00203.6527,W,1,0,,245.0,M,,M,,*44
$GPRMC,124813.000,A,5409.4942,N,00203.6527,W,0.000,0.00,140912,,A*66
$GPGGA,124828.000,5409.4988,N,00203.6619,W,1,0,,245.0,M,,M,,*44
$GPRMC,124828.000,A,5409.4988,N,00203.6619,W,0.000,0.00,140912,,A*66
$GPGGA,124844.000,5409.5078,N,00203.6753,W,1,0,,245.0,M,,M,,*46
$GPRMC,124844.000,A,5409.5078,N,00203.6753,W,0.000,0.00,140912,,A*64
$GPGGA,124900.000,5409.5155,N,00203.6772,W,1,0,,245.0,M,,M,,*4A
$GPRMC,124900.000,A,5409.5155,N,00203.6772,W,0.000,0.00,140912,,A*68
$GPGGA,124915.000,5409.5194,N,00203.6828,W,1,0,,245.0,M,,M,,*43
$GPRMC,124915.000,A,5409.5194,N,00203.6828,W,0.000,0.00,140912,,A*61
$GPGGA,124930.000,5409.5261,N,00203.6919,W,1,0,,245.0,M,,M,,*4E
$GPRMC,124930.000,A,5409.5261,N,00203.6919,W,0.000,0.00,140912,,A*6C
$GPGGA,124945.000,5409.5332,N,00203.6955,W,1,0,,245.0,M,,M,,*43
$GPRMC,124945.000,A,5409.5332,N,00203.6955,W,0.000,0.00,140912,,A*61
$GPGGA,125001.000,5409.5412,N,00203.6967,W,1,0,,245.0,M,,M,,*4F
$GPRMC,125001.000,A,5409.5412,N,00203.6967,W,0.000,0.00,140912,,A*6D
$GPGGA,125016.000,5409.5485,N,00203.7045,W,1,0,,245.0,M,,M,,*4F
$GPRMC,125016.000,A,5409.5485,N,00203.7045,W,0.000,0.00,140912,,A*6D
$GPGGA,125031.000,5409.5540,N,00203.7203,W,1,0,,245.0,M,,M,,*42
$GPRMC,125031.000,A,5409.5540,N,00203.7203,W,0.000,0.00,140912,,A*60
$GPGGA,125046.000,5409.5579,N,00203.7245,W,1,0,,244.0,M,,M,,*4B
$GPRMC,125046.000,A,5409.5579,N,00203.7245,W,0.000,0.00,140912,,A*68
$GPGGA,125101.000,5409.5677,N,00203.7271,W,1,0,,244.0,M,,M,,*43
$GPRMC,125101.000,A,5409.5677,N,00203.7271,W,0.000,0.00,140912,,A*60
$GPGGA,125116.000,5409.5778,N,00203.7393,W,1,0,,245.0,M,,M,,*47
$GPRMC,125116.000,A,5409.5778,N,00203.7393,W,0.000,0.00,140912,,A*65
$GPGGA,125132.000,5409.5837,N,00203.7459,W,1,0,,245.0,M,,M,,*44
$GPRMC,125132.000,A,5409.5837,N,00203.7459,W,0.000,0.00,140912,,A*66
$GPGGA,125147.000,5409.5924,N,00203.7601,W,1,0,,244.0,M,,M,,*4B
$GPRMC,125147.000,A,5409.5924,N,00203.7601,W,0.000,0.00,140912,,A*68
$GPGGA,125202.000,5409.6016,N,00203.7707,W,1,0,,244.0,M,,M,,*45
$GPRMC,125202.000,A,5409.6016,N,00203.7707,W,0.000,0.00,140912,,A*66
$GPGGA,125218.000,5409.6069,N,00203.7760,W,1,0,,244.0,M,,M,,*47
$GPRMC,125218.000,A,5409.6069,N,00203.7760,W,0.000,0.00,140912,,A*64
$GPGGA,125234.000,5409.6133,N,00203.7806,W,1,0,,244.0,M,,M,,*48
$GPRMC,125234.000,A,5409.6133,N,00203.7806,W,0.000,0.00,140912,,A*6B
$GPGGA,125249.000,5409.6188,N,00203.7811,W,1,0,,244.0,M,,M,,*44
$GPRMC,125249.000,A,5409.6188,N,00203.7811,W,0.000,0.00,140912,,A*67
$GPGGA,125304.000,5409.6229,N,00203.7878,W,1,0,,244.0,M,,M,,*4B
$GPRMC,125304.000,A,5409.6229,N,00203.7878,W,0.000,0.00,140912,,A*68
$GPGGA,125319.000,5409.6286,N,00203.7907,W,1,0,,245.0,M,,M,,*4A
$GPRMC,125319.000,A,5409.6286,N,00203.7907,W,0.000,0.00,140912,,A*68
$GPGGA,125335.000,5409.6375,N,00203.7883,W,1,0,,245.0,M,,M,,*44
$GPRMC,125335.000,A,5409.6375,N,00203.7883,W,0.000,0.00,140912,,A*66
$GPGGA,125350.000,5409.6481,N,00203.7889,W,1,0,,245.0,M,,M,,*41
$GPRMC,125350.000,A,5409.6481,N,00203.7889,W,0.000,0.00,140912,,A*63
$GPGGA,125405.000,5409.6554,N,00203.7918,W,1,0,,245.0,M,,M,,*46
$GPRMC,125405.000,A,5409.6554,N,00203.7918,W,0.000,0.00,140912,,A*64
$GPGGA,125421.000,5409.6632,N,00203.7853,W,1,0,,245.0,M,,M,,*4D
$GPRMC,125421.000,A,5409.6632,N,00203.7853,W,0.000,0.00,140912,,A*6F
$GPGGA,125436.000,5409.6696,N,00203.7959,W,1,0,,245.0,M,,M,,*4E
$GPRMC,125436.000,A,5409.6696,N,00203.7959,W,0.000,0.00,140912,,A*6C
$GPGGA,125454.000,5409.6673,N,00203.7940,W,1,0,,245.0,M,,M,,*49
$GPRMC,125454.000,A,5409.6673,N,00203.7940,W,0.000,0.00,140912,,A*6B
$GPGGA,125509.000,5409.6689,N,00203.7959,W,1,0,,245.0,M,,M,,*4D
$GPRMC,125509.000,A,5409.6689,N,00203.7959,W,0.000,0.00,140912,,A*6F
$GPGGA,125525.000,5409.6732,N,00203.7906,W,1,0,,246.0,M,,M,,*4B
$GPRMC,125525.000,A,5409.6732,N,00203.7906,W,0.000,0.00,140912,,A*6A
$GPGGA,125540.000,5409.6716,N,00203.7884,W,1,0,,246.0,M,,M,,*45
$GPRMC,125540.000,A,5409.6716,N,00203.7884,W,0.000,0.00,140912,,A*64
$GPGGA,125555.000,5409.6723,N,00203.7924,W,1,0,,246.0,M,,M,,*4C
$GPRMC,125555.000,A,5409.6723,N,00203.7924,W,0.000,0.00,140912,,A*6D
$GPGGA,125610.000,5409.6833,N,00203.7921,W,1,0,,246.0,M,,M,,*45
$GPRMC,125610.000,A,5409.6833,N,00203.7921,W,0.000,0.00,140912,,A*64
$GPGGA,125626.000,5409.6888,N,00203.7997,W,1,0,,247.0,M,,M,,*4C
$GPRMC,125626.000,A,5409.6888,N,00203.7997,W,0.000,0.00,140912,,A*6C
$GPGGA,125641.000,5409.6973,N,00203.8002,W,1,0,,247.0,M,,M,,*42
$GPRMC,125641.000,A,5409.6973,N,00203.8002,W,0.000,0.00,140912,,A*62
$GPGGA,125656.000,5409.7110,N,00203.8122,W,1,0,,247.0,M,,M,,*4B
$GPRMC,125656.000,A,5409.7110,N,00203.8122,W,0.000,0.00,140912,,A*6B
$GPGGA,125711.000,5409.7167,N,00203.8181,W,1,0,,247.0,M,,M,,*40
$GPRMC,125711.000,A,5409.7167,N,00203.8181,W,0.000,0.00,140912,,A*60
$GPGGA,125727.000,5409.7202,N,00203.8240,W,1,0,,247.0,M,,M,,*4B
$GPRMC,125727.000,A,5409.7202,N,00203.8240,W,0.000,0.00,140912,,A*6B
$GPGGA,125742.000,5409.7181,N,00203.8248,W,1,0,,246.0,M,,M,,*49
$GPRMC,125742.000,A,5409.7181,N,00203.8248,W,0.000,0.00,140912,,A*68
$GPGGA,125757.000,5409.7165,N,00203.8377,W,1,0,,246.0,M,,M,,*4A
$GPRMC,125757.000,A,5409.7165,N,00203.8377,W,0.000,0.00,140912,,A*6B
$GPGGA,125812.000,5409.7229,N,00203.8461,W,1,0,,246.0,M,,M,,*4F
$GPRMC,125812.000,A,5409.7229,N,00203.8461,W,0.000,0.00,140912,,A*6E
$GPGGA,125827.000,5409.7268,N,00203.8452,W,1,0,,246.0,M,,M,,*4C
$GPRMC,125827.000,A,5409.7268,N,00203.8452,W,0.000,0.00,140912,,A*6D
$GPGGA,125843.000,5409.7321,N,00203.8590,W,1,0,,246.0,M,,M,,*4D
$GPRMC,125843.000,A,5409.7321,N,00203.8590,W,0.000,0.00,140912,,A*6C
$GPGGA,125859.000,5409.7371,N,00203.8584,W,1,0,,245.0,M,,M,,*45
$GPRMC,125859.000,A,5409.7371,N,00203.8584,W,0.000,0.00,140912,,A*67
$GPGGA,125914.000,5409.7414,N,00203.8554,W,1,0,,245.0,M,,M,,*44
$GPRMC,125914.000,A,5409.7414,N,00203.8554,W,0.000,0.00,140912,,A*66
$GPGGA,125929.000,5409.7467,N,00203.8576,W,1,0,,246.0,M,,M,,*4D
$GPRMC,125929.000,A,5409.7467,N,00203.8576,W,0.000,0.00,140912,,A*6C
$GPGGA,125944.000,5409.7456,N,00203.8664,W,1,0,,246.0,M,,M,,*44
$GPRMC,125944.000,A,5409.7456,N,00203.8664,W,0.000,0.00,140912,,A*65
$GPGGA,125959.000,5409.7522,N,00203.8668,W,1,0,,246.0,M,,M,,*46
$GPRMC,125959.000,A,5409.7522,N,00203.8668,W,0.000,0.00,140912,,A*67
$GPGGA,130015.000,5409.7561,N,00203.8648,W,1,0,,246.0,M,,M,,*46
$GPRMC,130015.000,A,5409.7561,N,00203.8648,W,0.000,0.00,140912,,A*67
$GPGGA,130045.000,5409.7591,N,00203.8878,W,1,0,,245.0,M,,M,,*42
$GPRMC,130045.000,A,5409.7591,N,00203.8878,W,0.000,0.00,140912,,A*60
$GPGGA,130101.000,5409.7687,N,00203.8905,W,1,0,,246.0,M,,M,,*4F
$GPRMC,130101.000,A,5409.7687,N,00203.8905,W,0.000,0.00,140912,,A*6E
$GPGGA,130116.000,5409.7751,N,00203.9067,W,1,0,,246.0,M,,M,,*4F
$GPRMC,130116.000,A,5409.7751,N,00203.9067,W,0.000,0.00,140912,,A*6E
$GPGGA,130131.000,5409.7815,N,00203.9047,W,1,0,,246.0,M,,M,,*47
$GPRMC,130131.000,A,5409.7815,N,00203.9047,W,0.000,0.00,140912,,A*66
$GPGGA,130146.000,5409.7854,N,00203.9109,W,1,0,,246.0,M,,M,,*49
$GPRMC,130146.000,A,5409.7854,N,00203.9109,W,0.000,0.00,140912,,A*68
$GPGGA,130201.000,5409.7941,N,00203.9106,W,1,0,,246.0,M,,M,,*43
$GPRMC,130201.000,A,5409.7941,N,00203.9106,W,0.000,0.00,140912,,A*62
$GPGGA,130216.000,5409.8030,N,00203.9121,W,1,0,,245.0,M,,M,,*43
$GPRMC,130216.000,A,5409.8030,N,00203.9121,W,0.000,0.00,140912,,A*61
$GPGGA,130232.000,5409.8096,N,00203.9243,W,1,0,,245.0,M,,M,,*4E
$GPRMC,130232.000,A,5409.8096,N,00203.9243,W,0.000,0.00,140912,,A*6C
$GPGGA,130248.000,5409.8106,N,00203.9265,W,1,0,,245.0,M,,M,,*4F
$GPRMC,130248.000,A,5409.8106,N,00203.9265,W,0.000,0.00,140912,,A*6D
$GPGGA,130303.000,5409.8213,N,00203.9376,W,1,0,,245.0,M,,M,,*45
$GPRMC,130303.000,A,5409.8213,N,00203.9376,W,0.000,0.00,140912,,A*67
$GPGGA,130318.000,5409.8227,N,00203.9401,W,1,0,,245.0,M,,M,,*4F
$GPRMC,130318.000,A,5409.8227,N,00203.9401,W,0.000,0.00,140912,,A*6D
$GPGGA,130334.000,5409.8314,N,00203.9415,W,1,0,,245.0,M,,M,,*45
$GPRMC,130334.000,A,5409.8314,N,00203.9415,W,0.000,0.00,140912,,A*67
$GPGGA,130349.000,5409.8417,N,00203.9481,W,1,0,,246.0,M,,M,,*45
$GPRMC,130349.000,A,5409.8417,N,00203.9481,W,0.000,0.00,140912,,A*64
$GPGGA,130404.000,5409.8492,N,00203.9572,W,1,0,,246.0,M,,M,,*4B
$GPRMC,130404.000,A,5409.8492,N,00203.9572,W,0.000,0.00,140912,,A*6A
$GPGGA,130419.000,5409.8573,N,00203.9705,W,1,0,,246.0,M,,M,,*4B
$GPRMC,130419.000,A,5409.8573,N,00203.9705,W,0.000,0.00,140912,,A*6A
$GPGGA,130434.000,5409.8634,N,00203.9703,W,1,0,,247.0,M,,M,,*43
$GPRMC,130434.000,A,5409.8634,N,00203.9703,W,0.000,0.00,140912,,A*63
$GPGGA,130450.000,5409.8758,N,00203.9803,W,1,0,,247.0,M,,M,,*45
$GPRMC,130450.000,A,5409.8758,N,00203.9803,W,0.000,0.00,140912,,A*65
$GPGGA,130505.000,5409.8813,N,00203.9821,W,1,0,,246.0,M,,M,,*45
$GPRMC,130505.000,A,5409.8813,N,00203.9821,W,0.000,0.00,140912,,A*64
$GPGGA,130521.000,5409.8882,N,00203.9855,W,1,0,,247.0,M,,M,,*49
$GPRMC,130521.000,A,5409.8882,N,00203.9855,W,0.000,0.00,140912,,A*69
$GPGGA,130536.000,5409.8909,N,00203.9921,W,1,0,,247.0,M,,M,,*4F
$GPRMC,130536.000,A,5409.8909,N,00203.9921,W,0.000,0.00,140912,,A*6F
$GPGGA,130551.000,5409.8975,N,00203.9925,W,1,0,,247.0,M,,M,,*41
$GPRMC,130551.000,A,5409.8975,N,00203.9925,W,0.000,0.00,140912,,A*61
$GPGGA,130606.000,5409.8985,N,00204.0009,W,1,0,,247.0,M,,M,,*46
$GPRMC,130606.000,A,5409.8985,N,00204.0009,W,0.000,0.00,140912,,A*66
$GPGGA,130621.000,5409.9028,N,00204.0013,W,1,0,,246.0,M,,M,,*46
$GPRMC,130621.000,A,5409.9028,N,00204.0013,W,0.000,0.00,140912,,A*67
$GPGGA,130636.000,5409.9113,N,00204.0001,W,1,0,,246.0,M,,M,,*4A
$GPRMC,130636.000,A,5409.9113,N,00204.0001,W,0.000,0.00,140912,,A*6B
$GPGGA,130651.000,5409.9193,N,00204.0280,W,1,0,,246.0,M,,M,,*48
$GPRMC,130651.000,A,5409.9193,N,00204.0280,W,0.000,0.00,140912,,A*69
$GPGGA,130706.000,5409.9261,N,00204.0260,W,1,0,,246.0,M,,M,,*4B
$GPRMC,130706.000,A,5409.9261,N,00204.0260,W,0.000,0.00,140912,,A*6A
$GPGGA,130721.000,5409.9321,N,00204.0290,W,1,0,,246.0,M,,M,,*44
$GPRMC,130721.000,A,5409.9321,N,00204.0290,W,0.000,0.00,140912,,A*65
$GPGGA,130737.000,5409.9406,N,00204.0608,W,1,0,,246.0,M,,M,,*44
$GPRMC,130737.000,A,5409.9406,N,00204.0608,W,0.000,0.00,140912,,A*65
$GPGGA,130752.000,5409.9497,N,00204.0570,W,1,0,,246.0,M,,M,,*43
$GPRMC,130752.000,A,5409.9497,N,00204.0570,W,0.000,0.00,140912,,A*62
$GPGGA,130808.000,5409.9637,N,00204.0551,W,1,0,,245.0,M,,M,,*4B
$GPRMC,130808.000,A,5409.9637,N,00204.0551,W,0.000,0.00,140912,,A*69
$GPGGA,130824.000,5409.9651,N,00204.0612,W,1,0,,246.0,M,,M,,*42
$GPRMC,130824.000,A,5409.9651,N,00204.0612,W,0.000,0.00,140912,,A*63
$GPGGA,130839.000,5409.9708,N,00204.0779,W,1,0,,245.0,M,,M,,*4C
$GPRMC,130839.000,A,5409.9708,N,00204.0779,W,0.000,0.00,140912,,A*6E
$GPGGA,130854.000,5409.9756,N,00204.0791,W,1,0,,245.0,M,,M,,*4A
$GPRMC,130854.000,A,5409.9756,N,00204.0791,W,0.000,0.00,140912,,A*68
$GPGGA,130909.000,5409.9827,N,00204.0833,W,1,0,,245.0,M,,M,,*4D
$GPRMC,130909.000,A,5409.9827,N,00204.0833,W,0.000,0.00,140912,,A*6F
$GPGGA,130924.000,5409.9925,N,00204.0903,W,1,0,,245.0,M,,M,,*43
$GPRMC,130924.000,A,5409.9925,N,00204.0903,W,0.000,0.00,140912,,A*61
$GPGGA,130939.000,5409.9982,N,00204.0927,W,1,0,,245.0,M,,M,,*44
$GPRMC,130939.000,A,5409.9982,N,00204.0927,W,0.000,0.00,140912,,A*66
$GPGGA,130954.000,5410.0033,N,00204.0972,W,1,0,,244.0,M,,M,,*4C
$GPRMC,130954.000,A,5410.0033,N,00204.0972,W,0.000,0.00,140912,,A*6F
$GPGGA,131010.000,5410.0150,N,00204.1095,W,1,0,,244.0,M,,M,,*41
$GPRMC,131010.000,A,5410.0150,N,00204.1095,W,0.000,0.00,140912,,A*62
$GPGGA,131025.000,5410.0172,N,00204.1162,W,1,0,,245.0,M,,M,,*4F
$GPRMC,131025.000,A,5410.0172,N,00204.1162,W,0.000,0.00,140912,,A*6D
$GPGGA,131040.000,5410.0289,N,00204.1210,W,1,0,,245.0,M,,M,,*4D
$GPRMC,131040.000,A,5410.0289,N,00204.1210,W,0.000,0.00,140912,,A*6F
$GPGGA,131056.000,5410.0330,N,00204.1241,W,1,0,,245.0,M,,M,,*4D
$GPRMC,131056.000,A,5410.0330,N,00204.1241,W,0.000,0.00,140912,,A*6F
$GPGGA,131112.000,5410.0413,N,00204.1275,W,1,0,,245.0,M,,M,,*4D
$GPRMC,131112.000,A,5410.0413,N,00204.1275,W,0.000,0.00,140912,,A*6F
$GPGGA,131127.000,5410.0516,N,00204.1321,W,1,0,,245.0,M,,M,,*4F
$GPRMC,131127.000,A,5410.0516,N,00204.1321,W,0.000,0.00,140912,,A*6D
$GPGGA,131143.000,5410.0564,N,00204.1393,W,1,0,,245.0,M,,M,,*41
$GPRMC,131143.000,A,5410.0564,N,00204.1393,W,0.000,0.00,140912,,A*63
$GPGGA,131158.000,5410.0653,N,00204.1523,W,1,0,,245.0,M,,M,,*41
$GPRMC,131158.000,A,5410.0653,N,00204.1523,W,0.000,0.00,140912,,A*63
$GPGGA,131213.000,5410.0694,N,00204.1575,W,1,0,,245.0,M,,M,,*45
$GPRMC,131213.000,A,5410.0694,N,00204.1575,W,0.000,0.00,140912,,A*67
$GPGGA,131228.000,5410.0731,N,00204.1628,W,1,0,,245.0,M,,M,,*48
$GPRMC,131228.000,A,5410.0731,N,00204.1628,W,0.000,0.00,140912,,A*6A
$GPGGA,131243.000,5410.0763,N,00204.1716,W,1,0,,245.0,M,,M,,*4E
$GPRMC,131243.000,A,5410.0763,N,00204.1716,W,0.000,0.00,140912,,A*6C
$GPGGA,131259.000,5410.0779,N,00204.1821,W,1,0,,245.0,M,,M,,*45
$GPRMC,131259.000,A,5410.0779,N,00204.1821,W,0.000,0.00,140912,,A*67
$GPGGA,131314.000,5410.0742,N,00204.2034,W,1,0,,245.0,M,,M,,*4A
$GPRMC,131314.000,A,5410.0742,N,00204.2034,W,0.000,0.00,140912,,A*68
$GPGGA,131330.000,5410.0763,N,00204.2062,W,1,0,,245.0,M,,M,,*4C
$GPRMC,131330.000,A,5410.0763,N,00204.2062,W,0.000,0.00,140912,,A*6E
$GPGGA,131345.000,5410.0729,N,00204.2135,W,1,0,,245.0,M,,M,,*43
$GPRMC,131345.000,A,5410.0729,N,00204.2135,W,0.000,0.00,140912,,A*61
$GPGGA,131400.000,5410.0729,N,00204.2096,W,1,0,,245.0,M,,M,,*4D
$GPRMC,131400.000,A,5410.0729,N,00204.2096,W,0.000,0.00,140912,,A*6F
$GPGGA,131415.000,5410.0685,N,00204.2254,W,1,0,,245.0,M,,M,,*42
$GPRMC,131415.000,A,5410.0685,N,00204.2254,W,0.000,0.00,140912,,A*60
$GPGGA,131430.000,5410.0667,N,00204.2308,W,1,0,,245.0,M,,M,,*41
$GPRMC,131430.000,A,5410.0667,N,00204.2308,W,0.000,0.00,140912,,A*63
$GPGGA,131447.000,5410.0671,N,00204.2290,W,1,0,,245.0,M,,M,,*46
$GPRMC,131447.000,A,5410.0671,N,00204.2290,W,0.000,0.00,140912,,A*64
$GPGGA,131502.000,5410.0655,N,00204.2335,W,1,0,,245.0,M,,M,,*4E
$GPRMC,131502.000,A,5410.0655,N,00204.2335,W,0.000,0.00,140912,,A*6C
$GPGGA,131518.000,5410.0653,N,00204.2397,W,1,0,,245.0,M,,M,,*4B
$GPRMC,131518.000,A,5410.0653,N,00204.2397,W,0.000,0.00,140912,,A*69
$GPGGA,131534.000,5410.0674,N,00204.2431,W,1,0,,245.0,M,,M,,*4B
$GPRMC,131534.000,A,5410.0674,N,00204.2431,W,0.000,0.00,140912,,A*69
$GPGGA,131550.000,5410.0697,N,00204.2496,W,1,0,,245.0,M,,M,,*49
$GPRMC,131550.000,A,5410.0697,N,00204.2496,W,0.000,0.00,140912,,A*6B
$GPGGA,131605.000,5410.0726,N,00204.2595,W,1,0,,245.0,M,,M,,*43
$GPRMC,131605.000,A,5410.0726,N,00204.2595,W,0.000,0.00,140912,,A*61
$GPGGA,131621.000,5410.0726,N,00204.2781,W,1,0,,244.0,M,,M,,*43
$GPRMC,131621.000,A,5410.0726,N,00204.2781,W,0.000,0.00,140912,,A*60
$GPGGA,131636.000,5410.0735,N,00204.2929,W,1,0,,245.0,M,,M,,*4A
$GPRMC,131636.000,A,5410.0735,N,00204.2929,W,0.000,0.00,140912,,A*68
$GPGGA,131651.000,5410.0742,N,00204.3011,W,1,0,,244.0,M,,M,,*49
$GPRMC,131651.000,A,5410.0742,N,00204.3011,W,0.000,0.00,140912,,A*6A
$GPGGA,131706.000,5410.0777,N,00204.3054,W,1,0,,244.0,M,,M,,*4D
$GPRMC,131706.000,A,5410.0777,N,00204.3054,W,0.000,0.00,140912,,A*6E
$GPGGA,131736.000,5410.0761,N,00204.3302,W,1,0,,244.0,M,,M,,*49
$GPRMC,131736.000,A,5410.0761,N,00204.3302,W,0.000,0.00,140912,,A*6A
$GPGGA,131751.000,5410.0795,N,00204.3338,W,1,0,,243.0,M,,M,,*4D
$GPRMC,131751.000,A,5410.0795,N,00204.3338,W,0.000,0.00,140912,,A*69
$GPGGA,131807.000,5410.0880,N,00204.3311,W,1,0,,243.0,M,,M,,*41
$GPRMC,131807.000,A,5410.0880,N,00204.3311,W,0.000,0.00,140912,,A*65
$GPGGA,131823.000,5410.0866,N,00204.3434,W,1,0,,243.0,M,,M,,*4F
$GPRMC,131823.000,A,5410.0866,N,00204.3434,W,0.000,0.00,140912,,A*6B
$GPGGA,131838.000,5410.0912,N,00204.3497,W,1,0,,243.0,M,,M,,*4E
$GPRMC,131838.000,A,5410.0912,N,00204.3497,W,0.000,0.00,140912,,A*6A
$GPGGA,131854.000,5410.0884,N,00204.3647,W,1,0,,243.0,M,,M,,*45
$GPRMC,131854.000,A,5410.0884,N,00204.3647,W,0.000,0.00,140912,,A*61
$GPGGA,131909.000,5410.0941,N,00204.3867,W,1,0,,243.0,M,,M,,*48
$GPRMC,131909.000,A,5410.0941,N,00204.3867,W,0.000,0.00,140912,,A*6C
$GPGGA,131924.000,5410.0976,N,00204.3920,W,1,0,,243.0,M,,M,,*41
$GPRMC,131924.000,A,5410.0976,N,00204.3920,W,0.000,0.00,140912,,A*65
$GPGGA,131940.000,5410.1026,N,00204.3991,W,1,0,,242.0,M,,M,,*45
$GPRMC,131940.000,A,5410.1026,N,00204.3991,W,0.000,0.00,140912,,A*60
$GPGGA,131955.000,5410.1122,N,00204.4024,W,1,0,,242.0,M,,M,,*44
$GPRMC,131955.000,A,5410.1122,N,00204.4024,W,0.000,0.00,140912,,A*61
$GPGGA,132010.000,5410.1260,N,00204.4064,W,1,0,,242.0,M,,M,,*4E
$GPRMC,132010.000,A,5410.1260,N,00204.4064,W,0.000,0.00,140912,,A*6B
$GPGGA,132026.000,5410.1360,N,00204.4170,W,1,0,,242.0,M,,M,,*4E
$GPRMC,132026.000,A,5410.1360,N,00204.4170,W,0.000,0.00,140912,,A*6B
$GPGGA,132041.000,5410.1436,N,00204.4134,W,1,0,,242.0,M,,M,,*4B
$GPRMC,132041.000,A,5410.1436,N,00204.4134,W,0.000,0.00,140912,,A*6E
$GPGGA,132057.000,5410.1488,N,00204.4105,W,1,0,,242.0,M,,M,,*4B
$GPRMC,132057.000,A,5410.1488,N,00204.4105,W,0.000,0.00,140912,,A*6E
$GPGGA,132113.000,5410.1548,N,00204.4153,W,1,0,,242.0,M,,M,,*44
$GPRMC,132113.000,A,5410.1548,N,00204.4153,W,0.000,0.00,140912,,A*61
$GPGGA,132128.000,5410.1553,N,00204.4160,W,1,0,,242.0,M,,M,,*46
$GPRMC,132128.000,A,5410.1553,N,00204.4160,W,0.000,0.00,140912,,A*63
$GPGGA,132243.000,5410.1983,N,00204.3777,W,1,0,,242.0,M,,M,,*4E
$GPRMC,132243.000,A,5410.1983,N,00204.3777,W,0.000,0.00,140912,,A*6B
$GPGGA,134703.000,5410.1477,N,00204.4129,W,1,0,,241.0,M,,M,,*46
$GPRMC,134703.000,A,5410.1477,N,00204.4129,W,0.000,0.00,140912,,A*60
$GPGGA,134718.000,5410.1452,N,00204.4077,W,1,0,,209.0,M,,M,,*4D
$GPRMC,134718.000,A,5410.1452,N,00204.4077,W,0.000,0.00,140912,,A*67
$GPGGA,134733.000,5410.1358,N,00204.4169,W,1,0,,217.0,M,,M,,*48
$GPRMC,134733.000,A,5410.1358,N,00204.4169,W,0.000,0.00,140912,,A*6D
$GPGGA,134821.000,5410.1212,N,00204.4069,W,1,0,,219.0,M,,M,,*44
$GPRMC,134821.000,A,5410.1212,N,00204.4069,W,0.000,0.00,140912,,A*6F
$GPGGA,134836.000,5410.1090,N,00204.3958,W,1,0,,219.0,M,,M,,*46
$GPRMC,134836.000,A,5410.1090,N,00204.3958,W,0.000,0.00,140912,,A*6D
$GPGGA,134851.000,5410.1063,N,00204.3808,W,1,0,,219.0,M,,M,,*4F
$GPRMC,134851.000,A,5410.1063,N,00204.3808,W,0.000,0.00,140912,,A*64
$GPGGA,134906.000,5410.0994,N,00204.3724,W,1,0,,219.0,M,,M,,*4D
$GPRMC,134906.000,A,5410.0994,N,00204.3724,W,0.000,0.00,140912,,A*66
$GPGGA,134929.000,5410.0848,N,00204.3629,W,1,0,,219.0,M,,M,,*4C
$GPRMC,134929.000,A,5410.0848,N,00204.3629,W,0.000,0.00,140912,,A*67
$GPGGA,134945.000,5410.0802,N,00204.3397,W,1,0,,219.0,M,,M,,*48
$GPRMC,134945.000,A,5410.0802,N,00204.3397,W,0.000,0.00,140912,,A*63
$GPGGA,135001.000,5410.0761,N,00204.3370,W,1,0,,219.0,M,,M,,*43
$GPRMC,135001.000,A,5410.0761,N,00204.3370,W,0.000,0.00,140912,,A*68
$GPGGA,135016.000,5410.0729,N,00204.3375,W,1,0,,219.0,M,,M,,*4C
$GPRMC,135016.000,A,5410.0729,N,00204.3375,W,0.000,0.00,140912,,A*67
$GPGGA,135031.000,5410.0735,N,00204.3425,W,1,0,,219.0,M,,M,,*46
$GPRMC,135031.000,A,5410.0735,N,00204.3425,W,0.000,0.00,140912,,A*6D
$GPGGA,135046.000,5410.0703,N,00204.3512,W,1,0,,219.0,M,,M,,*46
$GPRMC,135046.000,A,5410.0703,N,00204.3512,W,0.000,0.00,140912,,A*6D
$GPGGA,135102.000,5410.0591,N,00204.3785,W,1,0,,219.0,M,,M,,*42
$GPRMC,135102.000,A,5410.0591,N,00204.3785,W,0.000,0.00,140912,,A*69
$GPGGA,135118.000,5410.0566,N,00204.3856,W,1,0,,219.0,M,,M,,*40
$GPRMC,135118.000,A,5410.0566,N,00204.3856,W,0.000,0.00,140912,,A*6B
$GPGGA,135133.000,5410.0527,N,00204.3967,W,1,0,,219.0,M,,M,,*4F
$GPRMC,135133.000,A,5410.0527,N,00204.3967,W,0.000,0.00,140912,,A*64
$GPGGA,135159.000,5410.0436,N,00204.4187,W,1,0,,219.0,M,,M,,*43
$GPRMC,135159.000,A,5410.0436,N,00204.4187,W,0.000,0.00,140912,,A*68
$GPGGA,135214.000,5410.0388,N,00204.4352,W,1,0,,219.0,M,,M,,*41
$GPRMC,135214.000,A,5410.0388,N,00204.4352,W,0.000,0.00,140912,,A*6A
$GPGGA,135229.000,5410.0367,N,00204.4446,W,1,0,,218.0,M,,M,,*4D
$GPRMC,135229.000,A,5410.0367,N,00204.4446,W,0.000,0.00,140912,,A*67
$GPGGA,135245.000,5410.0305,N,00204.4568,W,1,0,,219.0,M,,M,,*4F
$GPRMC,135245.000,A,5410.0305,N,00204.4568,W,0.000,0.00,140912,,A*64
$GPGGA,135300.000,5410.0241,N,00204.4686,W,1,0,,219.0,M,,M,,*4D
$GPRMC,135300.000,A,5410.0241,N,00204.4686,W,0.000,0.00,140912,,A*66
$GPGGA,135315.000,5410.0193,N,00204.4791,W,1,0,,219.0,M,,M,,*42
$GPRMC,135315.000,A,5410.0193,N,00204.4791,W,0.000,0.00,140912,,A*69
$GPGGA,135330.000,5410.0111,N,00204.4986,W,1,0,,219.0,M,,M,,*47
$GPRMC,135330.000,A,5410.0111,N,00204.4986,W,0.000,0.00,140912,,A*6C
$GPGGA,135350.000,5410.0090,N,00204.5104,W,1,0,,219.0,M,,M,,*4A
$GPRMC,135350.000,A,5410.0090,N,00204.5104,W,0.000,0.00,140912,,A*61
$GPGGA,135405.000,5410.0047,N,00204.5213,W,1,0,,219.0,M,,M,,*42
$GPRMC,135405.000,A,5410.0047,N,00204.5213,W,0.000,0.00,140912,,A*69
$GPGGA,135420.000,5410.0014,N,00204.5273,W,1,0,,219.0,M,,M,,*45
$GPRMC,135420.000,A,5410.0014,N,00204.5273,W,0.000,0.00,140912,,A*6E
$GPGGA,135436.000,5409.9946,N,00204.5419,W,1,0,,219.0,M,,M,,*47
$GPRMC,135436.000,A,5409.9946,N,00204.5419,W,0.000,0.00,140912,,A*6C
$GPGGA,135451.000,5409.9923,N,00204.5473,W,1,0,,219.0,M,,M,,*49
$GPRMC,135451.000,A,5409.9923,N,00204.5473,W,0.000,0.00,140912,,A*62
$GPGGA,135506.000,5409.9898,N,00204.5563,W,1,0,,218.0,M,,M,,*4A
$GPRMC,135506.000,A,5409.9898,N,00204.5563,W,0.000,0.00,140912,,A*60
$GPGGA,135521.000,5409.9825,N,00204.5640,W,1,0,,218.0,M,,M,,*4B
$GPRMC,135521.000,A,5409.9825,N,00204.5640,W,0.000,0.00,140912,,A*61
$GPGGA,135536.000,5409.9726,N,00204.5777,W,1,0,,218.0,M,,M,,*44
$GPRMC,135536.000,A,5409.9726,N,00204.5777,W,0.000,0.00,140912,,A*6E
$GPGGA,135558.000,5409.9696,N,00204.5795,W,1,0,,218.0,M,,M,,*4A
$GPRMC,135558.000,A,5409.9696,N,00204.5795,W,0.000,0.00,140912,,A*60
$GPGGA,135613.000,5409.9660,N,00204.5721,W,1,0,,218.0,M,,M,,*40
$GPRMC,135613.000,A,5409.9660,N,00204.5721,W,0.000,0.00,140912,,A*6A
$GPGGA,135641.000,5409.9580,N,00204.5599,W,1,0,,218.0,M,,M,,*4B
$GPRMC,135641.000,A,5409.9580,N,00204.5599,W,0.000,0.00,140912,,A*61
$GPGGA,135656.000,5409.9520,N,00204.5474,W,1,0,,218.0,M,,M,,*45
$GPRMC,135656.000,A,5409.9520,N,00204.5474,W,0.000,0.00,140912,,A*6F
$GPGGA,135711.000,5409.9442,N,00204.5386,W,1,0,,218.0,M,,M,,*48
$GPRMC,135711.000,A,5409.9442,N,00204.5386,W,0.000,0.00,140912,,A*62
$GPGGA,135730.000,5409.9328,N,00204.5306,W,1,0,,218.0,M,,M,,*48
$GPRMC,135730.000,A,5409.9328,N,00204.5306,W,0.000,0.00,140912,,A*62
$GPGGA,135746.000,5409.9277,N,00204.5222,W,1,0,,218.0,M,,M,,*45
$GPRMC,135746.000,A,5409.9277,N,00204.5222,W,0.000,0.00,140912,,A*6F
$GPGGA,135802.000,5409.9236,N,00204.5132,W,1,0,,218.0,M,,M,,*4D
$GPRMC,135802.000,A,5409.9236,N,00204.5132,W,0.000,0.00,140912,,A*67
$GPGGA,135817.000,5409.9060,N,00204.4953,W,1,0,,218.0,M,,M,,*46
$GPRMC,135817.000,A,5409.9060,N,00204.4953,W,0.000,0.00,140912,,A*6C
$GPGGA,135833.000,5409.9035,N,00204.4968,W,1,0,,218.0,M,,M,,*48
$GPRMC,135833.000,A,5409.9035,N,00204.4968,W,0.000,0.00,140912,,A*62
$GPGGA,135848.000,5409.9012,N,00204.4957,W,1,0,,218.0,M,,M,,*4D
$GPRMC,135848.000,A,5409.9012,N,00204.4957,W,0.000,0.00,140912,,A*67
$GPGGA,135903.000,5409.8950,N,00204.4888,W,1,0,,218.0,M,,M,,*4E
$GPRMC,135903.000,A,5409.8950,N,00204.4888,W,0.000,0.00,140912,,A*64
$GPGGA,135918.000,5409.8907,N,00204.4834,W,1,0,,217.0,M,,M,,*4E
$GPRMC,135918.000,A,5409.8907,N,00204.4834,W,0.000,0.00,140912,,A*6B
$GPGGA,135933.000,5409.8847,N,00204.4755,W,1,0,,217.0,M,,M,,*4A
$GPRMC,135933.000,A,5409.8847,N,00204.4755,W,0.000,0.00,140912,,A*6F
$GPGGA,135948.000,5409.8785,N,00204.4695,W,1,0,,217.0,M,,M,,*4A
$GPRMC,135948.000,A,5409.8785,N,00204.4695,W,0.000,0.00,140912,,A*6F
$GPGGA,140007.000,5409.8726,N,00204.4633,W,1,0,,218.0,M,,M,,*40
$GPRMC,140007.000,A,5409.8726,N,00204.4633,W,0.000,0.00,140912,,A*6A
$GPGGA,140022.000,5409.8678,N,00204.4640,W,1,0,,217.0,M,,M,,*46
$GPRMC,140022.000,A,5409.8678,N,00204.4640,W,0.000,0.00,140912,,A*63
$GPGGA,140037.000,5409.8563,N,00204.4558,W,1,0,,217.0,M,,M,,*41
$GPRMC,140037.000,A,5409.8563,N,00204.4558,W,0.000,0.00,140912,,A*64
$GPGGA,140052.000,5409.8465,N,00204.4530,W,1,0,,217.0,M,,M,,*4B
$GPRMC,140052.000,A,5409.8465,N,00204.4530,W,0.000,0.00,140912,,A*6E
$GPGGA,140108.000,5409.8405,N,00204.4475,W,1,0,,217.0,M,,M,,*43
$GPRMC,140108.000,A,5409.8405,N,00204.4475,W,0.000,0.00,140912,,A*66
$GPGGA,140123.000,5409.8316,N,00204.4484,W,1,0,,217.0,M,,M,,*41
$GPRMC,140123.000,A,5409.8316,N,00204.4484,W,0.000,0.00,140912,,A*64
$GPGGA,140138.000,5409.8259,N,00204.4498,W,1,0,,217.0,M,,M,,*4C
$GPRMC,140138.000,A,5409.8259,N,00204.4498,W,0.000,0.00,140912,,A*69
$GPGGA,140159.000,5409.8140,N,00204.4480,W,1,0,,217.0,M,,M,,*49
$GPRMC,140159.000,A,5409.8140,N,00204.4480,W,0.000,0.00,140912,,A*6C
$GPGGA,140214.000,5409.8037,N,00204.4449,W,1,0,,217.0,M,,M,,*47
$GPRMC,140214.000,A,5409.8037,N,00204.4449,W,0.000,0.00,140912,,A*62
$GPGGA,140229.000,5409.7973,N,00204.4414,W,1,0,,217.0,M,,M,,*47
$GPRMC,140229.000,A,5409.7973,N,00204.4414,W,0.000,0.00,140912,,A*62
$GPGGA,140244.000,5409.7886,N,00204.4349,W,1,0,,217.0,M,,M,,*48
$GPRMC,140244.000,A,5409.7886,N,00204.4349,W,0.000,0.00,140912,,A*6D
$GPGGA,140300.000,5409.7771,N,00204.4323,W,1,0,,217.0,M,,M,,*42
$GPRMC,140300.000,A,5409.7771,N,00204.4323,W,0.000,0.00,140912,,A*67
$GPGGA,140315.000,5409.7735,N,00204.4334,W,1,0,,217.0,M,,M,,*40
$GPRMC,140315.000,A,5409.7735,N,00204.4334,W,0.000,0.00,140912,,A*65
$GPGGA,140330.000,5409.7707,N,00204.4390,W,1,0,,194.0,M,,M,,*40
$GPRMC,140330.000,A,5409.7707,N,00204.4390,W,0.000,0.00,140912,,A*6D
$GPGGA,140345.000,5409.7687,N,00204.4330,W,1,0,,216.0,M,,M,,*48
$GPRMC,140345.000,A,5409.7687,N,00204.4330,W,0.000,0.00,140912,,A*6C
$GPGGA,140408.000,5409.7652,N,00204.4336,W,1,0,,217.0,M,,M,,*49
$GPRMC,140408.000,A,5409.7652,N,00204.4336,W,0.000,0.00,140912,,A*6C
$GPGGA,140424.000,5409.7579,N,00204.4351,W,1,0,,217.0,M,,M,,*4C
$GPRMC,140424.000,A,5409.7579,N,00204.4351,W,0.000,0.00,140912,,A*69
$GPGGA,140439.000,5409.7540,N,00204.4386,W,1,0,,217.0,M,,M,,*40
$GPRMC,140439.000,A,5409.7540,N,00204.4386,W,0.000,0.00,140912,,A*65
$GPGGA,140454.000,5409.7469,N,00204.4422,W,1,0,,217.0,M,,M,,*48
$GPRMC,140454.000,A,5409.7469,N,00204.4422,W,0.000,0.00,140912,,A*6D
$GPGGA,140509.000,5409.7378,N,00204.4432,W,1,0,,217.0,M,,M,,*47
$GPRMC,140509.000,A,5409.7378,N,00204.4432,W,0.000,0.00,140912,,A*62
$GPGGA,140524.000,5409.7325,N,00204.4444,W,1,0,,217.0,M,,M,,*41
$GPRMC,140524.000,A,5409.7325,N,00204.4444,W,0.000,0.00,140912,,A*64
$GPGGA,140539.000,5409.7279,N,00204.4444,W,1,0,,217.0,M,,M,,*45
$GPRMC,140539.000,A,5409.7279,N,00204.4444,W,0.000,0.00,140912,,A*60
$GPGGA,140555.000,5409.7222,N,00204.4354,W,1,0,,217.0,M,,M,,*47
$GPRMC,140555.000,A,5409.7222,N,00204.4354,W,0.000,0.00,140912,,A*62
$GPGGA,140610.000,5409.7188,N,00204.4326,W,1,0,,217.0,M,,M,,*43
$GPRMC,140610.000,A,5409.7188,N,00204.4326,W,0.000,0.00,140912,,A*66
$GPGGA,140633.000,5409.7126,N,00204.4290,W,1,0,,217.0,M,,M,,*4A
$GPRMC,140633.000,A,5409.7126,N,00204.4290,W,0.000,0.00,140912,,A*6F
$GPGGA,140648.000,5409.7085,N,00204.4213,W,1,0,,217.0,M,,M,,*45
$GPRMC,140648.000,A,5409.7085,N,00204.4213,W,0.000,0.00,140912,,A*60
$GPGGA,140703.000,5409.7028,N,00204.4213,W,1,0,,217.0,M,,M,,*4C
$GPRMC,140703.000,A,5409.7028,N,00204.4213,W,0.000,0.00,140912,,A*69
$GPGGA,140718.000,5409.6941,N,00204.4153,W,1,0,,217.0,M,,M,,*46
$GPRMC,140718.000,A,5409.6941,N,00204.4153,W,0.000,0.00,140912,,A*63
$GPGGA,140733.000,5409.6911,N,00204.4126,W,1,0,,217.0,M,,M,,*48
$GPRMC,140733.000,A,5409.6911,N,00204.4126,W,0.000,0.00,140912,,A*6D
$GPGGA,140748.000,5409.6865,N,00204.3973,W,1,0,,217.0,M,,M,,*49
$GPRMC,140748.000,A,5409.6865,N,00204.3973,W,0.000,0.00,140912,,A*6C
$GPGGA,140803.000,5409.6808,N,00204.3921,W,1,0,,217.0,M,,M,,*45
$GPRMC,140803.000,A,5409.6808,N,00204.3921,W,0.000,0.00,140912,,A*60
$GPGGA,140823.000,5409.6709,N,00204.3779,W,1,0,,217.0,M,,M,,*4A
$GPRMC,140823.000,A,5409.6709,N,00204.3779,W,0.000,0.00,140912,,A*6F
$GPGGA,140839.000,5409.6600,N,00204.3623,W,1,0,,217.0,M,,M,,*47
$GPRMC,140839.000,A,5409.6600,N,00204.3623,W,0.000,0.00,140912,,A*62
$GPGGA,140854.000,5409.6494,N,00204.3407,W,1,0,,217.0,M,,M,,*47
$GPRMC,140854.000,A,5409.6494,N,00204.3407,W,0.000,0.00,140912,,A*62
$GPGGA,140909.000,5409.6410,N,00204.3268,W,1,0,,217.0,M,,M,,*4D
$GPRMC,140909.000,A,5409.6410,N,00204.3268,W,0.000,0.00,140912,,A*68
$GPGGA,140924.000,5409.6396,N,00204.3216,W,1,0,,217.0,M,,M,,*42
$GPRMC,140924.000,A,5409.6396,N,00204.3216,W,0.000,0.00,140912,,A*67
$GPGGA,140939.000,5409.6357,N,00204.3116,W,1,0,,217.0,M,,M,,*40
$GPRMC,140939.000,A,5409.6357,N,00204.3116,W,0.000,0.00,140912,,A*65
$GPGGA,140954.000,5409.6293,N,00204.3013,W,1,0,,217.0,M,,M,,*46
$GPRMC,140954.000,A,5409.6293,N,00204.3013,W,0.000,0.00,140912,,A*63
$GPGGA,141013.000,5409.6240,N,00204.2855,W,1,0,,217.0,M,,M,,*48
$GPRMC,141013.000,A,5409.6240,N,00204.2855,W,0.000,0.00,140912,,A*6D
$GPGGA,141029.000,5409.6160,N,00204.2775,W,1,0,,217.0,M,,M,,*4D
$GPRMC,141029.000,A,5409.6160,N,00204.2775,W,0.000,0.00,140912,,A*68
$GPGGA,141045.000,5409.6066,N,00204.2488,W,1,0,,217.0,M,,M,,*41
$GPRMC,141045.000,A,5409.6066,N,00204.2488,W,0.000,0.00,140912,,A*64
$GPGGA,141101.000,5409.6014,N,00204.2443,W,1,0,,217.0,M,,M,,*42
$GPRMC,141101.000,A,5409.6014,N,00204.2443,W,0.000,0.00,140912,,A*67
$GPGGA,141117.000,5409.5950,N,00204.2274,W,1,0,,217.0,M,,M,,*4D
$GPRMC,141117.000,A,5409.5950,N,00204.2274,W,0.000,0.00,140912,,A*68
$GPGGA,141145.000,5409.5856,N,00204.2258,W,1,0,,217.0,M,,M,,*43
$GPRMC,141145.000,A,5409.5856,N,00204.2258,W,0.000,0.00,140912,,A*66
$GPGGA,141203.000,5409.5728,N,00204.2103,W,1,0,,217.0,M,,M,,*49
$GPRMC,141203.000,A,5409.5728,N,00204.2103,W,0.000,0.00,140912,,A*6C
$GPGGA,141219.000,5409.5661,N,00204.2071,W,1,0,,217.0,M,,M,,*4A
$GPRMC,141219.000,A,5409.5661,N,00204.2071,W,0.000,0.00,140912,,A*6F
$GPGGA,141234.000,5409.5602,N,00204.2045,W,1,0,,217.0,M,,M,,*47
$GPRMC,141234.000,A,5409.5602,N,00204.2045,W,0.000,0.00,140912,,A*62
$GPGGA,141249.000,5409.5478,N,00204.1935,W,1,0,,217.0,M,,M,,*4F
$GPRMC,141249.000,A,5409.5478,N,00204.1935,W,0.000,0.00,140912,,A*6A
$GPGGA,141304.000,5409.5414,N,00204.1917,W,1,0,,217.0,M,,M,,*4D
$GPRMC,141304.000,A,5409.5414,N,00204.1917,W,0.000,0.00,140912,,A*68
$GPGGA,141320.000,5409.5304,N,00204.1955,W,1,0,,217.0,M,,M,,*4B
$GPRMC,141320.000,A,5409.5304,N,00204.1955,W,0.000,0.00,140912,,A*6E
$GPGGA,141335.000,5409.5206,N,00204.1890,W,1,0,,217.0,M,,M,,*44
$GPRMC,141335.000,A,5409.5206,N,00204.1890,W,0.000,0.00,140912,,A*61
$GPGGA,141355.000,5409.5137,N,00204.1857,W,1,0,,217.0,M,,M,,*48
$GPRMC,141355.000,A,5409.5137,N,00204.1857,W,0.000,0.00,140912,,A*6D
$GPGGA,141410.000,5409.5068,N,00204.1729,W,1,0,,217.0,M,,M,,*43
$GPRMC,141410.000,A,5409.5068,N,00204.1729,W,0.000,0.00,140912,,A*66
$GPGGA,141426.000,5409.4954,N,00204.1646,W,1,0,,217.0,M,,M,,*49
$GPRMC,141426.000,A,5409.4954,N,00204.1646,W,0.000,0.00,140912,,A*6C
$GPGGA,141441.000,5409.4926,N,00204.1524,W,1,0,,217.0,M,,M,,*4A
$GPRMC,141441.000,A,5409.4926,N,00204.1524,W,0.000,0.00,140912,,A*6F
$GPGGA,141457.000,5409.4881,N,00204.1422,W,1,0,,217.0,M,,M,,*46
$GPRMC,141457.000,A,5409.4881,N,00204.1422,W,0.000,0.00,140912,,A*63
$GPGGA,141512.000,5409.4826,N,00204.1348,W,1,0,,217.0,M,,M,,*40
$GPRMC,141512.000,A,5409.4826,N,00204.1348,W,0.000,0.00,140912,,A*65
$GPGGA,141527.000,5409.4727,N,00204.1293,W,1,0,,217.0,M,,M,,*4F
$GPRMC,141527.000,A,5409.4727,N,00204.1293,W,0.000,0.00,140912,,A*6A
$GPGGA,141542.000,5409.4672,N,00204.1203,W,1,0,,217.0,M,,M,,*44
$GPRMC,141542.000,A,5409.4672,N,00204.1203,W,0.000,0.00,140912,,A*61
$GPGGA,141557.000,5409.4556,N,00204.1160,W,1,0,,217.0,M,,M,,*43
$GPRMC,141557.000,A,5409.4556,N,00204.1160,W,0.000,0.00,140912,,A*66
$GPGGA,141613.000,5409.4492,N,00204.1116,W,1,0,,217.0,M,,M,,*48
$GPRMC,141613.000,A,5409.4492,N,00204.1116,W,0.000,0.00,140912,,A*6D
$GPGGA,141634.000,5409.4466,N,00204.1039,W,1,0,,217.0,M,,M,,*4A
$GPRMC,141634.000,A,5409.4466,N,00204.1039,W,0.000,0.00,140912,,A*6F
$GPGGA,141653.000,5409.4455,N,00204.1006,W,1,0,,217.0,M,,M,,*47
$GPRMC,141653.000,A,5409.4455,N,00204.1006,W,0.000,0.00,140912,,A*62
$GPGGA,141708.000,5409.4405,N,00204.0969,W,1,0,,217.0,M,,M,,*4C
$GPRMC,141708.000,A,5409.4405,N,00204.0969,W,0.000,0.00,140912,,A*69
$GPGGA,141725.000,5409.4345,N,00204.0832,W,1,0,,216.0,M,,M,,*4E
$GPRMC,141725.000,A,5409.4345,N,00204.0832,W,0.000,0.00,140912,,A*6A
$GPGGA,141745.000,5409.4324,N,00204.0704,W,1,0,,216.0,M,,M,,*45
$GPRMC,141745.000,A,5409.4324,N,00204.0704,W,0.000,0.00,140912,,A*61
$GPGGA,141801.000,5409.4265,N,00204.0647,W,1,0,,217.0,M,,M,,*49
$GPRMC,141801.000,A,5409.4265,N,00204.0647,W,0.000,0.00,140912,,A*6C
$GPGGA,141818.000,5409.4162,N,00204.0514,W,1,0,,217.0,M,,M,,*40
$GPRMC,141818.000,A,5409.4162,N,00204.0514,W,0.000,0.00,140912,,A*65
$GPGGA,141833.000,5409.4201,N,00204.0362,W,1,0,,217.0,M,,M,,*48
$GPRMC,141833.000,A,5409.4201,N,00204.0362,W,0.000,0.00,140912,,A*6D
$GPGGA,141848.000,5409.4180,N,00204.0407,W,1,0,,216.0,M,,M,,*4B
$GPRMC,141848.000,A,5409.4180,N,00204.0407,W,0.000,0.00,140912,,A*6F
$GPGGA,141904.000,5409.4112,N,00204.0342,W,1,0,,219.0,M,,M,,*40
$GPRMC,141904.000,A,5409.4112,N,00204.0342,W,0.000,0.00,140912,,A*6B
$GPGGA,141920.000,5409.4025,N,00204.0150,W,1,0,,223.0,M,,M,,*4B
$GPRMC,141920.000,A,5409.4025,N,00204.0150,W,0.000,0.00,140912,,A*69
$GPGGA,141939.000,5409.4018,N,00204.0068,W,1,0,,217.0,M,,M,,*40
$GPRMC,141939.000,A,5409.4018,N,00204.0068,W,0.000,0.00,140912,,A*65
$GPGGA,141954.000,5409.3956,N,00203.9970,W,1,0,,221.0,M,,M,,*44
$GPRMC,141954.000,A,5409.3956,N,00203.9970,W,0.000,0.00,140912,,A*64
$GPGGA,142009.000,5409.3899,N,00203.9878,W,1,0,,220.0,M,,M,,*4C
$GPRMC,142009.000,A,5409.3899,N,00203.9878,W,0.000,0.00,140912,,A*6D
$GPGGA,142024.000,5409.3903,N,00203.9904,W,1,0,,219.0,M,,M,,*41
$GPRMC,142024.000,A,5409.3903,N,00203.9904,W,0.000,0.00,140912,,A*6A
$GPGGA,142040.000,5409.3961,N,00203.9778,W,1,0,,219.0,M,,M,,*42
$GPRMC,142040.000,A,5409.3961,N,00203.9778,W,0.000,0.00,140912,,A*69
$GPGGA,142055.000,5409.3933,N,00203.9790,W,1,0,,219.0,M,,M,,*47
$GPRMC,142055.000,A,5409.3933,N,00203.9790,W,0.000,0.00,140912,,A*6C
$GPGGA,142110.000,5409.3869,N,00203.9741,W,1,0,,219.0,M,,M,,*45
$GPRMC,142110.000,A,5409.3869,N,00203.9741,W,0.000,0.00,140912,,A*6E
$GPGGA,142126.000,5409.3816,N,00203.9704,W,1,0,,219.0,M,,M,,*49
$GPRMC,142126.000,A,5409.3816,N,00203.9704,W,0.000,0.00,140912,,A*62
$GPGGA,142141.000,5409.3768,N,00203.9686,W,1,0,,219.0,M,,M,,*45
$GPRMC,142141.000,A,5409.3768,N,00203.9686,W,0.000,0.00,140912,,A*6E
$GPGGA,142156.000,5409.3688,N,00203.9620,W,1,0,,219.0,M,,M,,*40
$GPRMC,142156.000,A,5409.3688,N,00203.9620,W,0.000,0.00,140912,,A*6B
$GPGGA,142211.000,5409.3610,N,00203.9498,W,1,0,,219.0,M,,M,,*40
$GPRMC,142211.000,A,5409.3610,N,00203.9498,W,0.000,0.00,140912,,A*6B
$GPGGA,142226.000,5409.3562,N,00203.9431,W,1,0,,219.0,M,,M,,*41
$GPRMC,142226.000,A,5409.3562,N,00203.9431,W,0.000,0.00,140912,,A*6A
$GPGGA,142241.000,5409.3510,N,00203.9361,W,1,0,,219.0,M,,M,,*47
$GPRMC,142241.000,A,5409.3510,N,00203.9361,W,0.000,0.00,140912,,A*6C
$GPGGA,142256.000,5409.3436,N,00203.9292,W,1,0,,219.0,M,,M,,*49
$GPRMC,142256.000,A,5409.3436,N,00203.9292,W,0.000,0.00,140912,,A*62
$GPGGA,142311.000,5409.3391,N,00203.9228,W,1,0,,219.0,M,,M,,*40
$GPRMC,142311.000,A,5409.3391,N,00203.9228,W,0.000,0.00,140912,,A*6B
$GPGGA,142326.000,5409.3272,N,00203.9186,W,1,0,,219.0,M,,M,,*4F
$GPRMC,142326.000,A,5409.3272,N,00203.9186,W,0.000,0.00,140912,,A*64
$GPGGA,142342.000,5409.3212,N,00203.9141,W,1,0,,219.0,M,,M,,*40
$GPRMC,142342.000,A,5409.3212,N,00203.9141,W,0.000,0.00,140912,,A*6B
$GPGGA,142358.000,5409.3132,N,00203.9072,W,1,0,,219.0,M,,M,,*4B
$GPRMC,142358.000,A,5409.3132,N,00203.9072,W,0.000,0.00,140912,,A*60
$GPGGA,142413.000,5409.3073,N,00203.8978,W,1,0,,219.0,M,,M,,*45
$GPRMC,142413.000,A,5409.3073,N,00203.8978,W,0.000,0.00,140912,,A*6E
$GPGGA,142428.000,5409.2935,N,00203.8926,W,1,0,,219.0,M,,M,,*4C
$GPRMC,142428.000,A,5409.2935,N,00203.8926,W,0.000,0.00,140912,,A*67
$GPGGA,142443.000,5409.2883,N,00203.8842,W,1,0,,219.0,M,,M,,*4E
$GPRMC,142443.000,A,5409.2883,N,00203.8842,W,0.000,0.00,140912,,A*65
$GPGGA,142459.000,5409.2805,N,00203.8788,W,1,0,,219.0,M,,M,,*42
$GPRMC,142459.000,A,5409.2805,N,00203.8788,W,0.000,0.00,140912,,A*69
$GPGGA,142514.000,5409.2759,N,00203.8782,W,1,0,,219.0,M,,M,,*46
$GPRMC,142514.000,A,5409.2759,N,00203.8782,W,0.000,0.00,140912,,A*6D
$GPGGA,142529.000,5409.2718,N,00203.8756,W,1,0,,219.0,M,,M,,*44
$GPRMC,142529.000,A,5409.2718,N,00203.8756,W,0.000,0.00,140912,,A*6F
$GPGGA,142544.000,5409.2640,N,00203.8613,W,1,0,,219.0,M,,M,,*43
$GPRMC,142544.000,A,5409.2640,N,00203.8613,W,0.000,0.00,140912,,A*68
$GPGGA,142559.000,5409.2601,N,00203.8538,W,1,0,,219.0,M,,M,,*40
$GPRMC,142559.000,A,5409.2601,N,00203.8538,W,0.000,0.00,140912,,A*6B
$GPGGA,142615.000,5409.2537,N,00203.8418,W,1,0,,219.0,M,,M,,*4E
$GPRMC,142615.000,A,5409.2537,N,00203.8418,W,0.000,0.00,140912,,A*65
$GPGGA,142630.000,5409.2459,N,00203.8301,W,1,0,,219.0,M,,M,,*4F
$GPRMC,142630.000,A,5409.2459,N,00203.8301,W,0.000,0.00,140912,,A*64
$GPGGA,142645.000,5409.2397,N,00203.8206,W,1,0,,218.0,M,,M,,*4F
$GPRMC,142645.000,A,5409.2397,N,00203.8206,W,0.000,0.00,140912,,A*65
$GPGGA,142701.000,5409.2329,N,00203.8125,W,1,0,,218.0,M,,M,,*49
$GPRMC,142701.000,A,5409.2329,N,00203.8125,W,0.000,0.00,140912,,A*63
$GPGGA,142716.000,5409.2290,N,00203.8013,W,1,0,,218.0,M,,M,,*48
$GPRMC,142716.000,A,5409.2290,N,00203.8013,W,0.000,0.00,140912,,A*62
$GPGGA,142731.000,5409.2152,N,00203.7936,W,1,0,,218.0,M,,M,,*41
$GPRMC,142731.000,A,5409.2152,N,00203.7936,W,0.000,0.00,140912,,A*6B
$GPGGA,142746.000,5409.2111,N,00203.7832,W,1,0,,218.0,M,,M,,*43
$GPRMC,142746.000,A,5409.2111,N,00203.7832,W,0.000,0.00,140912,,A*69
$GPGGA,142801.000,5409.2102,N,00203.7770,W,1,0,,218.0,M,,M,,*44
$GPRMC,142801.000,A,5409.2102,N,00203.7770,W,0.000,0.00,140912,,A*6E
$GPGGA,142816.000,5409.2059,N,00203.7690,W,1,0,,218.0,M,,M,,*42
$GPRMC,142816.000,A,5409.2059,N,00203.7690,W,0.000,0.00,140912,,A*68
$GPGGA,142832.000,5409.1969,N,00203.7598,W,1,0,,218.0,M,,M,,*46
$GPRMC,142832.000,A,5409.1969,N,00203.7598,W,0.000,0.00,140912,,A*6C
$GPGGA,142847.000,5409.1917,N,00203.7458,W,1,0,,218.0,M,,M,,*40
$GPRMC,142847.000,A,5409.1917,N,00203.7458,W,0.000,0.00,140912,,A*6A
$GPGGA,142902.000,5409.1832,N,00203.7318,W,1,0,,218.0,M,,M,,*45
$GPRMC,142902.000,A,5409.1832,N,00203.7318,W,0.000,0.00,140912,,A*6F
$GPGGA,142918.000,5409.1805,N,00203.7162,W,1,0,,218.0,M,,M,,*45
$GPRMC,142918.000,A,5409.1805,N,00203.7162,W,0.000,0.00,140912,,A*6F
$GPGGA,142933.000,5409.1727,N,00203.7136,W,1,0,,218.0,M,,M,,*42
$GPRMC,142933.000,A,5409.1727,N,00203.7136,W,0.000,0.00,140912,,A*68
$GPGGA,142949.000,5409.1697,N,00203.7008,W,1,0,,218.0,M,,M,,*49
$GPRMC,142949.000,A,5409.1697,N,00203.7008,W,0.000,0.00,140912,,A*63
$GPGGA,143005.000,5409.1637,N,00203.6889,W,1,0,,218.0,M,,M,,*43
$GPRMC,143005.000,A,5409.1637,N,00203.6889,W,0.000,0.00,140912,,A*69
$GPGGA,143020.000,5409.1603,N,00203.6768,W,1,0,,218.0,M,,M,,*43
$GPRMC,143020.000,A,5409.1603,N,00203.6768,W,0.000,0.00,140912,,A*69
$GPGGA,143035.000,5409.1564,N,00203.6603,W,1,0,,218.0,M,,M,,*49
$GPRMC,143035.000,A,5409.1564,N,00203.6603,W,0.000,0.00,140912,,A*63
$GPGGA,143051.000,5409.1518,N,00203.6496,W,1,0,,218.0,M,,M,,*4E
$GPRMC,143051.000,A,5409.1518,N,00203.6496,W,0.000,0.00,140912,,A*64
$GPGGA,143106.000,5409.1482,N,00203.6386,W,1,0,,218.0,M,,M,,*49
$GPRMC,143106.000,A,5409.1482,N,00203.6386,W,0.000,0.00,140912,,A*63
$GPGGA,143121.000,5409.1454,N,00203.6223,W,1,0,,218.0,M,,M,,*49
$GPRMC,143121.000,A,5409.1454,N,00203.6223,W,0.000,0.00,140912,,A*63
$GPGGA,143137.000,5409.1395,N,00203.6116,W,1,0,,218.0,M,,M,,*41
$GPRMC,143137.000,A,5409.1395,N,00203.6116,W,0.000,0.00,140912,,A*6B
$GPGGA,143152.000,5409.1376,N,00203.6047,W,1,0,,218.0,M,,M,,*4A
$GPRMC,143152.000,A,5409.1376,N,00203.6047,W,0.000,0.00,140912,,A*60
$GPGGA,143207.000,5409.1324,N,00203.5966,W,1,0,,218.0,M,,M,,*47
$GPRMC,143207.000,A,5409.1324,N,00203.5966,W,0.000,0.00,140912,,A*6D
$GPGGA,143222.000,5409.1292,N,00203.5860,W,1,0,,218.0,M,,M,,*4B
$GPRMC,143222.000,A,5409.1292,N,00203.5860,W,0.000,0.00,140912,,A*61
$GPGGA,143238.000,5409.1292,N,00203.5710,W,1,0,,218.0,M,,M,,*48
$GPRMC,143238.000,A,5409.1292,N,00203.5710,W,0.000,0.00,140912,,A*62
$GPGGA,143253.000,5409.1187,N,00203.5554,W,1,0,,218.0,M,,M,,*40
$GPRMC,143253.000,A,5409.1187,N,00203.5554,W,0.000,0.00,140912,,A*6A
$GPGGA,143308.000,5409.1120,N,00203.5456,W,1,0,,218.0,M,,M,,*41
$GPRMC,143308.000,A,5409.1120,N,00203.5456,W,0.000,0.00,140912,,A*6B
$GPGGA,143323.000,5409.1056,N,00203.5374,W,1,0,,219.0,M,,M,,*4E
$GPRMC,143323.000,A,5409.1056,N,00203.5374,W,0.000,0.00,140912,,A*65
$GPGGA,143339.000,5409.0969,N,00203.5259,W,1,0,,219.0,M,,M,,*4F
$GPRMC,143339.000,A,5409.0969,N,00203.5259,W,0.000,0.00,140912,,A*64
$GPGGA,143354.000,5409.0939,N,00203.5184,W,1,0,,218.0,M,,M,,*43
$GPRMC,143354.000,A,5409.0939,N,00203.5184,W,0.000,0.00,140912,,A*69
$GPGGA,143410.000,5409.0878,N,00203.5084,W,1,0,,219.0,M,,M,,*40
$GPRMC,143410.000,A,5409.0878,N,00203.5084,W,0.000,0.00,140912,,A*6B
$GPGGA,143425.000,5409.0788,N,00203.5051,W,1,0,,219.0,M,,M,,*4E
