@Sonygps/ver3.0/wgs-84/
$GPGGA,094528.000,5404.3449,N,00159.8058,W,1,0,,140.0,M,,M,,*4E
$GPRMC,094528.000,A,5404.3449,N,00159.8058,W,0.000,0.00,150912,,A*6B
$GPGGA,094558.000,5404.3467,N,00159.8058,W,1,0,,140.0,M,,M,,*45
$GPRMC,094558.000,A,5404.3467,N,00159.8058,W,0.000,0.00,150912,,A*60
$GPGGA,094644.000,5404.3492,N,00159.7991,W,1,0,,140.0,M,,M,,*42
$GPRMC,094644.000,A,5404.3492,N,00159.7991,W,0.000,0.00,150912,,A*67
$GPGGA,094659.000,5404.3430,N,00159.8122,W,1,0,,140.0,M,,M,,*49
$GPRMC,094659.000,A,5404.3430,N,00159.8122,W,0.000,0.00,150912,,A*6C
$GPGGA,094727.000,5404.3350,N,00159.8175,W,1,0,,140.0,M,,M,,*42
$GPRMC,094727.000,A,5404.3350,N,00159.8175,W,0.000,0.00,150912,,A*67
$GPGGA,094742.000,5404.3272,N,00159.8256,W,1,0,,140.0,M,,M,,*42
$GPRMC,094742.000,A,5404.3272,N,00159.8256,W,0.000,0.00,150912,,A*67
$GPGGA,094757.000,5404.3206,N,00159.8323,W,1,0,,140.0,M,,M,,*46
$GPRMC,094757.000,A,5404.3206,N,00159.8323,W,0.000,0.00,150912,,A*63
$GPGGA,094812.000,5404.3149,N,00159.8375,W,1,0,,140.0,M,,M,,*43
$GPRMC,094812.000,A,5404.3149,N,00159.8375,W,0.000,0.00,150912,,A*66
$GPGGA,094827.000,5404.3117,N,00159.8468,W,1,0,,140.0,M,,M,,*45
$GPRMC,094827.000,A,5404.3117,N,00159.8468,W,0.000,0.00,150912,,A*60
$GPGGA,094842.000,5404.3005,N,00159.8572,W,1,0,,140.0,M,,M,,*4E
$GPRMC,094842.000,A,5404.3005,N,00159.8572,W,0.000,0.00,150912,,A*6B
$GPGGA,094857.000,5404.2936,N,00159.8639,W,1,0,,139.0,M,,M,,*40
$GPRMC,094857.000,A,5404.2936,N,00159.8639,W,0.000,0.00,150912,,A*6B
$GPGGA,094912.000,5404.2876,N,00159.8665,W,1,0,,139.0,M,,M,,*4C
$GPRMC,094912.000,A,5404.2876,N,00159.8665,W,0.000,0.00,150912,,A*67
$GPGGA,094927.000,5404.2771,N,00159.8550,W,1,0,,140.0,M,,M,,*49
$GPRMC,094927.000,A,5404.2771,N,00159.8550,W,0.000,0.00,150912,,A*6C
$GPGGA,094942.000,5404.2702,N,00159.8520,W,1,0,,140.0,M,,M,,*49
$GPRMC,094942.000,A,5404.2702,N,00159.8520,W,0.000,0.00,150912,,A*6C
$GPGGA,094957.000,5404.2618,N,00159.8425,W,1,0,,140.0,M,,M,,*43
$GPRMC,094957.000,A,5404.2618,N,00159.8425,W,0.000,0.00,150912,,A*66
$GPGGA,095012.000,5404.2570,N,00159.8587,W,1,0,,141.0,M,,M,,*4F
$GPRMC,095012.000,A,5404.2570,N,00159.8587,W,0.000,0.00,150912,,A*6B
$GPGGA,095027.000,5404.2464,N,00159.8499,W,1,0,,143.0,M,,M,,*41
$GPRMC,095027.000,A,5404.2464,N,00159.8499,W,0.000,0.00,150912,,A*67
$GPGGA,095045.000,5404.2414,N,00159.8512,W,1,0,,143.0,M,,M,,*40
$GPRMC,095045.000,A,5404.2414,N,00159.8512,W,0.000,0.00,150912,,A*66
$GPGGA,095100.000,5404.2229,N,00159.8394,W,1,0,,144.0,M,,M,,*47
$GPRMC,095100.000,A,5404.2229,N,00159.8394,W,0.000,0.00,150912,,A*66
$GPGGA,095117.000,5404.2082,N,00159.8344,W,1,0,,144.0,M,,M,,*4F
$GPRMC,095117.000,A,5404.2082,N,00159.8344,W,0.000,0.00,150912,,A*6E
$GPGGA,095132.000,5404.1931,N,00159.8396,W,1,0,,144.0,M,,M,,*45
$GPRMC,095132.000,A,5404.1931,N,00159.8396,W,0.000,0.00,150912,,A*64
$GPGGA,095203.000,5404.1844,N,00159.8458,W,1,0,,144.0,M,,M,,*42
$GPRMC,095203.000,A,5404.1844,N,00159.8458,W,0.000,0.00,150912,,A*63
$GPGGA,095219.000,5404.1867,N,00159.8532,W,1,0,,144.0,M,,M,,*45
$GPRMC,095219.000,A,5404.1867,N,00159.8532,W,0.000,0.00,150912,,A*64
$GPGGA,095234.000,5404.1840,N,00159.8604,W,1,0,,144.0,M,,M,,*49
$GPRMC,095234.000,A,5404.1840,N,00159.8604,W,0.000,0.00,150912,,A*68
$GPGGA,095250.000,5404.1707,N,00159.8595,W,1,0,,144.0,M,,M,,*4C
$GPRMC,095250.000,A,5404.1707,N,00159.8595,W,0.000,0.00,150912,,A*6D
$GPGGA,095317.000,5404.1629,N,00159.8506,W,1,0,,144.0,M,,M,,*49
$GPRMC,095317.000,A,5404.1629,N,00159.8506,W,0.000,0.00,150912,,A*68
$GPGGA,095332.000,5404.1553,N,00159.8456,W,1,0,,145.0,M,,M,,*45
$GPRMC,095332.000,A,5404.1553,N,00159.8456,W,0.000,0.00,150912,,A*65
$GPGGA,095349.000,5404.1405,N,00159.8496,W,1,0,,145.0,M,,M,,*47
$GPRMC,095349.000,A,5404.1405,N,00159.8496,W,0.000,0.00,150912,,A*67
$GPGGA,095404.000,5404.1315,N,00159.8642,W,1,0,,145.0,M,,M,,*44
$GPRMC,095404.000,A,5404.1315,N,00159.8642,W,0.000,0.00,150912,,A*64
$GPGGA,095421.000,5404.1274,N,00159.8701,W,1,0,,146.0,M,,M,,*40
$GPRMC,095421.000,A,5404.1274,N,00159.8701,W,0.000,0.00,150912,,A*63
$GPGGA,095436.000,5404.1228,N,00159.8816,W,1,0,,146.0,M,,M,,*46
$GPRMC,095436.000,A,5404.1228,N,00159.8816,W,0.000,0.00,150912,,A*65
$GPGGA,095451.000,5404.1162,N,00159.8815,W,1,0,,146.0,M,,M,,*49
$GPRMC,095451.000,A,5404.1162,N,00159.8815,W,0.000,0.00,150912,,A*6A
$GPGGA,095507.000,5404.1061,N,00159.8914,W,1,0,,146.0,M,,M,,*49
$GPRMC,095507.000,A,5404.1061,N,00159.8914,W,0.000,0.00,150912,,A*6A
$GPGGA,095523.000,5404.1016,N,00159.8935,W,1,0,,146.0,M,,M,,*4C
$GPRMC,095523.000,A,5404.1016,N,00159.8935,W,0.000,0.00,150912,,A*6F
$GPGGA,095541.000,5404.0899,N,00159.9136,W,1,0,,146.0,M,,M,,*4C
$GPRMC,095541.000,A,5404.0899,N,00159.9136,W,0.000,0.00,150912,,A*6F
$GPGGA,095556.000,5404.0796,N,00159.9111,W,1,0,,146.0,M,,M,,*4F
$GPRMC,095556.000,A,5404.0796,N,00159.9111,W,0.000,0.00,150912,,A*6C
$GPGGA,095611.000,5404.0702,N,00159.9166,W,1,0,,146.0,M,,M,,*42
$GPRMC,095611.000,A,5404.0702,N,00159.9166,W,0.000,0.00,150912,,A*61
$GPGGA,095626.000,5404.0503,N,00159.9239,W,1,0,,147.0,M,,M,,*4D
$GPRMC,095626.000,A,5404.0503,N,00159.9239,W,0.000,0.00,150912,,A*6F
$GPGGA,095642.000,5404.0528,N,00159.9289,W,1,0,,147.0,M,,M,,*4D
$GPRMC,095642.000,A,5404.0528,N,00159.9289,W,0.000,0.00,150912,,A*6F
$GPGGA,095657.000,5404.0432,N,00159.9375,W,1,0,,147.0,M,,M,,*41
$GPRMC,095657.000,A,5404.0432,N,00159.9375,W,0.000,0.00,150912,,A*63
$GPGGA,095712.000,5404.0320,N,00159.9366,W,1,0,,147.0,M,,M,,*47
$GPRMC,095712.000,A,5404.0320,N,00159.9366,W,0.000,0.00,150912,,A*65
$GPGGA,095727.000,5404.0162,N,00159.9374,W,1,0,,147.0,M,,M,,*46
$GPRMC,095727.000,A,5404.0162,N,00159.9374,W,0.000,0.00,150912,,A*64
$GPGGA,095742.000,5404.0150,N,00159.9403,W,1,0,,147.0,M,,M,,*43
$GPRMC,095742.000,A,5404.0150,N,00159.9403,W,0.000,0.00,150912,,A*61
$GPGGA,095757.000,5404.0052,N,00159.9395,W,1,0,,147.0,M,,M,,*4C
$GPRMC,095757.000,A,5404.0052,N,00159.9395,W,0.000,0.00,150912,,A*6E
$GPGGA,095812.000,5403.9995,N,00159.9437,W,1,0,,147.0,M,,M,,*41
$GPRMC,095812.000,A,5403.9995,N,00159.9437,W,0.000,0.00,150912,,A*63
$GPGGA,095834.000,5403.9990,N,00159.9513,W,1,0,,153.0,M,,M,,*42
$GPRMC,095834.000,A,5403.9990,N,00159.9513,W,0.000,0.00,150912,,A*65
$GPGGA,095858.000,5403.9885,N,00159.9638,W,1,0,,147.0,M,,M,,*42
$GPRMC,095858.000,A,5403.9885,N,00159.9638,W,0.000,0.00,150912,,A*60
$GPGGA,095913.000,5403.9690,N,00159.9734,W,1,0,,147.0,M,,M,,*4B
$GPRMC,095913.000,A,5403.9690,N,00159.9734,W,0.000,0.00,150912,,A*69
$GPGGA,095928.000,5403.9649,N,00159.9769,W,1,0,,149.0,M,,M,,*41
$GPRMC,095928.000,A,5403.9649,N,00159.9769,W,0.000,0.00,150912,,A*6D
$GPGGA,095943.000,5403.9649,N,00159.9756,W,1,0,,149.0,M,,M,,*40
$GPRMC,095943.000,A,5403.9649,N,00159.9756,W,0.000,0.00,150912,,A*6C
$GPGGA,095958.000,5403.9649,N,00159.9757,W,1,0,,149.0,M,,M,,*4B
$GPRMC,095958.000,A,5403.9649,N,00159.9757,W,0.000,0.00,150912,,A*67
$GPGGA,100013.000,5403.9629,N,00159.9836,W,1,0,,149.0,M,,M,,*4E
$GPRMC,100013.000,A,5403.9629,N,00159.9836,W,0.000,0.00,150912,,A*62
$GPGGA,100028.000,5403.9516,N,00159.9919,W,1,0,,148.0,M,,M,,*44
$GPRMC,100028.000,A,5403.9516,N,00159.9919,W,0.000,0.00,150912,,A*69
$GPGGA,100043.000,5403.9496,N,00159.9998,W,1,0,,148.0,M,,M,,*49
$GPRMC,100043.000,A,5403.9496,N,00159.9998,W,0.000,0.00,150912,,A*64
$GPGGA,100058.000,5403.9496,N,00200.0124,W,1,0,,148.0,M,,M,,*4A
$GPRMC,100058.000,A,5403.9496,N,00200.0124,W,0.000,0.00,150912,,A*67
$GPGGA,100113.000,5403.9496,N,00200.0312,W,1,0,,147.0,M,,M,,*4C
$GPRMC,100113.000,A,5403.9496,N,00200.0312,W,0.000,0.00,150912,,A*6E
$GPGGA,100128.000,5403.9478,N,00200.0501,W,1,0,,147.0,M,,M,,*40
$GPRMC,100128.000,A,5403.9478,N,00200.0501,W,0.000,0.00,150912,,A*62
$GPGGA,100143.000,5403.9441,N,00200.0560,W,1,0,,147.0,M,,M,,*40
$GPRMC,100143.000,A,5403.9441,N,00200.0560,W,0.000,0.00,150912,,A*62
$GPGGA,100201.000,5403.9445,N,00200.0484,W,1,0,,147.0,M,,M,,*4A
$GPRMC,100201.000,A,5403.9445,N,00200.0484,W,0.000,0.00,150912,,A*68
$GPGGA,100217.000,5403.9404,N,00200.0425,W,1,0,,147.0,M,,M,,*43
$GPRMC,100217.000,A,5403.9404,N,00200.0425,W,0.000,0.00,150912,,A*61
$GPGGA,100234.000,5403.9340,N,00200.0635,W,1,0,,147.0,M,,M,,*46
$GPRMC,100234.000,A,5403.9340,N,00200.0635,W,0.000,0.00,150912,,A*64
$GPGGA,100250.000,5403.9324,N,00200.0714,W,1,0,,147.0,M,,M,,*44
$GPRMC,100250.000,A,5403.9324,N,00200.0714,W,0.000,0.00,150912,,A*66
$GPGGA,100305.000,5403.9336,N,00200.0882,W,1,0,,148.0,M,,M,,*49
$GPRMC,100305.000,A,5403.9336,N,00200.0882,W,0.000,0.00,150912,,A*64
$GPGGA,100321.000,5403.9260,N,00200.1013,W,1,0,,148.0,M,,M,,*4C
$GPRMC,100321.000,A,5403.9260,N,00200.1013,W,0.000,0.00,150912,,A*61
$GPGGA,100336.000,5403.9281,N,00200.1047,W,1,0,,148.0,M,,M,,*44
$GPRMC,100336.000,A,5403.9281,N,00200.1047,W,0.000,0.00,150912,,A*69
$GPGGA,100351.000,5403.9256,N,00200.1045,W,1,0,,148.0,M,,M,,*4D
$GPRMC,100351.000,A,5403.9256,N,00200.1045,W,0.000,0.00,150912,,A*60
$GPGGA,100406.000,5403.9207,N,00200.1099,W,1,0,,148.0,M,,M,,*4D
$GPRMC,100406.000,A,5403.9207,N,00200.1099,W,0.000,0.00,150912,,A*60
$GPGGA,100434.000,5403.9132,N,00200.1334,W,1,0,,149.0,M,,M,,*4C
$GPRMC,100434.000,A,5403.9132,N,00200.1334,W,0.000,0.00,150912,,A*60
$GPGGA,100450.000,5403.9132,N,00200.1477,W,1,0,,148.0,M,,M,,*4F
$GPRMC,100450.000,A,5403.9132,N,00200.1477,W,0.000,0.00,150912,,A*62
$GPGGA,100505.000,5403.8940,N,00200.1537,W,1,0,,148.0,M,,M,,*47
$GPRMC,100505.000,A,5403.8940,N,00200.1537,W,0.000,0.00,150912,,A*6A
$GPGGA,100526.000,5403.8860,N,00200.1638,W,1,0,,148.0,M,,M,,*49
$GPRMC,100526.000,A,5403.8860,N,00200.1638,W,0.000,0.00,150912,,A*64
$GPGGA,100541.000,5403.8811,N,00200.1704,W,1,0,,149.0,M,,M,,*41
$GPRMC,100541.000,A,5403.8811,N,00200.1704,W,0.000,0.00,150912,,A*6D
$GPGGA,100556.000,5403.8727,N,00200.1912,W,1,0,,148.0,M,,M,,*45
$GPRMC,100556.000,A,5403.8727,N,00200.1912,W,0.000,0.00,150912,,A*68
$GPGGA,100612.000,5403.8720,N,00200.2022,W,1,0,,148.0,M,,M,,*48
$GPRMC,100612.000,A,5403.8720,N,00200.2022,W,0.000,0.00,150912,,A*65
$GPGGA,100629.000,5403.8647,N,00200.2127,W,1,0,,149.0,M,,M,,*45
$GPRMC,100629.000,A,5403.8647,N,00200.2127,W,0.000,0.00,150912,,A*69
$GPGGA,100644.000,5403.8525,N,00200.2193,W,1,0,,149.0,M,,M,,*46
$GPRMC,100644.000,A,5403.8525,N,00200.2193,W,0.000,0.00,150912,,A*6A
$GPGGA,100659.000,5403.8496,N,00200.2228,W,1,0,,149.0,M,,M,,*40
$GPRMC,100659.000,A,5403.8496,N,00200.2228,W,0.000,0.00,150912,,A*6C
$GPGGA,100714.000,5403.8409,N,00200.2202,W,1,0,,149.0,M,,M,,*46
$GPRMC,100714.000,A,5403.8409,N,00200.2202,W,0.000,0.00,150912,,A*6A
$GPGGA,100729.000,5403.8367,N,00200.2214,W,1,0,,150.0,M,,M,,*48
$GPRMC,100729.000,A,5403.8367,N,00200.2214,W,0.000,0.00,150912,,A*6C
$GPGGA,100744.000,5403.8292,N,00200.2222,W,1,0,,150.0,M,,M,,*4D
$GPRMC,100744.000,A,5403.8292,N,00200.2222,W,0.000,0.00,150912,,A*69
$GPGGA,100800.000,5403.8239,N,00200.2232,W,1,0,,150.0,M,,M,,*42
$GPRMC,100800.000,A,5403.8239,N,00200.2232,W,0.000,0.00,150912,,A*66
$GPGGA,100815.000,5403.8129,N,00200.2221,W,1,0,,150.0,M,,M,,*46
$GPRMC,100815.000,A,5403.8129,N,00200.2221,W,0.000,0.00,150912,,A*62
$GPGGA,100830.000,5403.8033,N,00200.2243,W,1,0,,151.0,M,,M,,*4E
$GPRMC,100830.000,A,5403.8033,N,00200.2243,W,0.000,0.00,150912,,A*6B
$GPGGA,100845.000,5403.7901,N,00200.2330,W,1,0,,151.0,M,,M,,*4E
$GPRMC,100845.000,A,5403.7901,N,00200.2330,W,0.000,0.00,150912,,A*6B
$GPGGA,100900.000,5403.7717,N,00200.2471,W,1,0,,151.0,M,,M,,*45
$GPRMC,100900.000,A,5403.7717,N,00200.2471,W,0.000,0.00,150912,,A*60
$GPGGA,100915.000,5403.7699,N,00200.2488,W,1,0,,151.0,M,,M,,*40
$GPRMC,100915.000,A,5403.7699,N,00200.2488,W,0.000,0.00,150912,,A*65
$GPGGA,100930.000,5403.7644,N,00200.2491,W,1,0,,151.0,M,,M,,*4F
$GPRMC,100930.000,A,5403.7644,N,00200.2491,W,0.000,0.00,150912,,A*6A
$GPGGA,100945.000,5403.7463,N,00200.2562,W,1,0,,151.0,M,,M,,*47
$GPRMC,100945.000,A,5403.7463,N,00200.2562,W,0.000,0.00,150912,,A*62
$GPGGA,101001.000,5403.7415,N,00200.2665,W,1,0,,151.0,M,,M,,*4A
$GPRMC,101001.000,A,5403.7415,N,00200.2665,W,0.000,0.00,150912,,A*6F
$GPGGA,101018.000,5403.7303,N,00200.2732,W,1,0,,151.0,M,,M,,*41
$GPRMC,101018.000,A,5403.7303,N,00200.2732,W,0.000,0.00,150912,,A*64
$GPGGA,101033.000,5403.7241,N,00200.2776,W,1,0,,152.0,M,,M,,*4C
$GPRMC,101033.000,A,5403.7241,N,00200.2776,W,0.000,0.00,150912,,A*6A
$GPGGA,101048.000,5403.7115,N,00200.2879,W,1,0,,152.0,M,,M,,*42
$GPRMC,101048.000,A,5403.7115,N,00200.2879,W,0.000,0.00,150912,,A*64
$GPGGA,101104.000,5403.7054,N,00200.2854,W,1,0,,152.0,M,,M,,*40
$GPRMC,101104.000,A,5403.7054,N,00200.2854,W,0.000,0.00,150912,,A*66
$GPGGA,101119.000,5403.6909,N,00200.2908,W,1,0,,152.0,M,,M,,*44
$GPRMC,101119.000,A,5403.6909,N,00200.2908,W,0.000,0.00,150912,,A*62
$GPGGA,101134.000,5403.6928,N,00200.3017,W,1,0,,153.0,M,,M,,*4F
$GPRMC,101134.000,A,5403.6928,N,00200.3017,W,0.000,0.00,150912,,A*68
$GPGGA,101149.000,5403.6919,N,00200.3129,W,1,0,,153.0,M,,M,,*4B
$GPRMC,101149.000,A,5403.6919,N,00200.3129,W,0.000,0.00,150912,,A*6C
$GPGGA,101206.000,5403.6596,N,00200.3227,W,1,0,,153.0,M,,M,,*45
$GPRMC,101206.000,A,5403.6596,N,00200.3227,W,0.000,0.00,150912,,A*62
$GPGGA,101223.000,5403.6495,N,00200.3152,W,1,0,,153.0,M,,M,,*41
$GPRMC,101223.000,A,5403.6495,N,00200.3152,W,0.000,0.00,150912,,A*66
$GPGGA,101252.000,5403.6495,N,00200.3182,W,1,0,,153.0,M,,M,,*4A
$GPRMC,101252.000,A,5403.6495,N,00200.3182,W,0.000,0.00,150912,,A*6D
$GPGGA,101307.000,5403.6415,N,00200.3229,W,1,0,,153.0,M,,M,,*41
$GPRMC,101307.000,A,5403.6415,N,00200.3229,W,0.000,0.00,150912,,A*66
$GPGGA,101322.000,5403.6383,N,00200.3252,W,1,0,,153.0,M,,M,,*42
$GPRMC,101322.000,A,5403.6383,N,00200.3252,W,0.000,0.00,150912,,A*65
$GPGGA,101337.000,5403.6376,N,00200.3257,W,1,0,,153.0,M,,M,,*49
$GPRMC,101337.000,A,5403.6376,N,00200.3257,W,0.000,0.00,150912,,A*6E
$GPGGA,101352.000,5403.6340,N,00200.3234,W,1,0,,153.0,M,,M,,*4A
$GPRMC,101352.000,A,5403.6340,N,00200.3234,W,0.000,0.00,150912,,A*6D
$GPGGA,101410.000,5403.6250,N,00200.3145,W,1,0,,153.0,M,,M,,*4E
$GPRMC,101410.000,A,5403.6250,N,00200.3145,W,0.000,0.00,150912,,A*69
$GPGGA,101430.000,5403.6081,N,00200.3071,W,1,0,,153.0,M,,M,,*44
$GPRMC,101430.000,A,5403.6081,N,00200.3071,W,0.000,0.00,150912,,A*63
$GPGGA,101446.000,5403.6028,N,00200.3047,W,1,0,,154.0,M,,M,,*44
$GPRMC,101446.000,A,5403.6028,N,00200.3047,W,0.000,0.00,150912,,A*64
$GPGGA,101502.000,5403.5815,N,00200.2954,W,1,0,,154.0,M,,M,,*4A
$GPRMC,101502.000,A,5403.5815,N,00200.2954,W,0.000,0.00,150912,,A*6A
$GPGGA,101518.000,5403.5786,N,00200.2846,W,1,0,,154.0,M,,M,,*46
$GPRMC,101518.000,A,5403.5786,N,00200.2846,W,0.000,0.00,150912,,A*66
$GPGGA,101533.000,5403.5738,N,00200.2823,W,1,0,,154.0,M,,M,,*49
$GPRMC,101533.000,A,5403.5738,N,00200.2823,W,0.000,0.00,150912,,A*69
$GPGGA,101548.000,5403.5756,N,00200.2715,W,1,0,,154.0,M,,M,,*47
$GPRMC,101548.000,A,5403.5756,N,00200.2715,W,0.000,0.00,150912,,A*67
$GPGGA,101604.000,5403.5680,N,00200.2489,W,1,0,,155.0,M,,M,,*41
$GPRMC,101604.000,A,5403.5680,N,00200.2489,W,0.000,0.00,150912,,A*60
$GPGGA,101619.000,5403.5690,N,00200.2508,W,1,0,,155.0,M,,M,,*44
$GPRMC,101619.000,A,5403.5690,N,00200.2508,W,0.000,0.00,150912,,A*65
$GPGGA,101634.000,5403.5600,N,00200.2375,W,1,0,,154.0,M,,M,,*4F
$GPRMC,101634.000,A,5403.5600,N,00200.2375,W,0.000,0.00,150912,,A*6F
$GPGGA,101649.000,5403.5534,N,00200.2179,W,1,0,,155.0,M,,M,,*4E
$GPRMC,101649.000,A,5403.5534,N,00200.2179,W,0.000,0.00,150912,,A*6F
$GPGGA,101704.000,5403.5568,N,00200.2010,W,1,0,,155.0,M,,M,,*41
$GPRMC,101704.000,A,5403.5568,N,00200.2010,W,0.000,0.00,150912,,A*60
$GPGGA,101720.000,5403.5552,N,00200.1956,W,1,0,,155.0,M,,M,,*46
$GPRMC,101720.000,A,5403.5552,N,00200.1956,W,0.000,0.00,150912,,A*67
$GPGGA,101735.000,5403.5525,N,00200.1859,W,1,0,,155.0,M,,M,,*4C
$GPRMC,101735.000,A,5403.5525,N,00200.1859,W,0.000,0.00,150912,,A*6D
$GPGGA,101750.000,5403.5495,N,00200.1725,W,1,0,,155.0,M,,M,,*41
$GPRMC,101750.000,A,5403.5495,N,00200.1725,W,0.000,0.00,150912,,A*60
$GPGGA,101805.000,5403.5410,N,00200.1690,W,1,0,,156.0,M,,M,,*4F
$GPRMC,101805.000,A,5403.5410,N,00200.1690,W,0.000,0.00,150912,,A*6D
$GPGGA,101820.000,5403.5385,N,00200.1687,W,1,0,,156.0,M,,M,,*45
$GPRMC,101820.000,A,5403.5385,N,00200.1687,W,0.000,0.00,150912,,A*67
$GPGGA,101836.000,5403.5250,N,00200.1723,W,1,0,,156.0,M,,M,,*44
$GPRMC,101836.000,A,5403.5250,N,00200.1723,W,0.000,0.00,150912,,A*66
$GPGGA,101851.000,5403.5143,N,00200.1726,W,1,0,,156.0,M,,M,,*41
$GPRMC,101851.000,A,5403.5143,N,00200.1726,W,0.000,0.00,150912,,A*63
$GPGGA,101907.000,5403.5021,N,00200.1762,W,1,0,,156.0,M,,M,,*46
$GPRMC,101907.000,A,5403.5021,N,00200.1762,W,0.000,0.00,150912,,A*64
$GPGGA,101922.000,5403.4937,N,00200.1835,W,1,0,,158.0,M,,M,,*4D
$GPRMC,101922.000,A,5403.4937,N,00200.1835,W,0.000,0.00,150912,,A*61
$GPGGA,101937.000,5403.4891,N,00200.1828,W,1,0,,156.0,M,,M,,*46
$GPRMC,101937.000,A,5403.4891,N,00200.1828,W,0.000,0.00,150912,,A*64
$GPGGA,102002.000,5403.4824,N,00200.1898,W,1,0,,156.0,M,,M,,*4F
$GPRMC,102002.000,A,5403.4824,N,00200.1898,W,0.000,0.00,150912,,A*6D
$GPGGA,102018.000,5403.4653,N,00200.1831,W,1,0,,156.0,M,,M,,*49
$GPRMC,102018.000,A,5403.4653,N,00200.1831,W,0.000,0.00,150912,,A*6B
$GPGGA,102034.000,5403.4570,N,00200.1791,W,1,0,,156.0,M,,M,,*40
$GPRMC,102034.000,A,5403.4570,N,00200.1791,W,0.000,0.00,150912,,A*62
$GPGGA,102049.000,5403.4444,N,00200.1835,W,1,0,,156.0,M,,M,,*4D
$GPRMC,102049.000,A,5403.4444,N,00200.1835,W,0.000,0.00,150912,,A*6F
$GPGGA,102104.000,5403.4389,N,00200.1835,W,1,0,,157.0,M,,M,,*42
$GPRMC,102104.000,A,5403.4389,N,00200.1835,W,0.000,0.00,150912,,A*61
$GPGGA,102119.000,5403.4312,N,00200.1835,W,1,0,,157.0,M,,M,,*4C
$GPRMC,102119.000,A,5403.4312,N,00200.1835,W,0.000,0.00,150912,,A*6F
$GPGGA,102134.000,5403.4161,N,00200.1797,W,1,0,,157.0,M,,M,,*42
$GPRMC,102134.000,A,5403.4161,N,00200.1797,W,0.000,0.00,150912,,A*61
$GPGGA,102151.000,5403.4000,N,00200.1810,W,1,0,,157.0,M,,M,,*47
$GPRMC,102151.000,A,5403.4000,N,00200.1810,W,0.000,0.00,150912,,A*64
$GPGGA,102206.000,5403.3804,N,00200.1791,W,1,0,,158.0,M,,M,,*44
$GPRMC,102206.000,A,5403.3804,N,00200.1791,W,0.000,0.00,150912,,A*68
$GPGGA,102223.000,5403.3797,N,00200.1743,W,1,0,,158.0,M,,M,,*49
$GPRMC,102223.000,A,5403.3797,N,00200.1743,W,0.000,0.00,150912,,A*65
$GPGGA,102240.000,5403.3808,N,00200.1804,W,1,0,,158.0,M,,M,,*49
$GPRMC,102240.000,A,5403.3808,N,00200.1804,W,0.000,0.00,150912,,A*65
$GPGGA,102257.000,5403.3540,N,00200.1894,W,1,0,,158.0,M,,M,,*47
$GPRMC,102257.000,A,5403.3540,N,00200.1894,W,0.000,0.00,150912,,A*6B
$GPGGA,102312.000,5403.3527,N,00200.1887,W,1,0,,158.0,M,,M,,*44
$GPRMC,102312.000,A,5403.3527,N,00200.1887,W,0.000,0.00,150912,,A*68
$GPGGA,102327.000,5403.3552,N,00200.1893,W,1,0,,158.0,M,,M,,*45
$GPRMC,102327.000,A,5403.3552,N,00200.1893,W,0.000,0.00,150912,,A*69
$GPGGA,102343.000,5403.3531,N,00200.1886,W,1,0,,158.0,M,,M,,*46
$GPRMC,102343.000,A,5403.3531,N,00200.1886,W,0.000,0.00,150912,,A*6A
$GPGGA,102358.000,5403.3490,N,00200.1971,W,1,0,,158.0,M,,M,,*4F
$GPRMC,102358.000,A,5403.3490,N,00200.1971,W,0.000,0.00,150912,,A*63
$GPGGA,102413.000,5403.3353,N,00200.1952,W,1,0,,157.0,M,,M,,*41
$GPRMC,102413.000,A,5403.3353,N,00200.1952,W,0.000,0.00,150912,,A*62
$GPGGA,102428.000,5403.3398,N,00200.1929,W,1,0,,158.0,M,,M,,*4D
$GPRMC,102428.000,A,5403.3398,N,00200.1929,W,0.000,0.00,150912,,A*61
$GPGGA,102448.000,5403.3327,N,00200.1988,W,1,0,,158.0,M,,M,,*44
$GPRMC,102448.000,A,5403.3327,N,00200.1988,W,0.000,0.00,150912,,A*68
$GPGGA,102504.000,5403.3181,N,00200.1982,W,1,0,,159.0,M,,M,,*48
$GPRMC,102504.000,A,5403.3181,N,00200.1982,W,0.000,0.00,150912,,A*65
$GPGGA,102520.000,5403.3028,N,00200.2031,W,1,0,,159.0,M,,M,,*4E
$GPRMC,102520.000,A,5403.3028,N,00200.2031,W,0.000,0.00,150912,,A*63
$GPGGA,102535.000,5403.2906,N,00200.2068,W,1,0,,159.0,M,,M,,*42
$GPRMC,102535.000,A,5403.2906,N,00200.2068,W,0.000,0.00,150912,,A*6F
$GPGGA,102551.000,5403.2888,N,00200.2056,W,1,0,,159.0,M,,M,,*4A
$GPRMC,102551.000,A,5403.2888,N,00200.2056,W,0.000,0.00,150912,,A*67
$GPGGA,102618.000,5403.2842,N,00200.2092,W,1,0,,159.0,M,,M,,*4A
$GPRMC,102618.000,A,5403.2842,N,00200.2092,W,0.000,0.00,150912,,A*67
$GPGGA,102643.000,5403.2629,N,00200.2160,W,1,0,,160.0,M,,M,,*41
$GPRMC,102643.000,A,5403.2629,N,00200.2160,W,0.000,0.00,150912,,A*66
$GPGGA,102700.000,5403.2609,N,00200.2211,W,1,0,,160.0,M,,M,,*40
$GPRMC,102700.000,A,5403.2609,N,00200.2211,W,0.000,0.00,150912,,A*67
$GPGGA,102716.000,5403.2554,N,00200.2246,W,1,0,,160.0,M,,M,,*4E
$GPRMC,102716.000,A,5403.2554,N,00200.2246,W,0.000,0.00,150912,,A*69
$GPGGA,102731.000,5403.2426,N,00200.2256,W,1,0,,160.0,M,,M,,*4E
$GPRMC,102731.000,A,5403.2426,N,00200.2256,W,0.000,0.00,150912,,A*69
$GPGGA,102747.000,5403.2307,N,00200.2316,W,1,0,,160.0,M,,M,,*4E
$GPRMC,102747.000,A,5403.2307,N,00200.2316,W,0.000,0.00,150912,,A*69
$GPGGA,102802.000,5403.2208,N,00200.2361,W,1,0,,160.0,M,,M,,*4E
$GPRMC,102802.000,A,5403.2208,N,00200.2361,W,0.000,0.00,150912,,A*69
$GPGGA,102817.000,5403.2140,N,00200.2400,W,1,0,,160.0,M,,M,,*45
$GPRMC,102817.000,A,5403.2140,N,00200.2400,W,0.000,0.00,150912,,A*62
$GPGGA,102832.000,5403.2071,N,00200.2394,W,1,0,,160.0,M,,M,,*4B
$GPRMC,102832.000,A,5403.2071,N,00200.2394,W,0.000,0.00,150912,,A*6C
$GPGGA,102847.000,5403.1943,N,00200.2419,W,1,0,,160.0,M,,M,,*40
$GPRMC,102847.000,A,5403.1943,N,00200.2419,W,0.000,0.00,150912,,A*67
$GPGGA,102905.000,5403.1888,N,00200.2505,W,1,0,,160.0,M,,M,,*4D
$GPRMC,102905.000,A,5403.1888,N,00200.2505,W,0.000,0.00,150912,,A*6A
$GPGGA,102921.000,5403.1819,N,00200.2520,W,1,0,,160.0,M,,M,,*44
$GPRMC,102921.000,A,5403.1819,N,00200.2520,W,0.000,0.00,150912,,A*63
$GPGGA,102936.000,5403.1899,N,00200.2483,W,1,0,,161.0,M,,M,,*43
$GPRMC,102936.000,A,5403.1899,N,00200.2483,W,0.000,0.00,150912,,A*65
$GPGGA,102951.000,5403.1927,N,00200.2479,W,1,0,,161.0,M,,M,,*43
$GPRMC,102951.000,A,5403.1927,N,00200.2479,W,0.000,0.00,150912,,A*65
$GPGGA,103006.000,5403.1920,N,00200.2459,W,1,0,,161.0,M,,M,,*4C
$GPRMC,103006.000,A,5403.1920,N,00200.2459,W,0.000,0.00,150912,,A*6A
$GPGGA,103022.000,5403.1911,N,00200.2441,W,1,0,,161.0,M,,M,,*41
$GPRMC,103022.000,A,5403.1911,N,00200.2441,W,0.000,0.00,150912,,A*67
$GPGGA,103039.000,5403.1979,N,00200.2519,W,1,0,,161.0,M,,M,,*49
$GPRMC,103039.000,A,5403.1979,N,00200.2519,W,0.000,0.00,150912,,A*6F
$GPGGA,103054.000,5403.1899,N,00200.2426,W,1,0,,161.0,M,,M,,*40
$GPRMC,103054.000,A,5403.1899,N,00200.2426,W,0.000,0.00,150912,,A*66
$GPGGA,103109.000,5403.1847,N,00200.2529,W,1,0,,161.0,M,,M,,*44
$GPRMC,103109.000,A,5403.1847,N,00200.2529,W,0.000,0.00,150912,,A*62
$GPGGA,103136.000,5403.1892,N,00200.2474,W,1,0,,162.0,M,,M,,*4A
$GPRMC,103136.000,A,5403.1892,N,00200.2474,W,0.000,0.00,150912,,A*6F
$GPGGA,103155.000,5403.1858,N,00200.2413,W,1,0,,162.0,M,,M,,*48
$GPRMC,103155.000,A,5403.1858,N,00200.2413,W,0.000,0.00,150912,,A*6D
$GPGGA,103210.000,5403.1860,N,00200.2419,W,1,0,,162.0,M,,M,,*4B
$GPRMC,103210.000,A,5403.1860,N,00200.2419,W,0.000,0.00,150912,,A*6E
$GPGGA,103225.000,5403.1661,N,00200.2509,W,1,0,,162.0,M,,M,,*42
$GPRMC,103225.000,A,5403.1661,N,00200.2509,W,0.000,0.00,150912,,A*67
$GPGGA,103240.000,5403.1650,N,00200.2589,W,1,0,,162.0,M,,M,,*4B
$GPRMC,103240.000,A,5403.1650,N,00200.2589,W,0.000,0.00,150912,,A*6E
$GPGGA,103259.000,5403.1622,N,00200.2633,W,1,0,,162.0,M,,M,,*44
$GPRMC,103259.000,A,5403.1622,N,00200.2633,W,0.000,0.00,150912,,A*61
$GPGGA,103314.000,5403.1496,N,00200.2647,W,1,0,,162.0,M,,M,,*42
$GPRMC,103314.000,A,5403.1496,N,00200.2647,W,0.000,0.00,150912,,A*67
$GPGGA,103329.000,5403.1542,N,00200.2678,W,1,0,,162.0,M,,M,,*48
$GPRMC,103329.000,A,5403.1542,N,00200.2678,W,0.000,0.00,150912,,A*6D
$GPGGA,103345.000,5403.1512,N,00200.2638,W,1,0,,162.0,M,,M,,*43
$GPRMC,103345.000,A,5403.1512,N,00200.2638,W,0.000,0.00,150912,,A*66
$GPGGA,103400.000,5403.1528,N,00200.2523,W,1,0,,162.0,M,,M,,*45
$GPRMC,103400.000,A,5403.1528,N,00200.2523,W,0.000,0.00,150912,,A*60
$GPGGA,103415.000,5403.1613,N,00200.2563,W,1,0,,163.0,M,,M,,*4F
$GPRMC,103415.000,A,5403.1613,N,00200.2563,W,0.000,0.00,150912,,A*6B
$GPGGA,103431.000,5403.1615,N,00200.2534,W,1,0,,163.0,M,,M,,*4D
$GPRMC,103431.000,A,5403.1615,N,00200.2534,W,0.000,0.00,150912,,A*69
$GPGGA,103446.000,5403.1629,N,00200.2645,W,1,0,,163.0,M,,M,,*47
$GPRMC,103446.000,A,5403.1629,N,00200.2645,W,0.000,0.00,150912,,A*63
$GPGGA,103503.000,5403.1542,N,00200.2824,W,1,0,,163.0,M,,M,,*40
$GPRMC,103503.000,A,5403.1542,N,00200.2824,W,0.000,0.00,150912,,A*64
$GPGGA,103518.000,5403.1490,N,00200.2893,W,1,0,,163.0,M,,M,,*48
$GPRMC,103518.000,A,5403.1490,N,00200.2893,W,0.000,0.00,150912,,A*6C
$GPGGA,103533.000,5403.1373,N,00200.3002,W,1,0,,164.0,M,,M,,*4D
$GPRMC,103533.000,A,5403.1373,N,00200.3002,W,0.000,0.00,150912,,A*6E
$GPGGA,103549.000,5403.1359,N,00200.3017,W,1,0,,164.0,M,,M,,*4C
$GPRMC,103549.000,A,5403.1359,N,00200.3017,W,0.000,0.00,150912,,A*6F
$GPGGA,103604.000,5403.1336,N,00200.2988,W,1,0,,164.0,M,,M,,*41
$GPRMC,103604.000,A,5403.1336,N,00200.2988,W,0.000,0.00,150912,,A*62
$GPGGA,103619.000,5403.1320,N,00200.3039,W,1,0,,164.0,M,,M,,*48
$GPRMC,103619.000,A,5403.1320,N,00200.3039,W,0.000,0.00,150912,,A*6B
$GPGGA,103634.000,5403.1304,N,00200.3020,W,1,0,,165.0,M,,M,,*48
$GPRMC,103634.000,A,5403.1304,N,00200.3020,W,0.000,0.00,150912,,A*6A
$GPGGA,103700.000,5403.1238,N,00200.2881,W,1,0,,165.0,M,,M,,*42
$GPRMC,103700.000,A,5403.1238,N,00200.2881,W,0.000,0.00,150912,,A*60
$GPGGA,103715.000,5403.1231,N,00200.2831,W,1,0,,165.0,M,,M,,*44
$GPRMC,103715.000,A,5403.1231,N,00200.2831,W,0.000,0.00,150912,,A*66
$GPGGA,103731.000,5403.1169,N,00200.2659,W,1,0,,165.0,M,,M,,*4C
$GPRMC,103731.000,A,5403.1169,N,00200.2659,W,0.000,0.00,150912,,A*6E
$GPGGA,103746.000,5403.1144,N,00200.2546,W,1,0,,165.0,M,,M,,*4E
$GPRMC,103746.000,A,5403.1144,N,00200.2546,W,0.000,0.00,150912,,A*6C
$GPGGA,103801.000,5403.1080,N,00200.2410,W,1,0,,166.0,M,,M,,*4A
$GPRMC,103801.000,A,5403.1080,N,00200.2410,W,0.000,0.00,150912,,A*6B
$GPGGA,103818.000,5403.1089,N,00200.2354,W,1,0,,165.0,M,,M,,*4F
$GPRMC,103818.000,A,5403.1089,N,00200.2354,W,0.000,0.00,150912,,A*6D
$GPGGA,103833.000,5403.1050,N,00200.2146,W,1,0,,165.0,M,,M,,*43
$GPRMC,103833.000,A,5403.1050,N,00200.2146,W,0.000,0.00,150912,,A*61
$GPGGA,103848.000,5403.1034,N,00200.2011,W,1,0,,166.0,M,,M,,*4D
$GPRMC,103848.000,A,5403.1034,N,00200.2011,W,0.000,0.00,150912,,A*6C
$GPGGA,103903.000,5403.1027,N,00200.1872,W,1,0,,166.0,M,,M,,*4F
$GPRMC,103903.000,A,5403.1027,N,00200.1872,W,0.000,0.00,150912,,A*6E
$GPGGA,103926.000,5403.1078,N,00200.1776,W,1,0,,167.0,M,,M,,*48
$GPRMC,103926.000,A,5403.1078,N,00200.1776,W,0.000,0.00,150912,,A*68
$GPGGA,103942.000,5403.1036,N,00200.1581,W,1,0,,167.0,M,,M,,*4A
$GPRMC,103942.000,A,5403.1036,N,00200.1581,W,0.000,0.00,150912,,A*6A
$GPGGA,104009.000,5403.0901,N,00200.1478,W,1,0,,167.0,M,,M,,*40
$GPRMC,104009.000,A,5403.0901,N,00200.1478,W,0.000,0.00,150912,,A*60
$GPGGA,104026.000,5403.0979,N,00200.1325,W,1,0,,167.0,M,,M,,*4D
$GPRMC,104026.000,A,5403.0979,N,00200.1325,W,0.000,0.00,150912,,A*6D
$GPGGA,104041.000,5403.0865,N,00200.1152,W,1,0,,167.0,M,,M,,*42
$GPRMC,104041.000,A,5403.0865,N,00200.1152,W,0.000,0.00,150912,,A*62
$GPGGA,104056.000,5403.0753,N,00200.1153,W,1,0,,167.0,M,,M,,*4F
$GPRMC,104056.000,A,5403.0753,N,00200.1153,W,0.000,0.00,150912,,A*6F
$GPGGA,104114.000,5403.0686,N,00200.1156,W,1,0,,167.0,M,,M,,*44
$GPRMC,104114.000,A,5403.0686,N,00200.1156,W,0.000,0.00,150912,,A*64
$GPGGA,104129.000,5403.0650,N,00200.1092,W,1,0,,167.0,M,,M,,*48
$GPRMC,104129.000,A,5403.0650,N,00200.1092,W,0.000,0.00,150912,,A*68
$GPGGA,104144.000,5403.0611,N,00200.0952,W,1,0,,167.0,M,,M,,*42
$GPRMC,104144.000,A,5403.0611,N,00200.0952,W,0.000,0.00,150912,,A*62
$GPGGA,104201.000,5403.0698,N,00200.1141,W,1,0,,167.0,M,,M,,*4A
$GPRMC,104201.000,A,5403.0698,N,00200.1141,W,0.000,0.00,150912,,A*6A
$GPGGA,104216.000,5403.0590,N,00200.1203,W,1,0,,167.0,M,,M,,*42
$GPRMC,104216.000,A,5403.0590,N,00200.1203,W,0.000,0.00,150912,,A*62
$GPGGA,104232.000,5403.0510,N,00200.1298,W,1,0,,167.0,M,,M,,*4E
$GPRMC,104232.000,A,5403.0510,N,00200.1298,W,0.000,0.00,150912,,A*6E
$GPGGA,104247.000,5403.0400,N,00200.1410,W,1,0,,168.0,M,,M,,*45
$GPRMC,104247.000,A,5403.0400,N,00200.1410,W,0.000,0.00,150912,,A*6A
$GPGGA,104307.000,5403.0347,N,00200.1559,W,1,0,,168.0,M,,M,,*48
$GPRMC,104307.000,A,5403.0347,N,00200.1559,W,0.000,0.00,150912,,A*67
$GPGGA,104323.000,5403.0281,N,00200.1595,W,1,0,,168.0,M,,M,,*45
$GPRMC,104323.000,A,5403.0281,N,00200.1595,W,0.000,0.00,150912,,A*6A
$GPGGA,104338.000,5403.0171,N,00200.1660,W,1,0,,169.0,M,,M,,*4B
$GPRMC,104338.000,A,5403.0171,N,00200.1660,W,0.000,0.00,150912,,A*65
$GPGGA,104353.000,5403.0068,N,00200.1789,W,1,0,,169.0,M,,M,,*49
$GPRMC,104353.000,A,5403.0068,N,00200.1789,W,0.000,0.00,150912,,A*67
$GPGGA,104408.000,5403.0027,N,00200.2019,W,1,0,,170.0,M,,M,,*4E
$GPRMC,104408.000,A,5403.0027,N,00200.2019,W,0.000,0.00,150912,,A*68
$GPGGA,104423.000,5403.0006,N,00200.2034,W,1,0,,170.0,M,,M,,*4B
$GPRMC,104423.000,A,5403.0006,N,00200.2034,W,0.000,0.00,150912,,A*6D
$GPGGA,104438.000,5402.9961,N,00200.2190,W,1,0,,170.0,M,,M,,*4E
$GPRMC,104438.000,A,5402.9961,N,00200.2190,W,0.000,0.00,150912,,A*68
$GPGGA,104459.000,5402.9867,N,00200.2330,W,1,0,,171.0,M,,M,,*47
$GPRMC,104459.000,A,5402.9867,N,00200.2330,W,0.000,0.00,150912,,A*60
$GPGGA,104515.000,5402.9906,N,00200.2412,W,1,0,,171.0,M,,M,,*4F
$GPRMC,104515.000,A,5402.9906,N,00200.2412,W,0.000,0.00,150912,,A*68
$GPGGA,104530.000,5402.9837,N,00200.2525,W,1,0,,171.0,M,,M,,*4E
$GPRMC,104530.000,A,5402.9837,N,00200.2525,W,0.000,0.00,150912,,A*69
$GPGGA,104545.000,5402.9743,N,00200.2669,W,1,0,,171.0,M,,M,,*4B
$GPRMC,104545.000,A,5402.9743,N,00200.2669,W,0.000,0.00,150912,,A*6C
$GPGGA,104601.000,5402.9622,N,00200.2754,W,1,0,,171.0,M,,M,,*41
$GPRMC,104601.000,A,5402.9622,N,00200.2754,W,0.000,0.00,150912,,A*66
$GPGGA,104616.000,5402.9604,N,00200.2845,W,1,0,,171.0,M,,M,,*4C
$GPRMC,104616.000,A,5402.9604,N,00200.2845,W,0.000,0.00,150912,,A*6B
$GPGGA,104631.000,5402.9482,N,00200.3033,W,1,0,,171.0,M,,M,,*4D
$GPRMC,104631.000,A,5402.9482,N,00200.3033,W,0.000,0.00,150912,,A*6A
$GPGGA,104646.000,5402.9400,N,00200.3172,W,1,0,,171.0,M,,M,,*43
$GPRMC,104646.000,A,5402.9400,N,00200.3172,W,0.000,0.00,150912,,A*64
$GPGGA,104701.000,5402.9345,N,00200.3308,W,1,0,,172.0,M,,M,,*4B
$GPRMC,104701.000,A,5402.9345,N,00200.3308,W,0.000,0.00,150912,,A*6F
$GPGGA,104716.000,5402.9210,N,00200.3365,W,1,0,,172.0,M,,M,,*47
$GPRMC,104716.000,A,5402.9210,N,00200.3365,W,0.000,0.00,150912,,A*63
$GPGGA,104731.000,5402.9164,N,00200.3363,W,1,0,,172.0,M,,M,,*44
$GPRMC,104731.000,A,5402.9164,N,00200.3363,W,0.000,0.00,150912,,A*60
$GPGGA,104747.000,5402.9098,N,00200.3470,W,1,0,,173.0,M,,M,,*43
$GPRMC,104747.000,A,5402.9098,N,00200.3470,W,0.000,0.00,150912,,A*66
$GPGGA,104802.000,5402.8926,N,00200.3601,W,1,0,,173.0,M,,M,,*44
$GPRMC,104802.000,A,5402.8926,N,00200.3601,W,0.000,0.00,150912,,A*61
$GPGGA,104817.000,5402.8734,N,00200.3703,W,1,0,,174.0,M,,M,,*49
$GPRMC,104817.000,A,5402.8734,N,00200.3703,W,0.000,0.00,150912,,A*6B
$GPGGA,104832.000,5402.8736,N,00200.3774,W,1,0,,174.0,M,,M,,*4C
$GPRMC,104832.000,A,5402.8736,N,00200.3774,W,0.000,0.00,150912,,A*6E
$GPGGA,104854.000,5402.8645,N,00200.3920,W,1,0,,175.0,M,,M,,*47
$GPRMC,104854.000,A,5402.8645,N,00200.3920,W,0.000,0.00,150912,,A*64
$GPGGA,104910.000,5402.8553,N,00200.4067,W,1,0,,175.0,M,,M,,*4F
$GPRMC,104910.000,A,5402.8553,N,00200.4067,W,0.000,0.00,150912,,A*6C
$GPGGA,104925.000,5402.8493,N,00200.4073,W,1,0,,175.0,M,,M,,*41
$GPRMC,104925.000,A,5402.8493,N,00200.4073,W,0.000,0.00,150912,,A*62
$GPGGA,104941.000,5402.8379,N,00200.4086,W,1,0,,175.0,M,,M,,*4A
$GPRMC,104941.000,A,5402.8379,N,00200.4086,W,0.000,0.00,150912,,A*69
$GPGGA,104956.000,5402.8290,N,00200.4199,W,1,0,,175.0,M,,M,,*45
$GPRMC,104956.000,A,5402.8290,N,00200.4199,W,0.000,0.00,150912,,A*66
$GPGGA,105012.000,5402.8168,N,00200.4334,W,1,0,,176.0,M,,M,,*4F
$GPRMC,105012.000,A,5402.8168,N,00200.4334,W,0.000,0.00,150912,,A*6F
$GPGGA,105027.000,5402.8162,N,00200.4419,W,1,0,,176.0,M,,M,,*4B
$GPRMC,105027.000,A,5402.8162,N,00200.4419,W,0.000,0.00,150912,,A*6B
$GPGGA,105043.000,5402.8125,N,00200.4362,W,1,0,,176.0,M,,M,,*41
$GPRMC,105043.000,A,5402.8125,N,00200.4362,W,0.000,0.00,150912,,A*61
$GPGGA,105058.000,5402.8098,N,00200.4375,W,1,0,,176.0,M,,M,,*4A
$GPRMC,105058.000,A,5402.8098,N,00200.4375,W,0.000,0.00,150912,,A*6A
$GPGGA,105126.000,5402.7928,N,00200.4459,W,1,0,,176.0,M,,M,,*46
$GPRMC,105126.000,A,5402.7928,N,00200.4459,W,0.000,0.00,150912,,A*66
$GPGGA,105141.000,5402.8043,N,00200.4356,W,1,0,,176.0,M,,M,,*44
$GPRMC,105141.000,A,5402.8043,N,00200.4356,W,0.000,0.00,150912,,A*64
$GPGGA,105157.000,5402.8056,N,00200.4317,W,1,0,,177.0,M,,M,,*43
$GPRMC,105157.000,A,5402.8056,N,00200.4317,W,0.000,0.00,150912,,A*62
$GPGGA,105213.000,5402.7853,N,00200.4297,W,1,0,,177.0,M,,M,,*4B
$GPRMC,105213.000,A,5402.7853,N,00200.4297,W,0.000,0.00,150912,,A*6A
$GPGGA,105228.000,5402.7770,N,00200.4115,W,1,0,,178.0,M,,M,,*4B
$GPRMC,105228.000,A,5402.7770,N,00200.4115,W,0.000,0.00,150912,,A*65
$GPGGA,105243.000,5402.7720,N,00200.3966,W,1,0,,178.0,M,,M,,*48
$GPRMC,105243.000,A,5402.7720,N,00200.3966,W,0.000,0.00,150912,,A*66
$GPGGA,105258.000,5402.7750,N,00200.3835,W,1,0,,178.0,M,,M,,*42
$GPRMC,105258.000,A,5402.7750,N,00200.3835,W,0.000,0.00,150912,,A*6C
$GPGGA,105313.000,5402.7759,N,00200.3843,W,1,0,,179.0,M,,M,,*45
$GPRMC,105313.000,A,5402.7759,N,00200.3843,W,0.000,0.00,150912,,A*6A
$GPGGA,105339.000,5402.7734,N,00200.3900,W,1,0,,179.0,M,,M,,*40
$GPRMC,105339.000,A,5402.7734,N,00200.3900,W,0.000,0.00,150912,,A*6F
$GPGGA,105355.000,5402.7766,N,00200.3768,W,1,0,,179.0,M,,M,,*4D
$GPRMC,105355.000,A,5402.7766,N,00200.3768,W,0.000,0.00,150912,,A*62
$GPGGA,105410.000,5402.7734,N,00200.3574,W,1,0,,179.0,M,,M,,*43
$GPRMC,105410.000,A,5402.7734,N,00200.3574,W,0.000,0.00,150912,,A*6C
$GPGGA,105425.000,5402.7713,N,00200.3506,W,1,0,,179.0,M,,M,,*45
$GPRMC,105425.000,A,5402.7713,N,00200.3506,W,0.000,0.00,150912,,A*6A
$GPGGA,105440.000,5402.7619,N,00200.3255,W,1,0,,179.0,M,,M,,*4C
$GPRMC,105440.000,A,5402.7619,N,00200.3255,W,0.000,0.00,150912,,A*63
$GPGGA,105455.000,5402.7651,N,00200.3065,W,1,0,,180.0,M,,M,,*43
$GPRMC,105455.000,A,5402.7651,N,00200.3065,W,0.000,0.00,150912,,A*6A
$GPGGA,105510.000,5402.7697,N,00200.2899,W,1,0,,180.0,M,,M,,*43
$GPRMC,105510.000,A,5402.7697,N,00200.2899,W,0.000,0.00,150912,,A*6A
$GPGGA,105526.000,5402.7738,N,00200.2718,W,1,0,,180.0,M,,M,,*44
$GPRMC,105526.000,A,5402.7738,N,00200.2718,W,0.000,0.00,150912,,A*6D
$GPGGA,105541.000,5402.7770,N,00200.2595,W,1,0,,180.0,M,,M,,*4E
$GPRMC,105541.000,A,5402.7770,N,00200.2595,W,0.000,0.00,150912,,A*67
$GPGGA,105556.000,5402.7823,N,00200.2545,W,1,0,,180.0,M,,M,,*4C
$GPRMC,105556.000,A,5402.7823,N,00200.2545,W,0.000,0.00,150912,,A*65
$GPGGA,105612.000,5402.7699,N,00200.2476,W,1,0,,181.0,M,,M,,*40
$GPRMC,105612.000,A,5402.7699,N,00200.2476,W,0.000,0.00,150912,,A*68
$GPGGA,105627.000,5402.7683,N,00200.2368,W,1,0,,181.0,M,,M,,*45
$GPRMC,105627.000,A,5402.7683,N,00200.2368,W,0.000,0.00,150912,,A*6D
$GPGGA,105642.000,5402.7674,N,00200.2264,W,1,0,,181.0,M,,M,,*43
$GPRMC,105642.000,A,5402.7674,N,00200.2264,W,0.000,0.00,150912,,A*6B
$GPGGA,105657.000,5402.7651,N,00200.2266,W,1,0,,181.0,M,,M,,*42
$GPRMC,105657.000,A,5402.7651,N,00200.2266,W,0.000,0.00,150912,,A*6A
$GPGGA,105713.000,5402.7676,N,00200.2297,W,1,0,,182.0,M,,M,,*4B
$GPRMC,105713.000,A,5402.7676,N,00200.2297,W,0.000,0.00,150912,,A*60
$GPGGA,105728.000,5402.7784,N,00200.2320,W,1,0,,182.0,M,,M,,*42
$GPRMC,105728.000,A,5402.7784,N,00200.2320,W,0.000,0.00,150912,,A*69
$GPGGA,105743.000,5402.7848,N,00200.2058,W,1,0,,183.0,M,,M,,*4D
$GPRMC,105743.000,A,5402.7848,N,00200.2058,W,0.000,0.00,150912,,A*67
$GPGGA,105759.000,5402.7809,N,00200.2026,W,1,0,,183.0,M,,M,,*4A
$GPRMC,105759.000,A,5402.7809,N,00200.2026,W,0.000,0.00,150912,,A*60
$GPGGA,105814.000,5402.7841,N,00200.1924,W,1,0,,183.0,M,,M,,*48
$GPRMC,105814.000,A,5402.7841,N,00200.1924,W,0.000,0.00,150912,,A*62
$GPGGA,105829.000,5402.7850,N,00200.1796,W,1,0,,184.0,M,,M,,*46
$GPRMC,105829.000,A,5402.7850,N,00200.1796,W,0.000,0.00,150912,,A*6B
$GPGGA,105844.000,5402.7823,N,00200.1679,W,1,0,,184.0,M,,M,,*49
$GPRMC,105844.000,A,5402.7823,N,00200.1679,W,0.000,0.00,150912,,A*64
$GPGGA,105900.000,5402.7843,N,00200.1498,W,1,0,,184.0,M,,M,,*43
$GPRMC,105900.000,A,5402.7843,N,00200.1498,W,0.000,0.00,150912,,A*6E
$GPGGA,105915.000,5402.7853,N,00200.1356,W,1,0,,184.0,M,,M,,*43
$GPRMC,105915.000,A,5402.7853,N,00200.1356,W,0.000,0.00,150912,,A*6E
$GPGGA,105930.000,5402.7859,N,00200.1251,W,1,0,,184.0,M,,M,,*48
$GPRMC,105930.000,A,5402.7859,N,00200.1251,W,0.000,0.00,150912,,A*65
$GPGGA,105945.000,5402.7779,N,00200.1092,W,1,0,,184.0,M,,M,,*4A
$GPRMC,105945.000,A,5402.7779,N,00200.1092,W,0.000,0.00,150912,,A*67
$GPGGA,110000.000,5402.7818,N,00200.1096,W,1,0,,184.0,M,,M,,*4A
$GPRMC,110000.000,A,5402.7818,N,00200.1096,W,0.000,0.00,150912,,A*67
$GPGGA,110015.000,5402.7759,N,00200.1111,W,1,0,,184.0,M,,M,,*4A
$GPRMC,110015.000,A,5402.7759,N,00200.1111,W,0.000,0.00,150912,,A*67
$GPGGA,110030.000,5402.7747,N,00200.1015,W,1,0,,184.0,M,,M,,*47
$GPRMC,110030.000,A,5402.7747,N,00200.1015,W,0.000,0.00,150912,,A*6A
$GPGGA,110047.000,5402.7921,N,00200.0969,W,1,0,,185.0,M,,M,,*4B
$GPRMC,110047.000,A,5402.7921,N,00200.0969,W,0.000,0.00,150912,,A*67
$GPGGA,110102.000,5402.7953,N,00200.0845,W,1,0,,185.0,M,,M,,*41
$GPRMC,110102.000,A,5402.7953,N,00200.0845,W,0.000,0.00,150912,,A*6D
$GPGGA,110117.000,5402.7942,N,00200.0703,W,1,0,,185.0,M,,M,,*48
$GPRMC,110117.000,A,5402.7942,N,00200.0703,W,0.000,0.00,150912,,A*64
$GPGGA,110133.000,5402.7979,N,00200.0487,W,1,0,,185.0,M,,M,,*49
$GPRMC,110133.000,A,5402.7979,N,00200.0487,W,0.000,0.00,150912,,A*65
$GPGGA,110148.000,5402.7894,N,00200.0449,W,1,0,,185.0,M,,M,,*45
$GPRMC,110148.000,A,5402.7894,N,00200.0449,W,0.000,0.00,150912,,A*69
$GPGGA,110203.000,5402.7917,N,00200.0438,W,1,0,,185.0,M,,M,,*45
$GPRMC,110203.000,A,5402.7917,N,00200.0438,W,0.000,0.00,150912,,A*69
$GPGGA,110219.000,5402.7965,N,00200.0312,W,1,0,,186.0,M,,M,,*47
$GPRMC,110219.000,A,5402.7965,N,00200.0312,W,0.000,0.00,150912,,A*68
$GPGGA,110234.000,5402.7921,N,00200.0190,W,1,0,,186.0,M,,M,,*40
$GPRMC,110234.000,A,5402.7921,N,00200.0190,W,0.000,0.00,150912,,A*6F
$GPGGA,110249.000,5402.7873,N,00200.0114,W,1,0,,186.0,M,,M,,*40
$GPRMC,110249.000,A,5402.7873,N,00200.0114,W,0.000,0.00,150912,,A*6F
$GPGGA,110304.000,5402.7832,N,00159.9982,W,1,0,,186.0,M,,M,,*4C
$GPRMC,110304.000,A,5402.7832,N,00159.9982,W,0.000,0.00,150912,,A*63
$GPGGA,110319.000,5402.7837,N,00159.9966,W,1,0,,186.0,M,,M,,*4F
$GPRMC,110319.000,A,5402.7837,N,00159.9966,W,0.000,0.00,150912,,A*60
$GPGGA,110335.000,5402.7805,N,00159.9925,W,1,0,,186.0,M,,M,,*47
$GPRMC,110335.000,A,5402.7805,N,00159.9925,W,0.000,0.00,150912,,A*68
$GPGGA,110350.000,5402.7825,N,00159.9903,W,1,0,,186.0,M,,M,,*42
$GPRMC,110350.000,A,5402.7825,N,00159.9903,W,0.000,0.00,150912,,A*6D
$GPGGA,110406.000,5402.7930,N,00159.9900,W,1,0,,186.0,M,,M,,*40
$GPRMC,110406.000,A,5402.7930,N,00159.9900,W,0.000,0.00,150912,,A*6F
$GPGGA,110421.000,5402.7946,N,00159.9840,W,1,0,,186.0,M,,M,,*41
$GPRMC,110421.000,A,5402.7946,N,00159.9840,W,0.000,0.00,150912,,A*6E
$GPGGA,110436.000,5402.7956,N,00159.9814,W,1,0,,186.0,M,,M,,*47
$GPRMC,110436.000,A,5402.7956,N,00159.9814,W,0.000,0.00,150912,,A*68
$GPGGA,110451.000,5402.7965,N,00159.9846,W,1,0,,187.0,M,,M,,*40
$GPRMC,110451.000,A,5402.7965,N,00159.9846,W,0.000,0.00,150912,,A*6E
$GPGGA,110507.000,5402.7949,N,00159.9793,W,1,0,,187.0,M,,M,,*4B
$GPRMC,110507.000,A,5402.7949,N,00159.9793,W,0.000,0.00,150912,,A*65
$GPGGA,110522.000,5402.7958,N,00159.9843,W,1,0,,187.0,M,,M,,*4E
$GPRMC,110522.000,A,5402.7958,N,00159.9843,W,0.000,0.00,150912,,A*60
$GPGGA,110537.000,5402.7910,N,00159.9789,W,1,0,,187.0,M,,M,,*4F
$GPRMC,110537.000,A,5402.7910,N,00159.9789,W,0.000,0.00,150912,,A*61
$GPGGA,110552.000,5402.8049,N,00159.9798,W,1,0,,187.0,M,,M,,*46
$GPRMC,110552.000,A,5402.8049,N,00159.9798,W,0.000,0.00,150912,,A*68
$GPGGA,110607.000,5402.7935,N,00159.9734,W,1,0,,187.0,M,,M,,*4E
$GPRMC,110607.000,A,5402.7935,N,00159.9734,W,0.000,0.00,150912,,A*60
$GPGGA,110622.000,5402.7937,N,00159.9775,W,1,0,,187.0,M,,M,,*4E
$GPRMC,110622.000,A,5402.7937,N,00159.9775,W,0.000,0.00,150912,,A*60
$GPGGA,110637.000,5402.7985,N,00159.9880,W,1,0,,187.0,M,,M,,*46
$GPRMC,110637.000,A,5402.7985,N,00159.9880,W,0.000,0.00,150912,,A*68
$GPGGA,110652.000,5402.7997,N,00159.9874,W,1,0,,187.0,M,,M,,*4D
$GPRMC,110652.000,A,5402.7997,N,00159.9874,W,0.000,0.00,150912,,A*63
$GPGGA,110717.000,5402.7951,N,00159.9776,W,1,0,,187.0,M,,M,,*4A
$GPRMC,110717.000,A,5402.7951,N,00159.9776,W,0.000,0.00,150912,,A*64
$GPGGA,110732.000,5402.7944,N,00159.9784,W,1,0,,187.0,M,,M,,*44
$GPRMC,110732.000,A,5402.7944,N,00159.9784,W,0.000,0.00,150912,,A*6A
$GPGGA,110747.000,5402.7933,N,00159.9749,W,1,0,,188.0,M,,M,,*48
$GPRMC,110747.000,A,5402.7933,N,00159.9749,W,0.000,0.00,150912,,A*69
$GPGGA,110805.000,5402.8011,N,00159.9744,W,1,0,,188.0,M,,M,,*4A
$GPRMC,110805.000,A,5402.8011,N,00159.9744,W,0.000,0.00,150912,,A*6B
$GPGGA,110820.000,5402.8008,N,00159.9745,W,1,0,,188.0,M,,M,,*44
$GPRMC,110820.000,A,5402.8008,N,00159.9745,W,0.000,0.00,150912,,A*65
$GPGGA,110835.000,5402.8178,N,00159.9689,W,1,0,,189.0,M,,M,,*46
$GPRMC,110835.000,A,5402.8178,N,00159.9689,W,0.000,0.00,150912,,A*66
$GPGGA,110850.000,5402.8223,N,00159.9707,W,1,0,,189.0,M,,M,,*4F
$GPRMC,110850.000,A,5402.8223,N,00159.9707,W,0.000,0.00,150912,,A*6F
$GPGGA,110911.000,5402.8212,N,00159.9730,W,1,0,,189.0,M,,M,,*4D
$GPRMC,110911.000,A,5402.8212,N,00159.9730,W,0.000,0.00,150912,,A*6D
$GPGGA,110928.000,5402.8217,N,00159.9728,W,1,0,,189.0,M,,M,,*4B
$GPRMC,110928.000,A,5402.8217,N,00159.9728,W,0.000,0.00,150912,,A*6B
$GPGGA,110944.000,5402.8223,N,00159.9734,W,1,0,,189.0,M,,M,,*4B
$GPRMC,110944.000,A,5402.8223,N,00159.9734,W,0.000,0.00,150912,,A*6B
$GPGGA,111000.000,5402.8251,N,00159.9835,W,1,0,,190.0,M,,M,,*40
$GPRMC,111000.000,A,5402.8251,N,00159.9835,W,0.000,0.00,150912,,A*68
$GPGGA,111015.000,5402.8239,N,00159.9846,W,1,0,,191.0,M,,M,,*4F
$GPRMC,111015.000,A,5402.8239,N,00159.9846,W,0.000,0.00,150912,,A*66
$GPGGA,111031.000,5402.8061,N,00159.9768,W,1,0,,191.0,M,,M,,*45
$GPRMC,111031.000,A,5402.8061,N,00159.9768,W,0.000,0.00,150912,,A*6C
$GPGGA,111047.000,5402.8052,N,00159.9743,W,1,0,,191.0,M,,M,,*4D
$GPRMC,111047.000,A,5402.8052,N,00159.9743,W,0.000,0.00,150912,,A*64
$GPGGA,111102.000,5402.8029,N,00159.9719,W,1,0,,192.0,M,,M,,*4D
$GPRMC,111102.000,A,5402.8029,N,00159.9719,W,0.000,0.00,150912,,A*67
$GPGGA,111117.000,5402.8031,N,00159.9647,W,1,0,,192.0,M,,M,,*4A
$GPRMC,111117.000,A,5402.8031,N,00159.9647,W,0.000,0.00,150912,,A*60
$GPGGA,111132.000,5402.8166,N,00159.9860,W,1,0,,193.0,M,,M,,*44
$GPRMC,111132.000,A,5402.8166,N,00159.9860,W,0.000,0.00,150912,,A*6F
$GPGGA,111148.000,5402.8088,N,00159.9723,W,1,0,,193.0,M,,M,,*40
$GPRMC,111148.000,A,5402.8088,N,00159.9723,W,0.000,0.00,150912,,A*6B
$GPGGA,111203.000,5402.8095,N,00159.9625,W,1,0,,193.0,M,,M,,*47
$GPRMC,111203.000,A,5402.8095,N,00159.9625,W,0.000,0.00,150912,,A*6C
$GPGGA,111218.000,5402.8047,N,00159.9246,W,1,0,,193.0,M,,M,,*43
$GPRMC,111218.000,A,5402.8047,N,00159.9246,W,0.000,0.00,150912,,A*68
$GPGGA,111234.000,5402.8022,N,00159.9093,W,1,0,,194.0,M,,M,,*43
$GPRMC,111234.000,A,5402.8022,N,00159.9093,W,0.000,0.00,150912,,A*6F
$GPGGA,111249.000,5402.8088,N,00159.8870,W,1,0,,194.0,M,,M,,*4D
$GPRMC,111249.000,A,5402.8088,N,00159.8870,W,0.000,0.00,150912,,A*61
$GPGGA,111304.000,5402.8111,N,00159.8720,W,1,0,,194.0,M,,M,,*4E
$GPRMC,111304.000,A,5402.8111,N,00159.8720,W,0.000,0.00,150912,,A*62
$GPGGA,111319.000,5402.8214,N,00159.8602,W,1,0,,194.0,M,,M,,*45
$GPRMC,111319.000,A,5402.8214,N,00159.8602,W,0.000,0.00,150912,,A*69
$GPGGA,111335.000,5402.8191,N,00159.8522,W,1,0,,194.0,M,,M,,*44
$GPRMC,111335.000,A,5402.8191,N,00159.8522,W,0.000,0.00,150912,,A*68
$GPGGA,111350.000,5402.8283,N,00159.8299,W,1,0,,194.0,M,,M,,*40
$GPRMC,111350.000,A,5402.8283,N,00159.8299,W,0.000,0.00,150912,,A*6C
$GPGGA,111405.000,5402.8269,N,00159.8257,W,1,0,,195.0,M,,M,,*40
$GPRMC,111405.000,A,5402.8269,N,00159.8257,W,0.000,0.00,150912,,A*6D
$GPGGA,111420.000,5402.8203,N,00159.8249,W,1,0,,195.0,M,,M,,*44
$GPRMC,111420.000,A,5402.8203,N,00159.8249,W,0.000,0.00,150912,,A*69
$GPGGA,111436.000,5402.8203,N,00159.8234,W,1,0,,195.0,M,,M,,*49
$GPRMC,111436.000,A,5402.8203,N,00159.8234,W,0.000,0.00,150912,,A*64
$GPGGA,111451.000,5402.8214,N,00159.8228,W,1,0,,195.0,M,,M,,*43
$GPRMC,111451.000,A,5402.8214,N,00159.8228,W,0.000,0.00,150912,,A*6E
$GPGGA,111506.000,5402.8244,N,00159.8225,W,1,0,,196.0,M,,M,,*4B
$GPRMC,111506.000,A,5402.8244,N,00159.8225,W,0.000,0.00,150912,,A*65
$GPGGA,111521.000,5402.8265,N,00159.8135,W,1,0,,196.0,M,,M,,*4F
$GPRMC,111521.000,A,5402.8265,N,00159.8135,W,0.000,0.00,150912,,A*61
$GPGGA,111536.000,5402.8249,N,00159.8058,W,1,0,,196.0,M,,M,,*4D
$GPRMC,111536.000,A,5402.8249,N,00159.8058,W,0.000,0.00,150912,,A*63
$GPGGA,111551.000,5402.8239,N,00159.7929,W,1,0,,196.0,M,,M,,*4B
$GPRMC,111551.000,A,5402.8239,N,00159.7929,W,0.000,0.00,150912,,A*65
$GPGGA,111607.000,5402.8333,N,00159.7788,W,1,0,,196.0,M,,M,,*45
$GPRMC,111607.000,A,5402.8333,N,00159.7788,W,0.000,0.00,150912,,A*6B
$GPGGA,111623.000,5402.8292,N,00159.7683,W,1,0,,197.0,M,,M,,*42
$GPRMC,111623.000,A,5402.8292,N,00159.7683,W,0.000,0.00,150912,,A*6D
$GPGGA,111638.000,5402.8324,N,00159.7591,W,1,0,,197.0,M,,M,,*44
$GPRMC,111638.000,A,5402.8324,N,00159.7591,W,0.000,0.00,150912,,A*6B
$GPGGA,111654.000,5402.8331,N,00159.7515,W,1,0,,197.0,M,,M,,*46
$GPRMC,111654.000,A,5402.8331,N,00159.7515,W,0.000,0.00,150912,,A*69
$GPGGA,111709.000,5402.8374,N,00159.7409,W,1,0,,197.0,M,,M,,*42
$GPRMC,111709.000,A,5402.8374,N,00159.7409,W,0.000,0.00,150912,,A*6D
$GPGGA,111724.000,5402.8345,N,00159.7305,W,1,0,,197.0,M,,M,,*44
$GPRMC,111724.000,A,5402.8345,N,00159.7305,W,0.000,0.00,150912,,A*6B
$GPGGA,111739.000,5402.8464,N,00159.7092,W,1,0,,197.0,M,,M,,*41
$GPRMC,111739.000,A,5402.8464,N,00159.7092,W,0.000,0.00,150912,,A*6E
$GPGGA,111804.000,5402.8580,N,00159.6927,W,1,0,,197.0,M,,M,,*4D
$GPRMC,111804.000,A,5402.8580,N,00159.6927,W,0.000,0.00,150912,,A*62
$GPGGA,111820.000,5402.8665,N,00159.6852,W,1,0,,198.0,M,,M,,*4F
$GPRMC,111820.000,A,5402.8665,N,00159.6852,W,0.000,0.00,150912,,A*6F
$GPGGA,111836.000,5402.8633,N,00159.6864,W,1,0,,198.0,M,,M,,*4E
$GPRMC,111836.000,A,5402.8633,N,00159.6864,W,0.000,0.00,150912,,A*6E
$GPGGA,111852.000,5402.8519,N,00159.6842,W,1,0,,198.0,M,,M,,*43
$GPRMC,111852.000,A,5402.8519,N,00159.6842,W,0.000,0.00,150912,,A*63
$GPGGA,111907.000,5402.8562,N,00159.6931,W,1,0,,198.0,M,,M,,*4B
$GPRMC,111907.000,A,5402.8562,N,00159.6931,W,0.000,0.00,150912,,A*6B
$GPGGA,111922.000,5402.8571,N,00159.6877,W,1,0,,198.0,M,,M,,*4D
$GPRMC,111922.000,A,5402.8571,N,00159.6877,W,0.000,0.00,150912,,A*6D
$GPGGA,111938.000,5402.8542,N,00159.6862,W,1,0,,198.0,M,,M,,*42
$GPRMC,111938.000,A,5402.8542,N,00159.6862,W,0.000,0.00,150912,,A*62
$GPGGA,112005.000,5402.8693,N,00159.6738,W,1,0,,199.0,M,,M,,*48
$GPRMC,112005.000,A,5402.8693,N,00159.6738,W,0.000,0.00,150912,,A*69
$GPGGA,112021.000,5402.8789,N,00159.6534,W,1,0,,199.0,M,,M,,*4A
$GPRMC,112021.000,A,5402.8789,N,00159.6534,W,0.000,0.00,150912,,A*6B
$GPGGA,112038.000,5402.8736,N,00159.6350,W,1,0,,199.0,M,,M,,*42
$GPRMC,112038.000,A,5402.8736,N,00159.6350,W,0.000,0.00,150912,,A*63
$GPGGA,112054.000,5402.8738,N,00159.6268,W,1,0,,199.0,M,,M,,*4C
$GPRMC,112054.000,A,5402.8738,N,00159.6268,W,0.000,0.00,150912,,A*6D
$GPGGA,112122.000,5402.8702,N,00159.5984,W,1,0,,200.0,M,,M,,*4C
$GPRMC,112122.000,A,5402.8702,N,00159.5984,W,0.000,0.00,150912,,A*6E
$GPGGA,112138.000,5402.8798,N,00159.5995,W,1,0,,200.0,M,,M,,*44
$GPRMC,112138.000,A,5402.8798,N,00159.5995,W,0.000,0.00,150912,,A*66
$GPGGA,112153.000,5402.8780,N,00159.5864,W,1,0,,200.0,M,,M,,*4F
$GPRMC,112153.000,A,5402.8780,N,00159.5864,W,0.000,0.00,150912,,A*6D
$GPGGA,112208.000,5402.8743,N,00159.5723,W,1,0,,200.0,M,,M,,*41
$GPRMC,112208.000,A,5402.8743,N,00159.5723,W,0.000,0.00,150912,,A*63
$GPGGA,112223.000,5402.8699,N,00159.5608,W,1,0,,200.0,M,,M,,*46
$GPRMC,112223.000,A,5402.8699,N,00159.5608,W,0.000,0.00,150912,,A*64
$GPGGA,112238.000,5402.8635,N,00159.5555,W,1,0,,200.0,M,,M,,*41
$GPRMC,112238.000,A,5402.8635,N,00159.5555,W,0.000,0.00,150912,,A*63
$GPGGA,112253.000,5402.8610,N,00159.5450,W,1,0,,200.0,M,,M,,*4F
$GPRMC,112253.000,A,5402.8610,N,00159.5450,W,0.000,0.00,150912,,A*6D
$GPGGA,112308.000,5402.8613,N,00159.5300,W,1,0,,200.0,M,,M,,*41
$GPRMC,112308.000,A,5402.8613,N,00159.5300,W,0.000,0.00,150912,,A*63
$GPGGA,112324.000,5402.8649,N,00159.5014,W,1,0,,200.0,M,,M,,*46
$GPRMC,112324.000,A,5402.8649,N,00159.5014,W,0.000,0.00,150912,,A*64
$GPGGA,112340.000,5402.8608,N,00159.4943,W,1,0,,200.0,M,,M,,*4B
$GPRMC,112340.000,A,5402.8608,N,00159.4943,W,0.000,0.00,150912,,A*69
$GPGGA,112355.000,5402.8445,N,00159.4752,W,1,0,,201.0,M,,M,,*4B
$GPRMC,112355.000,A,5402.8445,N,00159.4752,W,0.000,0.00,150912,,A*68
$GPGGA,112410.000,5402.8477,N,00159.4637,W,1,0,,201.0,M,,M,,*4E
$GPRMC,112410.000,A,5402.8477,N,00159.4637,W,0.000,0.00,150912,,A*6D
$GPGGA,112425.000,5402.8329,N,00159.4406,W,1,0,,201.0,M,,M,,*44
$GPRMC,112425.000,A,5402.8329,N,00159.4406,W,0.000,0.00,150912,,A*67
$GPGGA,112440.000,5402.8374,N,00159.4266,W,1,0,,201.0,M,,M,,*4F
$GPRMC,112440.000,A,5402.8374,N,00159.4266,W,0.000,0.00,150912,,A*6C
$GPGGA,112456.000,5402.8407,N,00159.4169,W,1,0,,201.0,M,,M,,*47
$GPRMC,112456.000,A,5402.8407,N,00159.4169,W,0.000,0.00,150912,,A*64
$GPGGA,112511.000,5402.8473,N,00159.4072,W,1,0,,201.0,M,,M,,*4D
$GPRMC,112511.000,A,5402.8473,N,00159.4072,W,0.000,0.00,150912,,A*6E
$GPGGA,112531.000,5402.8608,N,00159.3886,W,1,0,,201.0,M,,M,,*45
$GPRMC,112531.000,A,5402.8608,N,00159.3886,W,0.000,0.00,150912,,A*66
$GPGGA,112546.000,5402.8695,N,00159.3792,W,1,0,,201.0,M,,M,,*4B
$GPRMC,112546.000,A,5402.8695,N,00159.3792,W,0.000,0.00,150912,,A*68
$GPGGA,112601.000,5402.8716,N,00159.3691,W,1,0,,202.0,M,,M,,*40
$GPRMC,112601.000,A,5402.8716,N,00159.3691,W,0.000,0.00,150912,,A*60
$GPGGA,112616.000,5402.8807,N,00159.3537,W,1,0,,202.0,M,,M,,*46
$GPRMC,112616.000,A,5402.8807,N,00159.3537,W,0.000,0.00,150912,,A*66
$GPGGA,112631.000,5402.8837,N,00159.3441,W,1,0,,202.0,M,,M,,*40
$GPRMC,112631.000,A,5402.8837,N,00159.3441,W,0.000,0.00,150912,,A*60
$GPGGA,112646.000,5402.8903,N,00159.3323,W,1,0,,202.0,M,,M,,*45
$GPRMC,112646.000,A,5402.8903,N,00159.3323,W,0.000,0.00,150912,,A*65
$GPGGA,112703.000,5402.8988,N,00159.3106,W,1,0,,202.0,M,,M,,*43
$GPRMC,112703.000,A,5402.8988,N,00159.3106,W,0.000,0.00,150912,,A*63
$GPGGA,112718.000,5402.9059,N,00159.2936,W,1,0,,202.0,M,,M,,*47
$GPRMC,112718.000,A,5402.9059,N,00159.2936,W,0.000,0.00,150912,,A*67
$GPGGA,112734.000,5402.9105,N,00159.2908,W,1,0,,202.0,M,,M,,*4C
$GPRMC,112734.000,A,5402.9105,N,00159.2908,W,0.000,0.00,150912,,A*6C
$GPGGA,112749.000,5402.9208,N,00159.2846,W,1,0,,202.0,M,,M,,*43
$GPRMC,112749.000,A,5402.9208,N,00159.2846,W,0.000,0.00,150912,,A*63
$GPGGA,112805.000,5402.9247,N,00159.2792,W,1,0,,202.0,M,,M,,*49
$GPRMC,112805.000,A,5402.9247,N,00159.2792,W,0.000,0.00,150912,,A*69
$GPGGA,112821.000,5402.9366,N,00159.2656,W,1,0,,202.0,M,,M,,*44
$GPRMC,112821.000,A,5402.9366,N,00159.2656,W,0.000,0.00,150912,,A*64
$GPGGA,112836.000,5402.9432,N,00159.2460,W,1,0,,202.0,M,,M,,*43
$GPRMC,112836.000,A,5402.9432,N,00159.2460,W,0.000,0.00,150912,,A*63
$GPGGA,112851.000,5402.9420,N,00159.2407,W,1,0,,202.0,M,,M,,*40
$GPRMC,112851.000,A,5402.9420,N,00159.2407,W,0.000,0.00,150912,,A*60
$GPGGA,112906.000,5402.9400,N,00159.2334,W,1,0,,202.0,M,,M,,*46
$GPRMC,112906.000,A,5402.9400,N,00159.2334,W,0.000,0.00,150912,,A*66
$GPGGA,112922.000,5402.9404,N,00159.2220,W,1,0,,202.0,M,,M,,*40
$GPRMC,112922.000,A,5402.9404,N,00159.2220,W,0.000,0.00,150912,,A*60
$GPGGA,112937.000,5402.9464,N,00159.2070,W,1,0,,202.0,M,,M,,*45
$GPRMC,112937.000,A,5402.9464,N,00159.2070,W,0.000,0.00,150912,,A*65
$GPGGA,112952.000,5402.9455,N,00159.2013,W,1,0,,202.0,M,,M,,*41
$GPRMC,112952.000,A,5402.9455,N,00159.2013,W,0.000,0.00,150912,,A*61
$GPGGA,113008.000,5402.9542,N,00159.1876,W,1,0,,202.0,M,,M,,*49
$GPRMC,113008.000,A,5402.9542,N,00159.1876,W,0.000,0.00,150912,,A*69
$GPGGA,113023.000,5402.9519,N,00159.1844,W,1,0,,202.0,M,,M,,*4F
$GPRMC,113023.000,A,5402.9519,N,00159.1844,W,0.000,0.00,150912,,A*6F
$GPGGA,113051.000,5402.9533,N,00159.1680,W,1,0,,202.0,M,,M,,*44
$GPRMC,113051.000,A,5402.9533,N,00159.1680,W,0.000,0.00,150912,,A*64
$GPGGA,113107.000,5402.9530,N,00159.1569,W,1,0,,202.0,M,,M,,*41
$GPRMC,113107.000,A,5402.9530,N,00159.1569,W,0.000,0.00,150912,,A*61
$GPGGA,113122.000,5402.9507,N,00159.1474,W,1,0,,202.0,M,,M,,*4F
$GPRMC,113122.000,A,5402.9507,N,00159.1474,W,0.000,0.00,150912,,A*6F
$GPGGA,113137.000,5402.9620,N,00159.1258,W,1,0,,202.0,M,,M,,*45
$GPRMC,113137.000,A,5402.9620,N,00159.1258,W,0.000,0.00,150912,,A*65
$GPGGA,113152.000,5402.9640,N,00159.1159,W,1,0,,202.0,M,,M,,*42
$GPRMC,113152.000,A,5402.9640,N,00159.1159,W,0.000,0.00,150912,,A*62
$GPGGA,113207.000,5402.9681,N,00159.1056,W,1,0,,202.0,M,,M,,*42
$GPRMC,113207.000,A,5402.9681,N,00159.1056,W,0.000,0.00,150912,,A*62
$GPGGA,113222.000,5402.9711,N,00159.0885,W,1,0,,202.0,M,,M,,*4A
$GPRMC,113222.000,A,5402.9711,N,00159.0885,W,0.000,0.00,150912,,A*6A
$GPGGA,113237.000,5402.9782,N,00159.0773,W,1,0,,202.0,M,,M,,*42
$GPRMC,113237.000,A,5402.9782,N,00159.0773,W,0.000,0.00,150912,,A*62
$GPGGA,113253.000,5402.9869,N,00159.0601,W,1,0,,202.0,M,,M,,*4E
$GPRMC,113253.000,A,5402.9869,N,00159.0601,W,0.000,0.00,150912,,A*6E
$GPGGA,113308.000,5402.9915,N,00159.0510,W,1,0,,202.0,M,,M,,*48
$GPRMC,113308.000,A,5402.9915,N,00159.0510,W,0.000,0.00,150912,,A*68
$GPGGA,113323.000,5402.9965,N,00159.0390,W,1,0,,202.0,M,,M,,*48
$GPRMC,113323.000,A,5402.9965,N,00159.0390,W,0.000,0.00,150912,,A*68
$GPGGA,113339.000,5403.0006,N,00159.0262,W,1,0,,202.0,M,,M,,*4B
$GPRMC,113339.000,A,5403.0006,N,00159.0262,W,0.000,0.00,150912,,A*6B
$GPGGA,113357.000,5403.0144,N,00159.0043,W,1,0,,202.0,M,,M,,*45
$GPRMC,113357.000,A,5403.0144,N,00159.0043,W,0.000,0.00,150912,,A*65
$GPGGA,113412.000,5403.0105,N,00158.9953,W,1,0,,202.0,M,,M,,*46
$GPRMC,113412.000,A,5403.0105,N,00158.9953,W,0.000,0.00,150912,,A*66
$GPGGA,113427.000,5403.0199,N,00158.9836,W,1,0,,202.0,M,,M,,*47
$GPRMC,113427.000,A,5403.0199,N,00158.9836,W,0.000,0.00,150912,,A*67
$GPGGA,113442.000,5403.0196,N,00158.9755,W,1,0,,202.0,M,,M,,*41
$GPRMC,113442.000,A,5403.0196,N,00158.9755,W,0.000,0.00,150912,,A*61
$GPGGA,113457.000,5403.0251,N,00158.9690,W,1,0,,202.0,M,,M,,*45
$GPRMC,113457.000,A,5403.0251,N,00158.9690,W,0.000,0.00,150912,,A*65
$GPGGA,113512.000,5403.0318,N,00158.9578,W,1,0,,202.0,M,,M,,*4C
$GPRMC,113512.000,A,5403.0318,N,00158.9578,W,0.000,0.00,150912,,A*6C
$GPGGA,113528.000,5403.0391,N,00158.9477,W,1,0,,202.0,M,,M,,*4A
$GPRMC,113528.000,A,5403.0391,N,00158.9477,W,0.000,0.00,150912,,A*6A
$GPGGA,113544.000,5403.0478,N,00158.9356,W,1,0,,202.0,M,,M,,*44
$GPRMC,113544.000,A,5403.0478,N,00158.9356,W,0.000,0.00,150912,,A*64
$GPGGA,113559.000,5403.0592,N,00158.9308,W,1,0,,202.0,M,,M,,*46
$GPRMC,113559.000,A,5403.0592,N,00158.9308,W,0.000,0.00,150912,,A*66
$GPGGA,113615.000,5403.0670,N,00158.9232,W,1,0,,202.0,M,,M,,*4A
$GPRMC,113615.000,A,5403.0670,N,00158.9232,W,0.000,0.00,150912,,A*6A
$GPGGA,113630.000,5403.0757,N,00158.9174,W,1,0,,202.0,M,,M,,*48
$GPRMC,113630.000,A,5403.0757,N,00158.9174,W,0.000,0.00,150912,,A*68
$GPGGA,113646.000,5403.0856,N,00158.9032,W,1,0,,203.0,M,,M,,*45
$GPRMC,113646.000,A,5403.0856,N,00158.9032,W,0.000,0.00,150912,,A*64
$GPGGA,113701.000,5403.0993,N,00158.8965,W,1,0,,203.0,M,,M,,*45
$GPRMC,113701.000,A,5403.0993,N,00158.8965,W,0.000,0.00,150912,,A*64
$GPGGA,113717.000,5403.1110,N,00158.9006,W,1,0,,203.0,M,,M,,*4D
$GPRMC,113717.000,A,5403.1110,N,00158.9006,W,0.000,0.00,150912,,A*6C
$GPGGA,113732.000,5403.1238,N,00158.8927,W,1,0,,203.0,M,,M,,*48
$GPRMC,113732.000,A,5403.1238,N,00158.8927,W,0.000,0.00,150912,,A*69
$GPGGA,113748.000,5403.1316,N,00158.8880,W,1,0,,203.0,M,,M,,*44
$GPRMC,113748.000,A,5403.1316,N,00158.8880,W,0.000,0.00,150912,,A*65
$GPGGA,113804.000,5403.1339,N,00158.8750,W,1,0,,203.0,M,,M,,*4C
$GPRMC,113804.000,A,5403.1339,N,00158.8750,W,0.000,0.00,150912,,A*6D
$GPGGA,113832.000,5403.1446,N,00158.8388,W,1,0,,203.0,M,,M,,*47
$GPRMC,113832.000,A,5403.1446,N,00158.8388,W,0.000,0.00,150912,,A*66
$GPGGA,113847.000,5403.1469,N,00158.8280,W,1,0,,203.0,M,,M,,*41
$GPRMC,113847.000,A,5403.1469,N,00158.8280,W,0.000,0.00,150912,,A*60
$GPGGA,113903.000,5403.1517,N,00158.8084,W,1,0,,203.0,M,,M,,*4E
$GPRMC,113903.000,A,5403.1517,N,00158.8084,W,0.000,0.00,150912,,A*6F
$GPGGA,113918.000,5403.1533,N,00158.7928,W,1,0,,203.0,M,,M,,*42
$GPRMC,113918.000,A,5403.1533,N,00158.7928,W,0.000,0.00,150912,,A*63
$GPGGA,113933.000,5403.1547,N,00158.7669,W,1,0,,203.0,M,,M,,*42
$GPRMC,113933.000,A,5403.1547,N,00158.7669,W,0.000,0.00,150912,,A*63
$GPGGA,113948.000,5403.1533,N,00158.7568,W,1,0,,203.0,M,,M,,*4F
$GPRMC,113948.000,A,5403.1533,N,00158.7568,W,0.000,0.00,150912,,A*6E
$GPGGA,114005.000,5403.1664,N,00158.7424,W,1,0,,203.0,M,,M,,*40
$GPRMC,114005.000,A,5403.1664,N,00158.7424,W,0.000,0.00,150912,,A*61
$GPGGA,114021.000,5403.1714,N,00158.7264,W,1,0,,203.0,M,,M,,*42
$GPRMC,114021.000,A,5403.1714,N,00158.7264,W,0.000,0.00,150912,,A*63
$GPGGA,114036.000,5403.1723,N,00158.7023,W,1,0,,203.0,M,,M,,*41
$GPRMC,114036.000,A,5403.1723,N,00158.7023,W,0.000,0.00,150912,,A*60
$GPGGA,114052.000,5403.1737,N,00158.6964,W,1,0,,203.0,M,,M,,*4D
$GPRMC,114052.000,A,5403.1737,N,00158.6964,W,0.000,0.00,150912,,A*6C
$GPGGA,114107.000,5403.1753,N,00158.6985,W,1,0,,204.0,M,,M,,*46
$GPRMC,114107.000,A,5403.1753,N,00158.6985,W,0.000,0.00,150912,,A*60
$GPGGA,114122.000,5403.1739,N,00158.6932,W,1,0,,203.0,M,,M,,*46
$GPRMC,114122.000,A,5403.1739,N,00158.6932,W,0.000,0.00,150912,,A*67
$GPGGA,114137.000,5403.1700,N,00158.6782,W,1,0,,203.0,M,,M,,*4D
$GPRMC,114137.000,A,5403.1700,N,00158.6782,W,0.000,0.00,150912,,A*6C
$GPGGA,114152.000,5403.1693,N,00158.6619,W,1,0,,204.0,M,,M,,*41
$GPRMC,114152.000,A,5403.1693,N,00158.6619,W,0.000,0.00,150912,,A*67
$GPGGA,114208.000,5403.1641,N,00158.6456,W,1,0,,204.0,M,,M,,*4B
$GPRMC,114208.000,A,5403.1641,N,00158.6456,W,0.000,0.00,150912,,A*6D
$GPGGA,114223.000,5403.1645,N,00158.6351,W,1,0,,204.0,M,,M,,*46
$GPRMC,114223.000,A,5403.1645,N,00158.6351,W,0.000,0.00,150912,,A*60
$GPGGA,114239.000,5403.1570,N,00158.6270,W,1,0,,204.0,M,,M,,*4A
$GPRMC,114239.000,A,5403.1570,N,00158.6270,W,0.000,0.00,150912,,A*6C
$GPGGA,114254.000,5403.1510,N,00158.6006,W,1,0,,204.0,M,,M,,*44
$GPRMC,114254.000,A,5403.1510,N,00158.6006,W,0.000,0.00,150912,,A*62
$GPGGA,114309.000,5403.1474,N,00158.5945,W,1,0,,204.0,M,,M,,*43
$GPRMC,114309.000,A,5403.1474,N,00158.5945,W,0.000,0.00,150912,,A*65
$GPGGA,114324.000,5403.1448,N,00158.5881,W,1,0,,203.0,M,,M,,*4D
$GPRMC,114324.000,A,5403.1448,N,00158.5881,W,0.000,0.00,150912,,A*6C
$GPGGA,114339.000,5403.1469,N,00158.5730,W,1,0,,203.0,M,,M,,*47
$GPRMC,114339.000,A,5403.1469,N,00158.5730,W,0.000,0.00,150912,,A*66
$GPGGA,114355.000,5403.1462,N,00158.5599,W,1,0,,204.0,M,,M,,*40
$GPRMC,114355.000,A,5403.1462,N,00158.5599,W,0.000,0.00,150912,,A*66
$GPGGA,114410.000,5403.1451,N,00158.5445,W,1,0,,204.0,M,,M,,*46
$GPRMC,114410.000,A,5403.1451,N,00158.5445,W,0.000,0.00,150912,,A*60
$GPGGA,114426.000,5403.1522,N,00158.5327,W,1,0,,204.0,M,,M,,*45
$GPRMC,114426.000,A,5403.1522,N,00158.5327,W,0.000,0.00,150912,,A*63
$GPGGA,114441.000,5403.1551,N,00158.5232,W,1,0,,204.0,M,,M,,*45
$GPRMC,114441.000,A,5403.1551,N,00158.5232,W,0.000,0.00,150912,,A*63
$GPGGA,114456.000,5403.1563,N,00158.5087,W,1,0,,204.0,M,,M,,*4E
$GPRMC,114456.000,A,5403.1563,N,00158.5087,W,0.000,0.00,150912,,A*68
$GPGGA,114511.000,5403.1593,N,00158.5038,W,1,0,,204.0,M,,M,,*47
$GPRMC,114511.000,A,5403.1593,N,00158.5038,W,0.000,0.00,150912,,A*61
$GPGGA,114527.000,5403.1583,N,00158.5032,W,1,0,,204.0,M,,M,,*49
$GPRMC,114527.000,A,5403.1583,N,00158.5032,W,0.000,0.00,150912,,A*6F
$GPGGA,114550.000,5403.1538,N,00158.5035,W,1,0,,204.0,M,,M,,*4E
$GPRMC,114550.000,A,5403.1538,N,00158.5035,W,0.000,0.00,150912,,A*68
$GPGGA,114605.000,5403.1448,N,00158.4897,W,1,0,,204.0,M,,M,,*4A
$GPRMC,114605.000,A,5403.1448,N,00158.4897,W,0.000,0.00,150912,,A*6C
$GPGGA,114620.000,5403.1423,N,00158.4843,W,1,0,,204.0,M,,M,,*49
$GPRMC,114620.000,A,5403.1423,N,00158.4843,W,0.000,0.00,150912,,A*6F
$GPGGA,114635.000,5403.1355,N,00158.4815,W,1,0,,204.0,M,,M,,*48
$GPRMC,114635.000,A,5403.1355,N,00158.4815,W,0.000,0.00,150912,,A*6E
$GPGGA,114651.000,5403.1327,N,00158.4781,W,1,0,,204.0,M,,M,,*4D
