@Sonygps/ver3.0/wgs-84/
$GPGGA,093404.000,5358.2404,N,00153.7057,W,1,0,,-1861.0,M,,M,,*5C
$GPRMC,093404.000,A,5358.2404,N,00153.7057,W,0.000,0.00,170912,,A*6D
$GPGGA,093419.000,5358.2326,N,00153.6976,W,1,0,,-1877.0,M,,M,,*5B
$GPRMC,093419.000,A,5358.2326,N,00153.6976,W,0.000,0.00,170912,,A*6D
$GPGGA,093434.000,5358.2193,N,00153.6918,W,1,0,,-1904.0,M,,M,,*55
$GPRMC,093434.000,A,5358.2193,N,00153.6918,W,0.000,0.00,170912,,A*66
$GPGGA,093449.000,5358.2227,N,00153.6830,W,1,0,,-1915.0,M,,M,,*58
$GPRMC,093449.000,A,5358.2227,N,00153.6830,W,0.000,0.00,170912,,A*6B
$GPGGA,093504.000,5358.2294,N,00153.6742,W,1,0,,-1916.0,M,,M,,*51
$GPRMC,093504.000,A,5358.2294,N,00153.6742,W,0.000,0.00,170912,,A*61
$GPGGA,093519.000,5358.2422,N,00153.6679,W,1,0,,-1919.0,M,,M,,*50
$GPRMC,093519.000,A,5358.2422,N,00153.6679,W,0.000,0.00,170912,,A*6F
$GPGGA,093534.000,5358.2374,N,00153.6580,W,1,0,,-1928.0,M,,M,,*5C
$GPRMC,093534.000,A,5358.2374,N,00153.6580,W,0.000,0.00,170912,,A*61
$GPGGA,093549.000,5358.2301,N,00153.6446,W,1,0,,-1944.0,M,,M,,*55
$GPRMC,093549.000,A,5358.2301,N,00153.6446,W,0.000,0.00,170912,,A*62
$GPGGA,093828.000,5359.2179,N,00153.2443,W,1,0,,-1134.0,M,,M,,*5D
$GPRMC,093828.000,A,5359.2179,N,00153.2443,W,0.000,0.00,170912,,A*65
$GPGGA,093843.000,5359.2268,N,00153.2713,W,1,0,,-1198.0,M,,M,,*53
$GPRMC,093843.000,A,5359.2268,N,00153.2713,W,0.000,0.00,170912,,A*6D
$GPGGA,093858.000,5359.2376,N,00153.2689,W,1,0,,-1199.0,M,,M,,*54
$GPRMC,093858.000,A,5359.2376,N,00153.2689,W,0.000,0.00,170912,,A*6B
$GPGGA,093913.000,5359.2486,N,00153.2832,W,1,0,,-1198.0,M,,M,,*5D
$GPRMC,093913.000,A,5359.2486,N,00153.2832,W,0.000,0.00,170912,,A*63
$GPGGA,093928.000,5359.2575,N,00153.3018,W,1,0,,-1198.0,M,,M,,*59
$GPRMC,093928.000,A,5359.2575,N,00153.3018,W,0.000,0.00,170912,,A*67
$GPGGA,094106.000,5359.1666,N,00153.5648,W,1,0,,-545.0,M,,M,,*68
$GPRMC,094106.000,A,5359.1666,N,00153.5648,W,0.000,0.00,170912,,A*63
$GPGGA,094411.000,5359.2641,N,00153.5372,W,1,0,,-529.0,M,,M,,*6B
$GPRMC,094411.000,A,5359.2641,N,00153.5372,W,0.000,0.00,170912,,A*6A
$GPGGA,094431.000,5359.4134,N,00153.2273,W,1,0,,-1086.0,M,,M,,*5C
$GPRMC,094431.000,A,5359.4134,N,00153.2273,W,0.000,0.00,170912,,A*6C
$GPGGA,094458.000,5359.3733,N,00153.1755,W,1,0,,-1229.0,M,,M,,*50
$GPRMC,094458.000,A,5359.3733,N,00153.1755,W,0.000,0.00,170912,,A*67
$GPGGA,094828.000,5359.6379,N,00153.0128,W,1,0,,-1745.0,M,,M,,*56
$GPRMC,094828.000,A,5359.6379,N,00153.0128,W,0.000,0.00,170912,,A*6E
$GPGGA,094933.000,5359.0689,N,00152.3276,W,1,0,,-1084.0,M,,M,,*51
$GPRMC,094933.000,A,5359.0689,N,00152.3276,W,0.000,0.00,170912,,A*63
$GPGGA,094957.000,5359.5260,N,00153.1359,W,1,0,,-1212.0,M,,M,,*57
$GPRMC,094957.000,A,5359.5260,N,00153.1359,W,0.000,0.00,170912,,A*68
$GPGGA,095055.000,5359.5823,N,00153.1230,W,1,0,,-1458.0,M,,M,,*56
$GPRMC,095055.000,A,5359.5823,N,00153.1230,W,0.000,0.00,170912,,A*61
$GPGGA,095112.000,5359.6027,N,00153.1119,W,1,0,,-1467.0,M,,M,,*5F
$GPRMC,095112.000,A,5359.6027,N,00153.1119,W,0.000,0.00,170912,,A*64
$GPGGA,095127.000,5359.6100,N,00153.1057,W,1,0,,-1493.0,M,,M,,*5D
$GPRMC,095127.000,A,5359.6100,N,00153.1057,W,0.000,0.00,170912,,A*6D
$GPGGA,095142.000,5359.6233,N,00153.1153,W,1,0,,-1504.0,M,,M,,*57
$GPRMC,095142.000,A,5359.6233,N,00153.1153,W,0.000,0.00,170912,,A*68
$GPGGA,095157.000,5359.6326,N,00153.1359,W,1,0,,-1526.0,M,,M,,*5E
$GPRMC,095157.000,A,5359.6326,N,00153.1359,W,0.000,0.00,170912,,A*61
$GPGGA,095212.000,5359.6411,N,00153.1512,W,1,0,,-1537.0,M,,M,,*56
$GPRMC,095212.000,A,5359.6411,N,00153.1512,W,0.000,0.00,170912,,A*69
$GPGGA,095227.000,5359.6764,N,00153.1389,W,1,0,,-1621.0,M,,M,,*51
$GPRMC,095227.000,A,5359.6764,N,00153.1389,W,0.000,0.00,170912,,A*6A
$GPGGA,095242.000,5359.6819,N,00153.1014,W,1,0,,-1637.0,M,,M,,*57
$GPRMC,095242.000,A,5359.6819,N,00153.1014,W,0.000,0.00,170912,,A*6B
$GPGGA,095400.000,5359.7771,N,00153.3135,W,1,0,,-1571.0,M,,M,,*56
$GPRMC,095400.000,A,5359.7771,N,00153.3135,W,0.000,0.00,170912,,A*6B
$GPGGA,095415.000,5359.7897,N,00153.3193,W,1,0,,-1575.0,M,,M,,*5D
$GPRMC,095415.000,A,5359.7897,N,00153.3193,W,0.000,0.00,170912,,A*64
$GPGGA,095430.000,5359.8016,N,00153.3207,W,1,0,,-1579.0,M,,M,,*56
$GPRMC,095430.000,A,5359.8016,N,00153.3207,W,0.000,0.00,170912,,A*63
$GPGGA,095445.000,5359.8130,N,00153.3198,W,1,0,,-1583.0,M,,M,,*51
$GPRMC,095445.000,A,5359.8130,N,00153.3198,W,0.000,0.00,170912,,A*61
$GPGGA,095500.000,5359.8256,N,00153.3254,W,1,0,,-1586.0,M,,M,,*54
$GPRMC,095500.000,A,5359.8256,N,00153.3254,W,0.000,0.00,170912,,A*61
$GPGGA,095515.000,5359.8336,N,00153.3265,W,1,0,,-1591.0,M,,M,,*53
$GPRMC,095515.000,A,5359.8336,N,00153.3265,W,0.000,0.00,170912,,A*60
$GPGGA,095530.000,5359.8496,N,00153.3274,W,1,0,,-1603.0,M,,M,,*51
$GPRMC,095530.000,A,5359.8496,N,00153.3274,W,0.000,0.00,170912,,A*6A
$GPGGA,095545.000,5359.8615,N,00153.3292,W,1,0,,-1611.0,M,,M,,*51
$GPRMC,095545.000,A,5359.8615,N,00153.3292,W,0.000,0.00,170912,,A*69
$GPGGA,095600.000,5359.8716,N,00153.3381,W,1,0,,-1614.0,M,,M,,*57
$GPRMC,095600.000,A,5359.8716,N,00153.3381,W,0.000,0.00,170912,,A*6A
$GPGGA,095615.000,5359.8835,N,00153.3467,W,1,0,,-1615.0,M,,M,,*53
$GPRMC,095615.000,A,5359.8835,N,00153.3467,W,0.000,0.00,170912,,A*6F
$GPGGA,095630.000,5359.8954,N,00153.3543,W,1,0,,-1611.0,M,,M,,*51
$GPRMC,095630.000,A,5359.8954,N,00153.3543,W,0.000,0.00,170912,,A*69
$GPGGA,095645.000,5359.9174,N,00153.3588,W,1,0,,-1608.0,M,,M,,*57
$GPRMC,095645.000,A,5359.9174,N,00153.3588,W,0.000,0.00,170912,,A*67
$GPGGA,095700.000,5359.9224,N,00153.3614,W,1,0,,-1605.0,M,,M,,*5A
$GPRMC,095700.000,A,5359.9224,N,00153.3614,W,0.000,0.00,170912,,A*67
$GPGGA,095715.000,5359.9336,N,00153.3649,W,1,0,,-1607.0,M,,M,,*56
$GPRMC,095715.000,A,5359.9336,N,00153.3649,W,0.000,0.00,170912,,A*69
$GPGGA,095730.000,5359.9446,N,00153.3768,W,1,0,,-1612.0,M,,M,,*57
$GPRMC,095730.000,A,5359.9446,N,00153.3768,W,0.000,0.00,170912,,A*6C
$GPGGA,095745.000,5359.9563,N,00153.3863,W,1,0,,-1615.0,M,,M,,*50
$GPRMC,095745.000,A,5359.9563,N,00153.3863,W,0.000,0.00,170912,,A*6C
$GPGGA,095823.000,5400.0080,N,00153.4001,W,1,0,,-1689.0,M,,M,,*5B
$GPRMC,095823.000,A,5400.0080,N,00153.4001,W,0.000,0.00,170912,,A*62
$GPGGA,095920.000,5400.0547,N,00153.4030,W,1,0,,-1697.0,M,,M,,*5A
$GPRMC,095920.000,A,5400.0547,N,00153.4030,W,0.000,0.00,170912,,A*6C
$GPGGA,095935.000,5400.0611,N,00153.4179,W,1,0,,-1704.0,M,,M,,*59
$GPRMC,095935.000,A,5400.0611,N,00153.4179,W,0.000,0.00,170912,,A*64
$GPGGA,095950.000,5400.0591,N,00153.4323,W,1,0,,-1705.0,M,,M,,*5D
$GPRMC,095950.000,A,5400.0591,N,00153.4323,W,0.000,0.00,170912,,A*61
$GPGGA,100005.000,5400.0574,N,00153.4458,W,1,0,,-1706.0,M,,M,,*5A
$GPRMC,100005.000,A,5400.0574,N,00153.4458,W,0.000,0.00,170912,,A*65
$GPGGA,100020.000,5400.0579,N,00153.4736,W,1,0,,-1709.0,M,,M,,*54
$GPRMC,100020.000,A,5400.0579,N,00153.4736,W,0.000,0.00,170912,,A*64
$GPGGA,100035.000,5400.0613,N,00153.4889,W,1,0,,-1710.0,M,,M,,*5C
$GPRMC,100035.000,A,5400.0613,N,00153.4889,W,0.000,0.00,170912,,A*64
$GPGGA,100050.000,5400.0748,N,00153.5052,W,1,0,,-1710.0,M,,M,,*5F
$GPRMC,100050.000,A,5400.0748,N,00153.5052,W,0.000,0.00,170912,,A*67
$GPGGA,100105.000,5400.0856,N,00153.5198,W,1,0,,-1709.0,M,,M,,*51
$GPRMC,100105.000,A,5400.0856,N,00153.5198,W,0.000,0.00,170912,,A*61
$GPGGA,100240.000,5400.1753,N,00153.6227,W,1,0,,-1729.0,M,,M,,*5E
$GPRMC,100240.000,A,5400.1753,N,00153.6227,W,0.000,0.00,170912,,A*6C
$GPGGA,100255.000,5400.1913,N,00153.6449,W,1,0,,-1736.0,M,,M,,*50
$GPRMC,100255.000,A,5400.1913,N,00153.6449,W,0.000,0.00,170912,,A*6C
$GPGGA,100310.000,5400.2026,N,00153.6594,W,1,0,,-1738.0,M,,M,,*53
$GPRMC,100310.000,A,5400.2026,N,00153.6594,W,0.000,0.00,170912,,A*61
$GPGGA,100325.000,5400.2151,N,00153.6741,W,1,0,,-1739.0,M,,M,,*5F
$GPRMC,100325.000,A,5400.2151,N,00153.6741,W,0.000,0.00,170912,,A*6C
$GPGGA,100340.000,5400.2300,N,00153.7012,W,1,0,,-1742.0,M,,M,,*56
$GPRMC,100340.000,A,5400.2300,N,00153.7012,W,0.000,0.00,170912,,A*69
$GPGGA,100528.000,5359.6777,N,00152.7912,W,1,0,,-1724.0,M,,M,,*5D
$GPRMC,100528.000,A,5359.6777,N,00152.7912,W,0.000,0.00,170912,,A*62
$GPGGA,100617.000,5400.3387,N,00153.8916,W,1,0,,-1764.0,M,,M,,*59
$GPRMC,100617.000,A,5400.3387,N,00153.8916,W,0.000,0.00,170912,,A*62
$GPGGA,104355.000,5359.6148,N,00153.0021,W,1,0,,102.0,M,,M,,*4E
$GPRMC,104355.000,A,5359.6148,N,00153.0021,W,0.000,0.00,170912,,A*6F
$GPGGA,104410.000,5359.6267,N,00152.9918,W,1,0,,118.0,M,,M,,*46
$GPRMC,104410.000,A,5359.6267,N,00152.9918,W,0.000,0.00,170912,,A*6C
$GPGGA,104429.000,5359.6331,N,00152.9852,W,1,0,,118.0,M,,M,,*41
$GPRMC,104429.000,A,5359.6331,N,00152.9852,W,0.000,0.00,170912,,A*6B
$GPGGA,104444.000,5359.6340,N,00152.9798,W,1,0,,118.0,M,,M,,*45
$GPRMC,104444.000,A,5359.6340,N,00152.9798,W,0.000,0.00,170912,,A*6F
$GPGGA,104504.000,5359.6288,N,00152.9553,W,1,0,,117.0,M,,M,,*4F
$GPRMC,104504.000,A,5359.6288,N,00152.9553,W,0.000,0.00,170912,,A*6A
$GPGGA,104519.000,5359.6152,N,00152.9474,W,1,0,,117.0,M,,M,,*43
$GPRMC,104519.000,A,5359.6152,N,00152.9474,W,0.000,0.00,170912,,A*66
$GPGGA,104534.000,5359.6098,N,00152.9410,W,1,0,,117.0,M,,M,,*49
$GPRMC,104534.000,A,5359.6098,N,00152.9410,W,0.000,0.00,170912,,A*6C
$GPGGA,104549.000,5359.5933,N,00152.9280,W,1,0,,117.0,M,,M,,*47
$GPRMC,104549.000,A,5359.5933,N,00152.9280,W,0.000,0.00,170912,,A*62
$GPGGA,104607.000,5359.5892,N,00152.9101,W,1,0,,117.0,M,,M,,*4E
$GPRMC,104607.000,A,5359.5892,N,00152.9101,W,0.000,0.00,170912,,A*6B
$GPGGA,104622.000,5359.5873,N,00152.8970,W,1,0,,117.0,M,,M,,*49
$GPRMC,104622.000,A,5359.5873,N,00152.8970,W,0.000,0.00,170912,,A*6C
$GPGGA,104646.000,5359.5686,N,00152.8817,W,1,0,,117.0,M,,M,,*4F
$GPRMC,104646.000,A,5359.5686,N,00152.8817,W,0.000,0.00,170912,,A*6A
$GPGGA,104701.000,5359.5674,N,00152.8782,W,1,0,,117.0,M,,M,,*43
$GPRMC,104701.000,A,5359.5674,N,00152.8782,W,0.000,0.00,170912,,A*66
$GPGGA,104716.000,5359.5642,N,00152.8664,W,1,0,,116.0,M,,M,,*48
$GPRMC,104716.000,A,5359.5642,N,00152.8664,W,0.000,0.00,170912,,A*6C
$GPGGA,104731.000,5359.5596,N,00152.8647,W,1,0,,116.0,M,,M,,*46
$GPRMC,104731.000,A,5359.5596,N,00152.8647,W,0.000,0.00,170912,,A*62
$GPGGA,104746.000,5359.5480,N,00152.8482,W,1,0,,116.0,M,,M,,*4B
$GPRMC,104746.000,A,5359.5480,N,00152.8482,W,0.000,0.00,170912,,A*6F
$GPGGA,104801.000,5359.5397,N,00152.8465,W,1,0,,116.0,M,,M,,*4F
$GPRMC,104801.000,A,5359.5397,N,00152.8465,W,0.000,0.00,170912,,A*6B
$GPGGA,104816.000,5359.5303,N,00152.8320,W,1,0,,116.0,M,,M,,*42
$GPRMC,104816.000,A,5359.5303,N,00152.8320,W,0.000,0.00,170912,,A*66
$GPGGA,104832.000,5359.5216,N,00152.8177,W,1,0,,116.0,M,,M,,*41
$GPRMC,104832.000,A,5359.5216,N,00152.8177,W,0.000,0.00,170912,,A*65
$GPGGA,104849.000,5359.5090,N,00152.8127,W,1,0,,116.0,M,,M,,*44
$GPRMC,104849.000,A,5359.5090,N,00152.8127,W,0.000,0.00,170912,,A*60
$GPGGA,104905.000,5359.5001,N,00152.7956,W,1,0,,116.0,M,,M,,*44
$GPRMC,104905.000,A,5359.5001,N,00152.7956,W,0.000,0.00,170912,,A*60
$GPGGA,104924.000,5359.4974,N,00152.7818,W,1,0,,116.0,M,,M,,*46
$GPRMC,104924.000,A,5359.4974,N,00152.7818,W,0.000,0.00,170912,,A*62
$GPGGA,104939.000,5359.4880,N,00152.7876,W,1,0,,116.0,M,,M,,*48
$GPRMC,104939.000,A,5359.4880,N,00152.7876,W,0.000,0.00,170912,,A*6C
$GPGGA,104955.000,5359.4727,N,00152.7806,W,1,0,,116.0,M,,M,,*47
$GPRMC,104955.000,A,5359.4727,N,00152.7806,W,0.000,0.00,170912,,A*63
$GPGGA,105010.000,5359.4699,N,00152.7626,W,1,0,,116.0,M,,M,,*46
$GPRMC,105010.000,A,5359.4699,N,00152.7626,W,0.000,0.00,170912,,A*62
$GPGGA,105025.000,5359.4642,N,00152.7615,W,1,0,,115.0,M,,M,,*45
$GPRMC,105025.000,A,5359.4642,N,00152.7615,W,0.000,0.00,170912,,A*62
$GPGGA,105040.000,5359.4644,N,00152.7508,W,1,0,,115.0,M,,M,,*4F
$GPRMC,105040.000,A,5359.4644,N,00152.7508,W,0.000,0.00,170912,,A*68
$GPGGA,105105.000,5359.4711,N,00152.7350,W,1,0,,116.0,M,,M,,*46
$GPRMC,105105.000,A,5359.4711,N,00152.7350,W,0.000,0.00,170912,,A*62
$GPGGA,105122.000,5359.4594,N,00152.7059,W,1,0,,115.0,M,,M,,*45
$GPRMC,105122.000,A,5359.4594,N,00152.7059,W,0.000,0.00,170912,,A*62
$GPGGA,105151.000,5359.4566,N,00152.7151,W,1,0,,115.0,M,,M,,*45
$GPRMC,105151.000,A,5359.4566,N,00152.7151,W,0.000,0.00,170912,,A*62
$GPGGA,105220.000,5359.4576,N,00152.7199,W,1,0,,115.0,M,,M,,*45
$GPRMC,105220.000,A,5359.4576,N,00152.7199,W,0.000,0.00,170912,,A*62
$GPGGA,105235.000,5359.4326,N,00152.7451,W,1,0,,115.0,M,,M,,*43
$GPRMC,105235.000,A,5359.4326,N,00152.7451,W,0.000,0.00,170912,,A*64
$GPGGA,105259.000,5359.4241,N,00152.7512,W,1,0,,115.0,M,,M,,*4F
$GPRMC,105259.000,A,5359.4241,N,00152.7512,W,0.000,0.00,170912,,A*68
$GPGGA,105314.000,5359.4170,N,00152.7489,W,1,0,,115.0,M,,M,,*45
$GPRMC,105314.000,A,5359.4170,N,00152.7489,W,0.000,0.00,170912,,A*62
$GPGGA,105343.000,5359.3900,N,00152.7555,W,1,0,,115.0,M,,M,,*4F
$GPRMC,105343.000,A,5359.3900,N,00152.7555,W,0.000,0.00,170912,,A*68
$GPGGA,105400.000,5359.3781,N,00152.7511,W,1,0,,115.0,M,,M,,*48
$GPRMC,105400.000,A,5359.3781,N,00152.7511,W,0.000,0.00,170912,,A*6F
$GPGGA,105427.000,5359.3733,N,00152.7506,W,1,0,,115.0,M,,M,,*42
$GPRMC,105427.000,A,5359.3733,N,00152.7506,W,0.000,0.00,170912,,A*65
$GPGGA,105444.000,5359.3555,N,00152.7554,W,1,0,,115.0,M,,M,,*42
$GPRMC,105444.000,A,5359.3555,N,00152.7554,W,0.000,0.00,170912,,A*65
$GPGGA,105459.000,5359.3493,N,00152.7622,W,1,0,,115.0,M,,M,,*47
$GPRMC,105459.000,A,5359.3493,N,00152.7622,W,0.000,0.00,170912,,A*60
$GPGGA,105515.000,5359.3351,N,00152.7670,W,1,0,,115.0,M,,M,,*40
$GPRMC,105515.000,A,5359.3351,N,00152.7670,W,0.000,0.00,170912,,A*67
$GPGGA,105530.000,5359.3282,N,00152.7677,W,1,0,,115.0,M,,M,,*4F
$GPRMC,105530.000,A,5359.3282,N,00152.7677,W,0.000,0.00,170912,,A*68
$GPGGA,105545.000,5359.3285,N,00152.7700,W,1,0,,115.0,M,,M,,*4B
$GPRMC,105545.000,A,5359.3285,N,00152.7700,W,0.000,0.00,170912,,A*6C
$GPGGA,105611.000,5359.3175,N,00152.7731,W,1,0,,115.0,M,,M,,*47
$GPRMC,105611.000,A,5359.3175,N,00152.7731,W,0.000,0.00,170912,,A*60
$GPGGA,105626.000,5359.3175,N,00152.7811,W,1,0,,115.0,M,,M,,*4E
$GPRMC,105626.000,A,5359.3175,N,00152.7811,W,0.000,0.00,170912,,A*69
$GPGGA,105641.000,5359.3108,N,00152.7799,W,1,0,,115.0,M,,M,,*4A
$GPRMC,105641.000,A,5359.3108,N,00152.7799,W,0.000,0.00,170912,,A*6D
$GPGGA,105656.000,5359.3051,N,00152.7816,W,1,0,,115.0,M,,M,,*49
$GPRMC,105656.000,A,5359.3051,N,00152.7816,W,0.000,0.00,170912,,A*6E
$GPGGA,105711.000,5359.2971,N,00152.7830,W,1,0,,115.0,M,,M,,*45
$GPRMC,105711.000,A,5359.2971,N,00152.7830,W,0.000,0.00,170912,,A*62
$GPGGA,105739.000,5359.2966,N,00152.7876,W,1,0,,115.0,M,,M,,*4B
$GPRMC,105739.000,A,5359.2966,N,00152.7876,W,0.000,0.00,170912,,A*6C
$GPGGA,105756.000,5359.2866,N,00152.8011,W,1,0,,115.0,M,,M,,*45
$GPRMC,105756.000,A,5359.2866,N,00152.8011,W,0.000,0.00,170912,,A*62
$GPGGA,105811.000,5359.2834,N,00152.8076,W,1,0,,115.0,M,,M,,*4F
$GPRMC,105811.000,A,5359.2834,N,00152.8076,W,0.000,0.00,170912,,A*68
$GPGGA,105827.000,5359.2673,N,00152.8188,W,1,0,,115.0,M,,M,,*47
$GPRMC,105827.000,A,5359.2673,N,00152.8188,W,0.000,0.00,170912,,A*60
$GPGGA,105842.000,5359.2577,N,00152.8301,W,1,0,,115.0,M,,M,,*40
$GPRMC,105842.000,A,5359.2577,N,00152.8301,W,0.000,0.00,170912,,A*67
$GPGGA,105857.000,5359.2548,N,00152.8422,W,1,0,,115.0,M,,M,,*4E
$GPRMC,105857.000,A,5359.2548,N,00152.8422,W,0.000,0.00,170912,,A*69
$GPGGA,105912.000,5359.2502,N,00152.8443,W,1,0,,115.0,M,,M,,*47
$GPRMC,105912.000,A,5359.2502,N,00152.8443,W,0.000,0.00,170912,,A*60
$GPGGA,105927.000,5359.2431,N,00152.8501,W,1,0,,115.0,M,,M,,*47
$GPRMC,105927.000,A,5359.2431,N,00152.8501,W,0.000,0.00,170912,,A*60
$GPGGA,105942.000,5359.2330,N,00152.8472,W,1,0,,115.0,M,,M,,*47
$GPRMC,105942.000,A,5359.2330,N,00152.8472,W,0.000,0.00,170912,,A*60
$GPGGA,110002.000,5359.2316,N,00152.8454,W,1,0,,115.0,M,,M,,*4E
$GPRMC,110002.000,A,5359.2316,N,00152.8454,W,0.000,0.00,170912,,A*69
$GPGGA,110018.000,5359.2273,N,00152.8457,W,1,0,,115.0,M,,M,,*44
$GPRMC,110018.000,A,5359.2273,N,00152.8457,W,0.000,0.00,170912,,A*63
$GPGGA,110033.000,5359.2216,N,00152.8465,W,1,0,,115.0,M,,M,,*4F
$GPRMC,110033.000,A,5359.2216,N,00152.8465,W,0.000,0.00,170912,,A*68
$GPGGA,110051.000,5359.2076,N,00152.8423,W,1,0,,115.0,M,,M,,*4D
$GPRMC,110051.000,A,5359.2076,N,00152.8423,W,0.000,0.00,170912,,A*6A
$GPGGA,110119.000,5359.2099,N,00152.8410,W,1,0,,115.0,M,,M,,*41
$GPRMC,110119.000,A,5359.2099,N,00152.8410,W,0.000,0.00,170912,,A*66
$GPGGA,110134.000,5359.1985,N,00152.8485,W,1,0,,115.0,M,,M,,*45
$GPRMC,110134.000,A,5359.1985,N,00152.8485,W,0.000,0.00,170912,,A*62
$GPGGA,110200.000,5359.1836,N,00152.8592,W,1,0,,115.0,M,,M,,*4F
$GPRMC,110200.000,A,5359.1836,N,00152.8592,W,0.000,0.00,170912,,A*68
$GPGGA,110215.000,5359.1788,N,00152.8694,W,1,0,,115.0,M,,M,,*44
$GPRMC,110215.000,A,5359.1788,N,00152.8694,W,0.000,0.00,170912,,A*63
$GPGGA,110230.000,5359.1694,N,00152.8782,W,1,0,,115.0,M,,M,,*49
$GPRMC,110230.000,A,5359.1694,N,00152.8782,W,0.000,0.00,170912,,A*6E
$GPGGA,110246.000,5359.1639,N,00152.8896,W,1,0,,115.0,M,,M,,*45
$GPRMC,110246.000,A,5359.1639,N,00152.8896,W,0.000,0.00,170912,,A*62
$GPGGA,110301.000,5359.1563,N,00152.9025,W,1,0,,115.0,M,,M,,*4A
$GPRMC,110301.000,A,5359.1563,N,00152.9025,W,0.000,0.00,170912,,A*6D
$GPGGA,110316.000,5359.1495,N,00152.9173,W,1,0,,115.0,M,,M,,*46
$GPRMC,110316.000,A,5359.1495,N,00152.9173,W,0.000,0.00,170912,,A*61
$GPGGA,110331.000,5359.1447,N,00152.9323,W,1,0,,115.0,M,,M,,*4B
$GPRMC,110331.000,A,5359.1447,N,00152.9323,W,0.000,0.00,170912,,A*6C
$GPGGA,110346.000,5359.1401,N,00152.9586,W,1,0,,115.0,M,,M,,*40
$GPRMC,110346.000,A,5359.1401,N,00152.9586,W,0.000,0.00,170912,,A*67
$GPGGA,110401.000,5359.1357,N,00152.9714,W,1,0,,115.0,M,,M,,*49
$GPRMC,110401.000,A,5359.1357,N,00152.9714,W,0.000,0.00,170912,,A*6E
$GPGGA,110416.000,5359.1319,N,00152.9862,W,1,0,,115.0,M,,M,,*4B
$GPRMC,110416.000,A,5359.1319,N,00152.9862,W,0.000,0.00,170912,,A*6C
$GPGGA,110431.000,5359.1259,N,00152.9878,W,1,0,,115.0,M,,M,,*40
$GPRMC,110431.000,A,5359.1259,N,00152.9878,W,0.000,0.00,170912,,A*67
$GPGGA,110446.000,5359.1236,N,00152.9907,W,1,0,,115.0,M,,M,,*40
$GPRMC,110446.000,A,5359.1236,N,00152.9907,W,0.000,0.00,170912,,A*67
$GPGGA,110502.000,5359.1190,N,00152.9986,W,1,0,,115.0,M,,M,,*47
$GPRMC,110502.000,A,5359.1190,N,00152.9986,W,0.000,0.00,170912,,A*60
$GPGGA,110517.000,5359.1083,N,00153.0120,W,1,0,,115.0,M,,M,,*4C
$GPRMC,110517.000,A,5359.1083,N,00153.0120,W,0.000,0.00,170912,,A*6B
$GPGGA,110532.000,5359.1062,N,00153.0163,W,1,0,,115.0,M,,M,,*43
$GPRMC,110532.000,A,5359.1062,N,00153.0163,W,0.000,0.00,170912,,A*64
$GPGGA,110548.000,5359.0964,N,00153.0311,W,1,0,,115.0,M,,M,,*47
$GPRMC,110548.000,A,5359.0964,N,00153.0311,W,0.000,0.00,170912,,A*60
$GPGGA,110603.000,5359.0893,N,00153.0467,W,1,0,,115.0,M,,M,,*44
$GPRMC,110603.000,A,5359.0893,N,00153.0467,W,0.000,0.00,170912,,A*63
$GPGGA,110618.000,5359.0806,N,00153.0570,W,1,0,,115.0,M,,M,,*45
$GPRMC,110618.000,A,5359.0806,N,00153.0570,W,0.000,0.00,170912,,A*62
$GPGGA,110633.000,5359.0746,N,00153.0679,W,1,0,,115.0,M,,M,,*4D
$GPRMC,110633.000,A,5359.0746,N,00153.0679,W,0.000,0.00,170912,,A*6A
$GPGGA,110648.000,5359.0678,N,00153.0755,W,1,0,,115.0,M,,M,,*42
$GPRMC,110648.000,A,5359.0678,N,00153.0755,W,0.000,0.00,170912,,A*65
$GPGGA,110703.000,5359.0620,N,00153.0833,W,1,0,,115.0,M,,M,,*4E
$GPRMC,110703.000,A,5359.0620,N,00153.0833,W,0.000,0.00,170912,,A*69
$GPGGA,110718.000,5359.0552,N,00153.0938,W,1,0,,115.0,M,,M,,*48
$GPRMC,110718.000,A,5359.0552,N,00153.0938,W,0.000,0.00,170912,,A*6F
$GPGGA,110733.000,5359.0495,N,00153.1078,W,1,0,,115.0,M,,M,,*47
$GPRMC,110733.000,A,5359.0495,N,00153.1078,W,0.000,0.00,170912,,A*60
$GPGGA,110748.000,5359.0405,N,00153.1177,W,1,0,,115.0,M,,M,,*4C
$GPRMC,110748.000,A,5359.0405,N,00153.1177,W,0.000,0.00,170912,,A*6B
$GPGGA,110803.000,5359.0341,N,00153.1297,W,1,0,,114.0,M,,M,,*47
$GPRMC,110803.000,A,5359.0341,N,00153.1297,W,0.000,0.00,170912,,A*61
$GPGGA,110818.000,5359.0314,N,00153.1431,W,1,0,,114.0,M,,M,,*47
$GPRMC,110818.000,A,5359.0314,N,00153.1431,W,0.000,0.00,170912,,A*61
$GPGGA,110833.000,5359.0279,N,00153.1537,W,1,0,,113.0,M,,M,,*44
$GPRMC,110833.000,A,5359.0279,N,00153.1537,W,0.000,0.00,170912,,A*65
$GPGGA,110848.000,5359.0202,N,00153.1533,W,1,0,,111.0,M,,M,,*42
$GPRMC,110848.000,A,5359.0202,N,00153.1533,W,0.000,0.00,170912,,A*61
$GPGGA,110903.000,5359.0105,N,00153.1547,W,1,0,,110.0,M,,M,,*4A
$GPRMC,110903.000,A,5359.0105,N,00153.1547,W,0.000,0.00,170912,,A*68
$GPGGA,110919.000,5358.9986,N,00153.1641,W,1,0,,110.0,M,,M,,*4F
$GPRMC,110919.000,A,5358.9986,N,00153.1641,W,0.000,0.00,170912,,A*6D
$GPGGA,110934.000,5358.9964,N,00153.1728,W,1,0,,110.0,M,,M,,*42
$GPRMC,110934.000,A,5358.9964,N,00153.1728,W,0.000,0.00,170912,,A*60
$GPGGA,110949.000,5358.9948,N,00153.1865,W,1,0,,110.0,M,,M,,*40
$GPRMC,110949.000,A,5358.9948,N,00153.1865,W,0.000,0.00,170912,,A*62
$GPGGA,111004.000,5358.9941,N,00153.1890,W,1,0,,110.0,M,,M,,*42
$GPRMC,111004.000,A,5358.9941,N,00153.1890,W,0.000,0.00,170912,,A*60
$GPGGA,111019.000,5358.9943,N,00153.2034,W,1,0,,110.0,M,,M,,*49
$GPRMC,111019.000,A,5358.9943,N,00153.2034,W,0.000,0.00,170912,,A*6B
$GPGGA,111034.000,5358.9943,N,00153.2118,W,1,0,,109.0,M,,M,,*41
$GPRMC,111034.000,A,5358.9943,N,00153.2118,W,0.000,0.00,170912,,A*6B
$GPGGA,111049.000,5358.9943,N,00153.2193,W,1,0,,110.0,M,,M,,*40
$GPRMC,111049.000,A,5358.9943,N,00153.2193,W,0.000,0.00,170912,,A*62
$GPGGA,111104.000,5358.9961,N,00153.2322,W,1,0,,109.0,M,,M,,*48
$GPRMC,111104.000,A,5358.9961,N,00153.2322,W,0.000,0.00,170912,,A*62
$GPGGA,111119.000,5358.9931,N,00153.2532,W,1,0,,108.0,M,,M,,*47
$GPRMC,111119.000,A,5358.9931,N,00153.2532,W,0.000,0.00,170912,,A*6C
$GPGGA,111136.000,5359.0016,N,00153.2689,W,1,0,,108.0,M,,M,,*4D
$GPRMC,111136.000,A,5359.0016,N,00153.2689,W,0.000,0.00,170912,,A*66
$GPGGA,111151.000,5359.0041,N,00153.2775,W,1,0,,108.0,M,,M,,*4C
$GPRMC,111151.000,A,5359.0041,N,00153.2775,W,0.000,0.00,170912,,A*67
$GPGGA,111206.000,5359.0092,N,00153.2791,W,1,0,,108.0,M,,M,,*49
$GPRMC,111206.000,A,5359.0092,N,00153.2791,W,0.000,0.00,170912,,A*62
$GPGGA,111222.000,5359.0094,N,00153.2865,W,1,0,,107.0,M,,M,,*42
$GPRMC,111222.000,A,5359.0094,N,00153.2865,W,0.000,0.00,170912,,A*66
$GPGGA,111237.000,5359.0108,N,00153.2905,W,1,0,,107.0,M,,M,,*45
$GPRMC,111237.000,A,5359.0108,N,00153.2905,W,0.000,0.00,170912,,A*61
$GPGGA,111253.000,5359.0144,N,00153.2978,W,1,0,,107.0,M,,M,,*45
$GPRMC,111253.000,A,5359.0144,N,00153.2978,W,0.000,0.00,170912,,A*61
$GPGGA,111308.000,5359.0124,N,00153.3096,W,1,0,,107.0,M,,M,,*44
$GPRMC,111308.000,A,5359.0124,N,00153.3096,W,0.000,0.00,170912,,A*60
$GPGGA,111338.000,5359.0197,N,00153.3279,W,1,0,,107.0,M,,M,,*4C
$GPRMC,111338.000,A,5359.0197,N,00153.3279,W,0.000,0.00,170912,,A*68
$GPGGA,111353.000,5359.0206,N,00153.3330,W,1,0,,107.0,M,,M,,*46
$GPRMC,111353.000,A,5359.0206,N,00153.3330,W,0.000,0.00,170912,,A*62
$GPGGA,111432.000,5359.0293,N,00153.3480,W,1,0,,107.0,M,,M,,*46
$GPRMC,111432.000,A,5359.0293,N,00153.3480,W,0.000,0.00,170912,,A*62
$GPGGA,111447.000,5359.0192,N,00153.3388,W,1,0,,107.0,M,,M,,*49
$GPRMC,111447.000,A,5359.0192,N,00153.3388,W,0.000,0.00,170912,,A*6D
$GPGGA,111502.000,5359.0147,N,00153.3371,W,1,0,,107.0,M,,M,,*47
$GPRMC,111502.000,A,5359.0147,N,00153.3371,W,0.000,0.00,170912,,A*63
$GPGGA,111517.000,5359.0163,N,00153.3380,W,1,0,,107.0,M,,M,,*4B
$GPRMC,111517.000,A,5359.0163,N,00153.3380,W,0.000,0.00,170912,,A*6F
$GPGGA,111532.000,5359.0149,N,00153.3414,W,1,0,,107.0,M,,M,,*4E
$GPRMC,111532.000,A,5359.0149,N,00153.3414,W,0.000,0.00,170912,,A*6A
$GPGGA,111548.000,5359.0142,N,00153.3478,W,1,0,,107.0,M,,M,,*42
$GPRMC,111548.000,A,5359.0142,N,00153.3478,W,0.000,0.00,170912,,A*66
$GPGGA,111603.000,5359.0144,N,00153.3497,W,1,0,,107.0,M,,M,,*49
$GPRMC,111603.000,A,5359.0144,N,00153.3497,W,0.000,0.00,170912,,A*6D
$GPGGA,111619.000,5359.0167,N,00153.3503,W,1,0,,107.0,M,,M,,*4F
$GPRMC,111619.000,A,5359.0167,N,00153.3503,W,0.000,0.00,170912,,A*6B
$GPGGA,111634.000,5359.0064,N,00153.3544,W,1,0,,107.0,M,,M,,*41
$GPRMC,111634.000,A,5359.0064,N,00153.3544,W,0.000,0.00,170912,,A*65
$GPGGA,111651.000,5358.9980,N,00153.3566,W,1,0,,107.0,M,,M,,*49
$GPRMC,111651.000,A,5358.9980,N,00153.3566,W,0.000,0.00,170912,,A*6D
$GPGGA,111707.000,5358.9854,N,00153.3666,W,1,0,,107.0,M,,M,,*40
$GPRMC,111707.000,A,5358.9854,N,00153.3666,W,0.000,0.00,170912,,A*64
$GPGGA,111722.000,5358.9794,N,00153.3719,W,1,0,,107.0,M,,M,,*4D
$GPRMC,111722.000,A,5358.9794,N,00153.3719,W,0.000,0.00,170912,,A*69
$GPGGA,111737.000,5358.9730,N,00153.3821,W,1,0,,106.0,M,,M,,*42
$GPRMC,111737.000,A,5358.9730,N,00153.3821,W,0.000,0.00,170912,,A*67
$GPGGA,111753.000,5358.9682,N,00153.3951,W,1,0,,107.0,M,,M,,*4F
$GPRMC,111753.000,A,5358.9682,N,00153.3951,W,0.000,0.00,170912,,A*6B
$GPGGA,111808.000,5358.9636,N,00153.4066,W,1,0,,106.0,M,,M,,*4A
$GPRMC,111808.000,A,5358.9636,N,00153.4066,W,0.000,0.00,170912,,A*6F
$GPGGA,111823.000,5358.9577,N,00153.4218,W,1,0,,106.0,M,,M,,*4E
$GPRMC,111823.000,A,5358.9577,N,00153.4218,W,0.000,0.00,170912,,A*6B
$GPGGA,111839.000,5358.9545,N,00153.4397,W,1,0,,106.0,M,,M,,*42
$GPRMC,111839.000,A,5358.9545,N,00153.4397,W,0.000,0.00,170912,,A*67
$GPGGA,111907.000,5358.9449,N,00153.4601,W,1,0,,106.0,M,,M,,*49
$GPRMC,111907.000,A,5358.9449,N,00153.4601,W,0.000,0.00,170912,,A*6C
$GPGGA,111922.000,5358.9433,N,00153.4639,W,1,0,,106.0,M,,M,,*48
$GPRMC,111922.000,A,5358.9433,N,00153.4639,W,0.000,0.00,170912,,A*6D
$GPGGA,111939.000,5358.9288,N,00153.4691,W,1,0,,106.0,M,,M,,*46
$GPRMC,111939.000,A,5358.9288,N,00153.4691,W,0.000,0.00,170912,,A*63
$GPGGA,111956.000,5358.9162,N,00153.4841,W,1,0,,106.0,M,,M,,*4B
$GPRMC,111956.000,A,5358.9162,N,00153.4841,W,0.000,0.00,170912,,A*6E
$GPGGA,112011.000,5358.9043,N,00153.4808,W,1,0,,107.0,M,,M,,*4C
$GPRMC,112011.000,A,5358.9043,N,00153.4808,W,0.000,0.00,170912,,A*68
$GPGGA,112026.000,5358.8954,N,00153.4831,W,1,0,,107.0,M,,M,,*4C
$GPRMC,112026.000,A,5358.8954,N,00153.4831,W,0.000,0.00,170912,,A*68
$GPGGA,112041.000,5358.8890,N,00153.4850,W,1,0,,107.0,M,,M,,*43
$GPRMC,112041.000,A,5358.8890,N,00153.4850,W,0.000,0.00,170912,,A*67
$GPGGA,112056.000,5358.8920,N,00153.4930,W,1,0,,107.0,M,,M,,*48
$GPRMC,112056.000,A,5358.8920,N,00153.4930,W,0.000,0.00,170912,,A*6C
$GPGGA,112119.000,5358.8918,N,00153.5011,W,1,0,,106.0,M,,M,,*43
$GPRMC,112119.000,A,5358.8918,N,00153.5011,W,0.000,0.00,170912,,A*66
$GPGGA,112141.000,5358.8913,N,00153.5240,W,1,0,,106.0,M,,M,,*43
$GPRMC,112141.000,A,5358.8913,N,00153.5240,W,0.000,0.00,170912,,A*66
$GPGGA,112157.000,5358.8936,N,00153.5456,W,1,0,,106.0,M,,M,,*42
$GPRMC,112157.000,A,5358.8936,N,00153.5456,W,0.000,0.00,170912,,A*67
$GPGGA,112212.000,5358.8936,N,00153.5623,W,1,0,,106.0,M,,M,,*40
$GPRMC,112212.000,A,5358.8936,N,00153.5623,W,0.000,0.00,170912,,A*65
$GPGGA,112230.000,5358.8892,N,00153.5756,W,1,0,,106.0,M,,M,,*4C
$GPRMC,112230.000,A,5358.8892,N,00153.5756,W,0.000,0.00,170912,,A*69
$GPGGA,112245.000,5358.8867,N,00153.5756,W,1,0,,106.0,M,,M,,*44
$GPRMC,112245.000,A,5358.8867,N,00153.5756,W,0.000,0.00,170912,,A*61
$GPGGA,112300.000,5358.8844,N,00153.5760,W,1,0,,106.0,M,,M,,*40
$GPRMC,112300.000,A,5358.8844,N,00153.5760,W,0.000,0.00,170912,,A*65
$GPGGA,112316.000,5358.8826,N,00153.5891,W,1,0,,106.0,M,,M,,*42
$GPRMC,112316.000,A,5358.8826,N,00153.5891,W,0.000,0.00,170912,,A*67
$GPGGA,112331.000,5358.8778,N,00153.5909,W,1,0,,106.0,M,,M,,*43
$GPRMC,112331.000,A,5358.8778,N,00153.5909,W,0.000,0.00,170912,,A*66
$GPGGA,112346.000,5358.8746,N,00153.5942,W,1,0,,106.0,M,,M,,*41
$GPRMC,112346.000,A,5358.8746,N,00153.5942,W,0.000,0.00,170912,,A*64
$GPGGA,112402.000,5358.8691,N,00153.5980,W,1,0,,106.0,M,,M,,*43
$GPRMC,112402.000,A,5358.8691,N,00153.5980,W,0.000,0.00,170912,,A*66
$GPGGA,112419.000,5358.8698,N,00153.5999,W,1,0,,105.0,M,,M,,*4B
$GPRMC,112419.000,A,5358.8698,N,00153.5999,W,0.000,0.00,170912,,A*6D
$GPGGA,112434.000,5358.8652,N,00153.6025,W,1,0,,105.0,M,,M,,*4F
$GPRMC,112434.000,A,5358.8652,N,00153.6025,W,0.000,0.00,170912,,A*69
$GPGGA,112449.000,5358.8663,N,00153.6008,W,1,0,,105.0,M,,M,,*48
$GPRMC,112449.000,A,5358.8663,N,00153.6008,W,0.000,0.00,170912,,A*6E
$GPGGA,112504.000,5358.8739,N,00153.5985,W,1,0,,105.0,M,,M,,*41
$GPRMC,112504.000,A,5358.8739,N,00153.5985,W,0.000,0.00,170912,,A*67
$GPGGA,112519.000,5358.8723,N,00153.5976,W,1,0,,105.0,M,,M,,*4A
$GPRMC,112519.000,A,5358.8723,N,00153.5976,W,0.000,0.00,170912,,A*6C
$GPGGA,112534.000,5358.8723,N,00153.5964,W,1,0,,105.0,M,,M,,*46
$GPRMC,112534.000,A,5358.8723,N,00153.5964,W,0.000,0.00,170912,,A*60
$GPGGA,112549.000,5358.8714,N,00153.5958,W,1,0,,105.0,M,,M,,*47
$GPRMC,112549.000,A,5358.8714,N,00153.5958,W,0.000,0.00,170912,,A*61
$GPGGA,112608.000,5358.8696,N,00153.6002,W,1,0,,105.0,M,,M,,*4F
$GPRMC,112608.000,A,5358.8696,N,00153.6002,W,0.000,0.00,170912,,A*69
$GPGGA,112625.000,5358.8691,N,00153.5983,W,1,0,,105.0,M,,M,,*44
$GPRMC,112625.000,A,5358.8691,N,00153.5983,W,0.000,0.00,170912,,A*62
$GPGGA,112640.000,5358.8693,N,00153.5979,W,1,0,,105.0,M,,M,,*40
$GPRMC,112640.000,A,5358.8693,N,00153.5979,W,0.000,0.00,170912,,A*66
